sys_ms,nmea_ms,nmea
758323,28694300,$GNGGA,075814.30,3158.67342356,N,12054.58410038,E,4,22,0.9,9.6093,M,8.7156,M,1.3,0*5C
758325,58178000,$GNVTG,168.098,T,174.724,M,0.07506,N,0.13902,K,D*38
758327,28694400,$GNGGA,075814.40,3158.67342314,N,12054.58409979,E,4,22,0.9,9.6042,M,8.7156,M,0.4,0*53
758329,72370000,$GNVTG,200.370,T,206.996,M,0.12191,N,0.22577,K,D*33
758331,28694500,$GNGGA,075814.50,3158.67342690,N,12054.58410009,E,4,22,0.9,9.6009,M,8.7156,M,0.5,0*53
758332,76643000,$GNVTG,217.623,T,224.249,M,0.09092,N,0.16838,K,D*36
758337,28694600,$GNGGA,075814.60,3158.67343080,N,12054.58410279,E,4,22,0.9,9.6018,M,8.7156,M,0.6,0*50
758339,123000,$GNVTG,0.023,T,6.649,M,0.09551,N,0.17689,K,D*3D
758341,28694700,$GNGGA,075814.70,3158.67343100,N,12054.58410033,E,4,22,0.9,9.5999,M,8.7156,M,0.7,0*56
758343,46828000,$GNVTG,13.628,T,20.254,M,0.12524,N,0.23194,K,D*3A
758345,28694800,$GNGGA,075814.80,3158.67343342,N,12054.58410344,E,4,22,0.9,9.5879,M,8.7156,M,0.8,0*5E
758346,50401000,$GNVTG,14.501,T,21.127,M,0.08063,N,0.14934,K,D*38
758349,28694900,$GNGGA,075814.90,3158.67343371,N,12054.58410116,E,4,22,0.9,9.5958,M,8.7156,M,0.9,0*59
758353,29347000,$GNVTG,7.697,T,14.323,M,0.04713,N,0.08728,K,D*04
758355,28695000,$GNGGA,075815.00,3158.67343927,N,12054.58410155,E,4,22,0.9,9.5765,M,8.7156,M,1.0,0*57
758357,115961000,$GNVTG,325.461,T,332.087,M,0.05565,N,0.10306,K,D*35
758359,28695100,$GNGGA,075815.10,3158.67344004,N,12054.58410119,E,4,22,0.9,9.5726,M,8.7156,M,1.1,0*57
758361,6305000,$GNVTG,1.455,T,8.081,M,0.05248,N,0.09719,K,D*31
758363,28695200,$GNGGA,075815.20,3158.67343956,N,12054.58410368,E,4,22,0.9,9.5938,M,8.7156,M,1.2,0*5B
758367,216004992,$GNVTG,60.805,T,67.431,M,0.03954,N,0.07322,K,D*3B
758370,28695300,$GNGGA,075815.30,3158.67343950,N,12054.58410593,E,4,22,0.9,9.5976,M,8.7156,M,1.3,0*55
758371,352899008,$GNVTG,98.299,T,104.925,M,0.04227,N,0.07829,K,D*07
758373,28695400,$GNGGA,075815.40,3158.67343908,N,12054.58410622,E,4,22,0.9,9.6017,M,8.7156,M,1.4,0*5C
758375,36386000,$GNVTG,102.266,T,108.892,M,0.04556,N,0.08438,K,D*36
758377,28695500,$GNGGA,075815.50,3158.67343824,N,12054.58410801,E,4,22,0.9,9.5978,M,8.7156,M,1.5,0*5F
758382,37071000,$GNVTG,102.951,T,109.577,M,0.09340,N,0.17298,K,D*30
758384,28695600,$GNGGA,075815.60,3158.67343858,N,12054.58410896,E,4,22,0.9,9.5997,M,8.7156,M,0.6,0*5A
758386,58575000,$GNVTG,166.615,T,173.241,M,0.04764,N,0.08823,K,D*39
758388,28695700,$GNGGA,075815.70,3158.67343476,N,12054.58410704,E,4,22,0.9,9.6043,M,8.7156,M,0.7,0*5D
758389,59120000,$GNVTG,169.980,T,176.606,M,0.06098,N,0.11294,K,D*3F
758395,28695800,$GNGGA,075815.80,3158.67343332,N,12054.58410744,E,4,22,0.9,9.6064,M,8.7156,M,0.8,0*5B
758396,65285000,$GNVTG,180.485,T,187.111,M,0.06150,N,0.11390,K,D*3F
758398,28695900,$GNGGA,075815.90,3158.67343261,N,12054.58410599,E,4,22,0.9,9.6101,M,8.7156,M,0.9,0*5C
758400,65644000,$GNVTG,185.544,T,192.170,M,0.05394,N,0.09990,K,D*3F
758402,28696000,$GNGGA,075816.00,3158.67343078,N,12054.58410576,E,4,22,0.9,9.6158,M,8.7156,M,1.0,0*59
758404,66100000,$GNVTG,187.880,T,194.506,M,0.04602,N,0.08523,K,D*35
758409,28696100,$GNGGA,075816.10,3158.67342945,N,12054.58410609,E,4,23,0.8,9.6157,M,8.7156,M,1.1,0*5B
758411,69174000,$GNVTG,195.474,T,202.100,M,0.04703,N,0.08711,K,D*3C
758627,28696200,$GNGGA,075816.20,3158.67343303,N,12054.58410992,E,4,23,0.8,9.5920,M,8.7156,M,1.2,0*54
758629,72714000,$GNVTG,200.714,T,207.340,M,0.04808,N,0.08904,K,D*3B
758631,28696300,$GNGGA,075816.30,3158.67343155,N,12054.58410815,E,4,23,0.8,9.5961,M,8.7156,M,1.3,0*5E
758633,69640000,$GNVTG,199.700,T,206.326,M,0.04555,N,0.08436,K,D*35
758638,28696400,$GNGGA,075816.40,3158.67343159,N,12054.58410819,E,4,23,0.8,9.5947,M,8.7156,M,0.4,0*5B
758640,72574000,$GNVTG,207.154,T,213.780,M,0.03819,N,0.07073,K,D*32
758935,28696500,$GNGGA,075816.50,3158.67343264,N,12054.58410728,E,4,23,0.8,9.5903,M,8.7156,M,0.5,0*5B
758941,76012000,$GNVTG,216.052,T,222.678,M,0.02615,N,0.04843,K,D*3A
758943,28696600,$GNGGA,075816.60,3158.67343330,N,12054.58410857,E,4,23,0.8,9.5921,M,8.7156,M,0.6,0*5C
758945,69805000,$GNVTG,198.925,T,205.551,M,0.01696,N,0.03141,K,D*3F
758947,28696700,$GNGGA,075816.70,3158.67343226,N,12054.58410700,E,4,23,0.8,9.5974,M,8.7156,M,0.7,0*57
758951,72765000,$GNVTG,201.705,T,208.330,M,0.01724,N,0.03192,K,D*3A
759237,28696800,$GNGGA,075816.80,3158.67343066,N,12054.58410732,E,4,23,0.8,9.6036,M,8.7156,M,0.8,0*5C
759239,76280000,$GNVTG,210.680,T,217.306,M,0.01515,N,0.02806,K,D*38
759241,28696900,$GNGGA,075816.90,3158.67343074,N,12054.58410934,E,4,23,0.8,9.6018,M,8.7156,M,0.9,0*5B
759243,122608000,$GNVTG,341.148,T,347.774,M,0.00147,N,0.00271,K,D*31
759245,28697000,$GNGGA,075817.00,3158.67343128,N,12054.58410667,E,4,23,0.8,9.5904,M,8.7156,M,1.0,0*5D
759249,112971000,$GNVTG,319.831,T,326.457,M,0.00936,N,0.01733,K,D*32
759541,28697100,$GNGGA,075817.10,3158.67342957,N,12054.58410266,E,4,24,0.8,9.5921,M,8.7156,M,1.1,0*59
759546,101586000,$GNVTG,286.426,T,293.052,M,0.01565,N,0.02899,K,D*36
759548,28697200,$GNGGA,075817.20,3158.67342867,N,12054.58410029,E,4,24,0.8,9.5768,M,8.7156,M,1.2,0*51
759550,87056000,$GNVTG,241.596,T,248.221,M,0.07085,N,0.13121,K,D*30
759552,28697300,$GNGGA,075817.30,3158.67342809,N,12054.58409605,E,4,24,0.8,9.5740,M,8.7156,M,1.3,0*53
759555,83703000,$GNVTG,234.663,T,241.289,M,0.09115,N,0.16880,K,D*31
759848,28697400,$GNGGA,075817.40,3158.67342445,N,12054.58409488,E,4,24,0.8,9.5713,M,8.7156,M,1.4,0*56
759850,79984000,$GNVTG,224.544,T,231.170,M,0.12385,N,0.22937,K,D*3F
759852,28697500,$GNGGA,075817.50,3158.67341888,N,12054.58409397,E,4,24,0.8,9.5629,M,8.7156,M,1.5,0*59
759854,73450000,$GNVTG,209.910,T,216.536,M,0.16612,N,0.30766,K,D*38
759856,28697600,$GNGGA,075817.60,3158.67341695,N,12054.58410359,E,4,24,0.8,9.5537,M,8.7156,M,0.6,0*5C
759860,54962000,$GNVTG,152.842,T,159.468,M,0.14550,N,0.26946,K,D*3D
760154,28697700,$GNGGA,075817.70,3158.67342238,N,12054.58412467,E,4,24,0.8,9.5414,M,8.7156,M,0.7,0*54
760160,309695008,$GNVTG,86.595,T,93.221,M,0.40977,N,0.75889,K,D*32
760162,28697800,$GNGGA,075817.80,3158.67343381,N,12054.58416109,E,4,24,0.8,9.5333,M,8.7156,M,0.8,0*5D
760164,262852000,$GNVTG,73.052,T,79.678,M,0.96991,N,1.79628,K,D*31
760166,28697900,$GNGGA,075817.90,3158.67345076,N,12054.58422292,E,4,24,0.8,9.5125,M,8.7156,M,0.9,0*53
760171,255675008,$GNVTG,71.675,T,78.301,M,1.84894,N,3.42424,K,D*38
760458,28698000,$GNGGA,075818.00,3158.67347204,N,12054.58430101,E,4,24,0.8,9.5049,M,8.7156,M,1.0,0*59
760460,262848992,$GNVTG,73.649,T,80.275,M,2.50677,N,4.64254,K,D*3B
760462,28698100,$GNGGA,075818.10,3158.67349250,N,12054.58438582,E,4,24,0.8,9.5099,M,8.7156,M,1.1,0*5C
760464,277216000,$GNVTG,77.816,T,84.443,M,3.04764,N,5.64423,K,D*38
760764,28698200,$GNGGA,075818.20,3158.67351226,N,12054.58447634,E,4,24,0.8,9.5189,M,8.7156,M,1.2,0*52
760771,280828992,$GNVTG,78.829,T,85.456,M,3.05907,N,5.66540,K,D*32
760773,28698300,$GNGGA,075818.30,3158.67351588,N,12054.58453966,E,4,24,0.8,9.5504,M,8.7156,M,1.3,0*5D
760775,288028000,$GNVTG,80.528,T,87.155,M,2.63034,N,4.87139,K,D*31
760777,28698400,$GNGGA,075818.40,3158.67351109,N,12054.58459228,E,4,24,0.8,9.5710,M,8.7156,M,0.4,0*5D
760779,309614016,$GNVTG,86.914,T,93.540,M,2.00165,N,3.70706,K,D*34
760782,28698500,$GNGGA,075818.50,3158.67350377,N,12054.58461937,E,4,23,0.8,9.6095,M,8.7156,M,0.5,0*57
760784,356488992,$GNVTG,99.889,T,106.515,M,1.05482,N,1.95352,K,D*04
761073,28698600,$GNGGA,075818.60,3158.67349990,N,12054.58465760,E,4,23,0.8,9.5897,M,8.7156,M,0.6,0*5D
761075,40016000,$GNVTG,112.296,T,118.922,M,0.69517,N,1.28746,K,D*34
761077,28698700,$GNGGA,075818.70,3158.67349059,N,12054.58468604,E,4,24,0.8,9.5881,M,8.7156,M,0.7,0*5F
761079,40351000,$GNVTG,119.211,T,125.837,M,0.67470,N,1.24954,K,D*34
761084,28698800,$GNGGA,075818.80,3158.67348170,N,12054.58470909,E,4,23,0.8,9.5785,M,8.7156,M,0.8,0*53
761086,43517000,$GNVTG,122.197,T,128.823,M,0.68663,N,1.27164,K,D*3E
761379,28698900,$GNGGA,075818.90,3158.67347530,N,12054.58472353,E,4,23,0.8,9.5788,M,8.7156,M,0.9,0*56
761385,40501000,$GNVTG,118.421,T,125.047,M,0.62871,N,1.16438,K,D*31
761387,28699000,$GNGGA,075819.00,3158.67347406,N,12054.58473446,E,4,23,0.8,9.5866,M,8.7156,M,1.0,0*5F
761389,36685000,$GNVTG,101.625,T,108.251,M,0.48688,N,0.90171,K,D*32
761391,28699100,$GNGGA,075819.10,3158.67347627,N,12054.58474163,E,4,23,0.8,9.5901,M,8.7156,M,1.1,0*5B
761395,273696000,$GNVTG,76.496,T,83.122,M,0.28491,N,0.52765,K,D*3D
761684,28699200,$GNGGA,075819.20,3158.67348262,N,12054.58474095,E,4,23,0.8,9.5944,M,8.7156,M,1.2,0*58
761686,90088000,$GNVTG,25.588,T,32.214,M,0.21723,N,0.40231,K,D*3D
761688,28699300,$GNGGA,075819.30,3158.67348800,N,12054.58474242,E,4,23,0.8,9.5943,M,8.7156,M,1.3,0*59
761689,126499000,$GNVTG,357.079,T,3.705,M,0.26263,N,0.48639,K,D*35
761692,28699400,$GNGGA,075819.40,3158.67349316,N,12054.58474437,E,4,23,0.8,9.5949,M,8.7156,M,0.4,0*5B
761696,126995000,$GNVTG,359.455,T,6.081,M,0.24409,N,0.45205,K,D*31
761984,28699500,$GNGGA,075819.50,3158.67349358,N,12054.58474740,E,4,23,0.8,9.5973,M,8.7156,M,0.5,0*5B
761990,39639000,$GNVTG,11.839,T,18.465,M,0.14154,N,0.26214,K,D*32
761992,28699600,$GNGGA,075819.60,3158.67349460,N,12054.58474586,E,4,23,0.8,9.5992,M,8.7156,M,0.6,0*50
761994,47566000,$GNVTG,135.466,T,142.092,M,0.06566,N,0.12161,K,D*31
761996,28699700,$GNGGA,075819.70,3158.67349489,N,12054.58474675,E,4,23,0.8,9.5965,M,8.7156,M,0.7,0*50
762001,61521000,$GNVTG,175.021,T,181.647,M,0.05322,N,0.09856,K,D*31
762304,28699800,$GNGGA,075819.80,3158.67349608,N,12054.58474795,E,4,23,0.8,9.5964,M,8.7156,M,0.8,0*55
762306,44430000,$GNVTG,124.990,T,131.616,M,0.04786,N,0.08864,K,D*32
762308,28699900,$GNGGA,075819.90,3158.67349431,N,12054.58475017,E,4,23,0.8,9.6021,M,8.7156,M,0.9,0*5A
762310,345649984,$GNVTG,96.050,T,102.676,M,0.08629,N,0.15981,K,D*07
762312,28700000,$GNGGA,075820.00,3158.67349186,N,12054.58475545,E,4,23,0.8,9.6012,M,8.7156,M,1.0,0*5A
762317,39941000,$GNVTG,110.341,T,116.967,M,0.14118,N,0.26147,K,D*3B
762612,28700100,$GNGGA,075820.10,3158.67349208,N,12054.58475649,E,4,23,0.8,9.5863,M,8.7156,M,1.1,0*5D
762618,40279000,$GNVTG,113.499,T,120.125,M,0.14940,N,0.27669,K,D*3E
762620,28700200,$GNGGA,075820.20,3158.67349114,N,12054.58475930,E,4,23,0.8,9.5899,M,8.7156,M,1.2,0*57
762622,40443000,$GNVTG,111.783,T,118.409,M,0.14362,N,0.26598,K,D*32
762624,28700300,$GNGGA,075820.30,3158.67349257,N,12054.58476240,E,4,23,0.8,9.5906,M,8.7156,M,1.3,0*5B
762629,176468000,$GNVTG,49.068,T,55.694,M,0.04012,N,0.07431,K,D*36
762631,28700400,$GNGGA,075820.40,3158.67349203,N,12054.58476192,E,4,23,0.8,9.5905,M,8.7156,M,1.4,0*55
762633,122459000,$GNVTG,34.759,T,41.385,M,0.03403,N,0.06302,K,D*3C
762918,28700500,$GNGGA,075820.50,3158.67349306,N,12054.58476378,E,4,23,0.8,9.5927,M,8.7156,M,1.5,0*57
762920,61287000,$GNVTG,17.087,T,23.713,M,0.02126,N,0.03937,K,D*3C
762922,28700600,$GNGGA,075820.60,3158.67349417,N,12054.58476442,E,4,23,0.8,9.5938,M,8.7156,M,0.6,0*51
762926,11586000,$GNVTG,3.136,T,9.762,M,0.02705,N,0.05009,K,D*39
763218,28700700,$GNGGA,075820.70,3158.67349330,N,12054.58476621,E,4,23,0.8,9.5933,M,8.7156,M,0.7,0*5F
763224,284459008,$GNVTG,79.259,T,85.884,M,0.02055,N,0.03806,K,D*3E
763226,28700800,$GNGGA,075820.80,3158.67349130,N,12054.58476544,E,4,23,0.8,9.5946,M,8.7156,M,0.8,0*5F
763228,55091000,$GNVTG,154.851,T,161.477,M,0.06162,N,0.11412,K,D*32
763230,28700900,$GNGGA,075820.90,3158.67348882,N,12054.58476132,E,4,23,0.8,9.5775,M,8.7156,M,0.9,0*55
763235,69267000,$GNVTG,196.507,T,203.133,M,0.09127,N,0.16903,K,D*34
763237,28701000,$GNGGA,075821.00,3158.67348592,N,12054.58475247,E,4,23,0.8,9.5685,M,8.7156,M,1.0,0*55
763239,83922000,$GNVTG,234.882,T,241.508,M,0.17279,N,0.32001,K,D*3F
763543,28701100,$GNGGA,075821.10,3158.67348885,N,12054.58475678,E,4,23,0.8,9.5663,M,8.7156,M,1.1,0*5E
763545,80060000,$GNVTG,224.620,T,231.246,M,0.16431,N,0.30431,K,D*3C
763547,28701200,$GNGGA,075821.20,3158.67348453,N,12054.58476964,E,4,23,0.8,9.5699,M,8.7156,M,1.2,0*5D
763552,47514000,$GNVTG,130.714,T,137.340,M,0.21054,N,0.38993,K,D*30
763554,28701300,$GNGGA,075821.30,3158.67348518,N,12054.58479545,E,4,23,0.8,9.5663,M,8.7156,M,1.3,0*56
763556,36739000,$GNVTG,102.619,T,109.245,M,0.66872,N,1.23848,K,D*37
763844,28701400,$GNGGA,075821.40,3158.67349131,N,12054.58482634,E,4,23,0.8,9.5645,M,8.7156,M,0.4,0*5C
763851,320419008,$GNVTG,89.319,T,95.946,M,0.96076,N,1.77933,K,D*33
763853,28701500,$GNGGA,075821.50,3158.67350351,N,12054.58486868,E,4,23,0.8,9.5687,M,8.7156,M,0.5,0*5D
763855,277228992,$GNVTG,77.229,T,83.855,M,1.26148,N,2.33625,K,D*39
763857,28701600,$GNGGA,075821.60,3158.67351399,N,12054.58491772,E,4,23,0.8,9.5638,M,8.7157,M,0.6,0*5F
763858,262894000,$GNVTG,73.394,T,80.020,M,1.50801,N,2.79284,K,D*37
764148,28701700,$GNGGA,075821.70,3158.67353995,N,12054.58499424,E,4,23,0.8,9.5545,M,8.7157,M,0.7,0*5A
764153,248444992,$GNVTG,69.145,T,75.771,M,2.17029,N,4.01937,K,D*33
764155,28701800,$GNGGA,075821.80,3158.67356844,N,12054.58508879,E,4,22,0.8,9.5341,M,8.7157,M,0.8,0*5C
764156,252050000,$GNVTG,70.450,T,77.076,M,3.01073,N,5.57588,K,D*3B
764158,28701900,$GNGGA,075821.90,3158.67359129,N,12054.58519091,E,4,22,0.8,9.5132,M,8.7157,M,0.9,0*59
764160,259227008,$GNVTG,72.827,T,79.454,M,3.44678,N,6.38343,K,D*38
764451,28702000,$GNGGA,075822.00,3158.67360119,N,12054.58526037,E,4,23,0.8,9.5387,M,8.7157,M,1.0,0*5F
764456,273601984,$GNVTG,76.802,T,83.428,M,3.02585,N,5.60387,K,D*30
764458,28702100,$GNGGA,075822.10,3158.67360400,N,12054.58530884,E,4,23,0.8,9.5790,M,8.7157,M,1.1,0*57
764460,298815008,$GNVTG,83.015,T,89.641,M,1.92772,N,3.57015,K,D*38
764462,28702200,$GNGGA,075822.20,3158.67360436,N,12054.58534381,E,4,23,0.8,9.5921,M,8.7157,M,1.2,0*5C
764463,324068992,$GNVTG,90.869,T,97.495,M,0.86359,N,1.59938,K,D*3E
764754,28702300,$GNGGA,075822.30,3158.67359365,N,12054.58536518,E,4,21,0.8,9.6016,M,8.7157,M,1.3,0*5F
764759,43546000,$GNVTG,120.346,T,126.972,M,0.46396,N,0.85926,K,D*3D
764761,28702400,$GNGGA,075822.40,3158.67358257,N,12054.58537881,E,4,21,0.8,9.5894,M,8.7157,M,0.4,0*52
764763,54858000,$GNVTG,152.738,T,159.364,M,0.44853,N,0.83067,K,D*3A
764765,28702500,$GNGGA,075822.50,3158.67357585,N,12054.58540083,E,4,23,0.8,9.5651,M,8.7157,M,0.5,0*5A
764766,54306000,$GNVTG,151.246,T,157.872,M,0.55293,N,1.02402,K,D*3E
765059,28702600,$GNGGA,075822.60,3158.67356701,N,12054.58541014,E,4,23,0.8,9.5843,M,8.7157,M,0.6,0*57
765066,51482000,$GNVTG,143.902,T,150.528,M,0.53814,N,0.99664,K,D*31
765068,28702700,$GNGGA,075822.70,3158.67356326,N,12054.58542245,E,4,23,0.8,9.5927,M,8.7157,M,0.7,0*50
765070,41011000,$GNVTG,117.991,T,124.617,M,0.43707,N,0.80946,K,D*3D
765072,28702800,$GNGGA,075822.80,3158.67356374,N,12054.58543451,E,4,23,0.8,9.6020,M,8.7157,M,0.8,0*58
765074,302411008,$GNVTG,84.111,T,90.737,M,0.41951,N,0.77693,K,D*3B
765378,28702900,$GNGGA,075822.90,3158.67356783,N,12054.58544566,E,4,23,0.8,9.6070,M,8.7157,M,0.9,0*53
765383,234072000,$GNVTG,65.872,T,72.498,M,0.45237,N,0.83779,K,D*33
765385,28703000,$GNGGA,075823.00,3158.67356922,N,12054.58545368,E,4,23,0.8,9.6129,M,8.7157,M,1.0,0*52
765387,223228000,$GNVTG,62.828,T,69.454,M,0.38638,N,0.71557,K,D*33
765389,28703100,$GNGGA,075823.10,3158.67357363,N,12054.58545810,E,4,23,0.8,9.6204,M,8.7157,M,1.1,0*54
765390,180048000,$GNVTG,50.948,T,57.573,M,0.29156,N,0.53997,K,D*33
765683,28703200,$GNGGA,075823.20,3158.67357470,N,12054.58546015,E,4,23,0.8,9.6139,M,8.7157,M,1.2,0*52
765690,133253000,$GNVTG,37.553,T,44.178,M,0.21515,N,0.39845,K,D*30
765692,28703300,$GNGGA,075823.30,3158.67357702,N,12054.58545805,E,4,23,0.8,9.6162,M,8.7157,M,1.3,0*50
765694,57621000,$GNVTG,16.021,T,22.647,M,0.16653,N,0.30842,K,D*33
765696,28703400,$GNGGA,075823.40,3158.67358002,N,12054.58546108,E,4,23,0.8,9.6162,M,8.7157,M,0.4,0*5E
765698,119771000,$GNVTG,337.551,T,344.177,M,0.06129,N,0.11350,K,D*36
765984,28703500,$GNGGA,075823.50,3158.67357827,N,12054.58545872,E,4,23,0.8,9.6157,M,8.7157,M,0.5,0*5F
765989,86740000,$GNVTG,241.280,T,247.906,M,0.03660,N,0.06778,K,D*36
765991,28703600,$GNGGA,075823.60,3158.67357760,N,12054.58545818,E,4,23,0.8,9.6153,M,8.7157,M,0.6,0*5B
765993,72648000,$GNVTG,202.528,T,209.154,M,0.03734,N,0.06916,K,D*37
765995,28703700,$GNGGA,075823.70,3158.67357677,N,12054.58545824,E,4,23,0.8,9.6084,M,8.7157,M,0.7,0*58
765996,65498000,$GNVTG,184.458,T,191.084,M,0.09546,N,0.17679,K,D*39
766285,28703800,$GNGGA,075823.80,3158.67357080,N,12054.58545609,E,4,23,0.8,9.6087,M,8.7157,M,0.8,0*54
766292,65303000,$GNVTG,187.083,T,193.709,M,0.14390,N,0.26650,K,D*30
766294,28703900,$GNGGA,075823.90,3158.67356644,N,12054.58545900,E,4,23,0.8,9.6010,M,8.7157,M,0.9,0*53
766296,65298000,$GNVTG,187.078,T,193.704,M,0.19125,N,0.35419,K,D*35
766298,28704000,$GNGGA,075824.00,3158.67355991,N,12054.58545742,E,4,23,0.8,9.5968,M,8.7157,M,1.0,0*5C
766299,65397000,$GNVTG,187.177,T,193.803,M,0.21778,N,0.40333,K,D*3B
766587,28704100,$GNGGA,075824.10,3158.67355435,N,12054.58545442,E,4,23,0.8,9.5897,M,8.7157,M,1.1,0*5D
766592,69314000,$GNVTG,190.914,T,197.540,M,0.22494,N,0.41658,K,D*35
766594,28704200,$GNGGA,075824.20,3158.67355523,N,12054.58545684,E,4,23,0.8,9.5834,M,8.7157,M,1.2,0*5A
766596,65322000,$GNVTG,187.102,T,193.727,M,0.19033,N,0.35249,K,D*3D
766598,28704300,$GNGGA,075824.30,3158.67355798,N,12054.58546372,E,4,23,0.8,9.5672,M,8.7157,M,1.3,0*5B
766599,47569000,$GNVTG,136.409,T,143.035,M,0.11886,N,0.22013,K,D*35
766891,28704400,$GNGGA,075824.40,3158.67356035,N,12054.58548774,E,4,23,0.8,9.5643,M,8.7157,M,0.4,0*57
766898,302404000,$GNVTG,84.504,T,91.130,M,0.44621,N,0.82637,K,D*32
766900,28704500,$GNGGA,075824.50,3158.67357127,N,12054.58552307,E,4,23,0.8,9.5634,M,8.7157,M,0.5,0*5F
766902,288012992,$GNVTG,80.313,T,86.939,M,0.98538,N,1.82492,K,D*37
766904,28704600,$GNGGA,075824.60,3158.67358812,N,12054.58557852,E,4,23,0.8,9.5628,M,8.7157,M,0.6,0*5C
766906,273699008,$GNVTG,76.399,T,83.025,M,1.48148,N,2.74370,K,D*33
767197,28704700,$GNGGA,075824.70,3158.67361113,N,12054.58564946,E,4,23,0.8,9.5517,M,8.7157,M,0.7,0*55
767202,252034000,$GNVTG,70.934,T,77.560,M,2.01084,N,3.72408,K,D*37
767204,28704800,$GNGGA,075824.80,3158.67364417,N,12054.58574086,E,4,23,0.8,9.5320,M,8.7157,M,0.8,0*57
767206,241255008,$GNVTG,67.455,T,74.081,M,2.84735,N,5.27329,K,D*30
767208,28704900,$GNGGA,075824.90,3158.67366922,N,12054.58583471,E,4,23,0.8,9.5152,M,8.7157,M,0.9,0*5D
767209,244852992,$GNVTG,68.553,T,75.179,M,3.08491,N,5.71325,K,D*38
767499,28705000,$GNGGA,075825.00,3158.67367581,N,12054.58590710,E,4,23,0.8,9.5294,M,8.7157,M,1.0,0*56
767504,262828992,$GNVTG,73.829,T,80.455,M,2.79041,N,5.16785,K,D*32
767506,28705100,$GNGGA,075825.10,3158.67367897,N,12054.58595660,E,4,23,0.8,9.5609,M,8.7157,M,1.1,0*5F
767508,316852992,$GNVTG,88.953,T,95.579,M,1.75511,N,3.25046,K,D*30
767510,28705200,$GNGGA,075825.20,3158.67367552,N,12054.58598532,E,4,23,0.8,9.5680,M,8.7157,M,1.2,0*53
767512,40818000,$GNVTG,115.918,T,122.544,M,0.84466,N,1.56432,K,D*36
767803,28705300,$GNGGA,075825.30,3158.67367191,N,12054.58600438,E,4,23,0.8,9.5721,M,8.7157,M,1.3,0*5B
767808,51750000,$GNVTG,147.930,T,154.556,M,0.47860,N,0.88636,K,D*38
767810,28705400,$GNGGA,075825.40,3158.67365799,N,12054.58602025,E,4,22,0.8,9.5487,M,8.7157,M,0.4,0*52
767812,58244000,$GNVTG,168.164,T,174.790,M,0.42401,N,0.78527,K,D*34
767814,28705500,$GNGGA,075825.50,3158.67364517,N,12054.58602651,E,4,23,0.8,9.5540,M,8.7157,M,0.5,0*59
767815,58702000,$GNVTG,163.922,T,170.548,M,0.51525,N,0.95424,K,D*32
768139,28705600,$GNGGA,075825.60,3158.67362730,N,12054.58603583,E,4,22,0.9,9.5503,M,8.7157,M,0.6,0*52
768146,54636000,$GNVTG,156.276,T,162.902,M,0.67169,N,1.24397,K,D*32
768149,28705700,$GNGGA,075825.70,3158.67361181,N,12054.58604999,E,4,22,0.9,9.5556,M,8.7157,M,0.7,0*5D
768150,51127000,$GNVTG,149.187,T,155.813,M,0.75955,N,1.40668,K,D*37
768152,28705800,$GNGGA,075825.80,3158.67360531,N,12054.58606356,E,4,22,0.9,9.5695,M,8.7157,M,0.8,0*54
768154,47420000,$GNVTG,135.320,T,141.946,M,0.64778,N,1.19969,K,D*34
768156,28705900,$GNGGA,075825.90,3158.67360412,N,12054.58607423,E,4,22,0.9,9.5654,M,8.7157,M,0.9,0*5D
768161,40325000,$GNVTG,118.245,T,124.871,M,0.41752,N,0.77325,K,D*3B
768442,28706000,$GNGGA,075826.00,3158.67360620,N,12054.58607939,E,4,21,0.9,9.5606,M,8.7157,M,1.0,0*5E
768444,244872000,$GNVTG,68.272,T,74.898,M,0.22970,N,0.42541,K,D*33
768446,28706100,$GNGGA,075826.10,3158.67360193,N,12054.58608427,E,4,22,0.9,9.5653,M,8.7157,M,1.1,0*5F
768448,111638000,$GNVTG,31.438,T,38.064,M,0.22131,N,0.40986,K,D*3C
768450,28706200,$GNGGA,075826.20,3158.67359920,N,12054.58609269,E,4,22,0.9,9.5680,M,8.7157,M,1.2,0*56
768455,162090000,$GNVTG,45.990,T,52.616,M,0.20334,N,0.37659,K,D*37
768748,28706300,$GNGGA,075826.30,3158.67359803,N,12054.58610265,E,4,22,0.9,9.5746,M,8.7157,M,1.3,0*59
768754,302475008,$GNVTG,84.075,T,90.701,M,0.23836,N,0.44145,K,D*35
768756,28706400,$GNGGA,075826.40,3158.67359906,N,12054.58611839,E,4,22,0.9,9.5752,M,8.7157,M,1.4,0*5A
768758,342087008,$GNVTG,95.687,T,102.313,M,0.39879,N,0.73855,K,D*0F
768760,28706500,$GNGGA,075826.50,3158.67360142,N,12054.58613539,E,4,22,0.9,9.5747,M,8.7157,M,1.5,0*53
768762,338411008,$GNVTG,94.111,T,100.737,M,0.49921,N,0.92453,K,D*08
769068,28706600,$GNGGA,075826.60,3158.67360574,N,12054.58615889,E,4,22,0.9,9.5714,M,8.7157,M,0.6,0*55
769070,295206016,$GNVTG,82.806,T,89.432,M,0.61631,N,1.14140,K,D*3A
769072,28706700,$GNGGA,075826.70,3158.67361356,N,12054.58618887,E,4,22,0.9,9.5675,M,8.7157,M,0.7,0*57
769074,266458000,$GNVTG,74.558,T,81.184,M,0.78628,N,1.45618,K,D*3B
769076,28706800,$GNGGA,075826.80,3158.67362779,N,12054.58622530,E,4,22,0.9,9.5791,M,8.7157,M,0.8,0*5E
769077,234008000,$GNVTG,65.708,T,72.334,M,1.02190,N,1.89256,K,D*3F
769370,28706900,$GNGGA,075826.90,3158.67365132,N,12054.58627807,E,4,22,0.9,9.5546,M,8.7157,M,0.9,0*54
769376,234096000,$GNVTG,65.196,T,71.822,M,1.26035,N,2.33417,K,D*38
769378,28707000,$GNGGA,075827.00,3158.67367361,N,12054.58633583,E,4,22,0.9,9.5679,M,8.7157,M,1.0,0*59
769380,241286000,$GNVTG,67.086,T,73.712,M,1.65506,N,3.06517,K,D*30
769382,28707100,$GNGGA,075827.10,3158.67369605,N,12054.58641261,E,4,22,0.9,9.5596,M,8.7157,M,1.1,0*5C
769384,252082000,$GNVTG,70.882,T,77.508,M,2.22048,N,4.11233,K,D*38
769677,28707200,$GNGGA,075827.20,3158.67372797,N,12054.58650436,E,4,22,0.9,9.5369,M,8.7157,M,1.2,0*5E
769679,259258000,$GNVTG,72.058,T,78.685,M,2.62620,N,4.86373,K,D*3B
769681,28707300,$GNGGA,075827.30,3158.67373646,N,12054.58657180,E,4,22,0.9,9.5481,M,8.7157,M,1.3,0*5C
769683,262862000,$GNVTG,73.662,T,80.288,M,2.67685,N,4.95752,K,D*34
769685,28707400,$GNGGA,075827.40,3158.67373803,N,12054.58662024,E,4,22,0.9,9.5629,M,8.7157,M,1.4,0*5A
769686,280868000,$GNVTG,78.868,T,85.494,M,1.96243,N,3.63443,K,D*3B
769981,28707500,$GNGGA,075827.50,3158.67374096,N,12054.58665971,E,4,22,0.9,9.5998,M,8.7157,M,1.5,0*52
769988,316820000,$GNVTG,88.220,T,94.846,M,1.12603,N,2.08540,K,D*33
769990,28707600,$GNGGA,075827.60,3158.67374360,N,12054.58668414,E,4,22,0.9,9.6117,M,8.7157,M,1.6,0*57
769991,36215000,$GNVTG,100.215,T,106.841,M,0.54043,N,1.00087,K,D*3D
769993,28707700,$GNGGA,075827.70,3158.67373615,N,12054.58670732,E,4,22,0.9,9.6058,M,8.7157,M,1.7,0*53
769995,47167000,$GNVTG,133.187,T,139.813,M,0.38613,N,0.71512,K,D*39
770299,28707800,$GNGGA,075827.80,3158.67371853,N,12054.58673485,E,4,22,0.9,9.5939,M,8.7157,M,1.8,0*5C
770301,47342000,$GNVTG,139.002,T,145.628,M,0.70063,N,1.29757,K,D*30
770303,28707900,$GNGGA,075827.90,3158.67370642,N,12054.58675808,E,4,22,0.9,9.5801,M,8.7157,M,1.9,0*56
770305,47460000,$GNVTG,133.480,T,140.106,M,0.86492,N,1.60183,K,D*3B
770307,28708000,$GNGGA,075828.00,3158.67369282,N,12054.58676736,E,4,22,0.9,9.5902,M,8.7157,M,2.0,0*59
770309,47214000,$GNVTG,130.414,T,137.040,M,0.76866,N,1.42355,K,D*37
770614,28708100,$GNGGA,075828.10,3158.67369096,N,12054.58677581,E,4,22,0.9,9.6014,M,8.7157,M,1.1,0*5F
770620,37330000,$GNVTG,109.790,T,116.416,M,0.41244,N,0.76384,K,D*32
770623,28708200,$GNGGA,075828.20,3158.67368929,N,12054.58678230,E,4,22,0.9,9.5993,M,8.7157,M,1.2,0*54
770624,306039008,$GNVTG,85.839,T,92.465,M,0.22162,N,0.41044,K,D*3B
770626,28708300,$GNGGA,075828.30,3158.67369035,N,12054.58679571,E,4,22,0.9,9.5863,M,8.7157,M,1.3,0*5C
770628,313228992,$GNVTG,87.129,T,93.755,M,0.19929,N,0.36909,K,D*3F
770633,28708400,$GNGGA,075828.40,3158.67368648,N,12054.58681032,E,4,21,0.9,9.5880,M,8.7157,M,0.4,0*5B
770635,36841000,$GNVTG,100.841,T,107.467,M,0.29814,N,0.55216,K,D*34
770935,28708500,$GNGGA,075828.50,3158.67368886,N,12054.58682681,E,4,22,0.9,9.5839,M,8.7157,M,0.5,0*5B
770937,36489000,$GNVTG,100.489,T,107.115,M,0.45005,N,0.83349,K,D*3E
770939,28708600,$GNGGA,075828.60,3158.67369381,N,12054.58684646,E,4,22,0.9,9.5770,M,8.7157,M,0.6,0*59
770941,324000000,$GNVTG,90.700,T,97.326,M,0.55375,N,1.02554,K,D*39
771239,28708700,$GNGGA,075828.70,3158.67370200,N,12054.58686591,E,4,22,0.9,9.5786,M,8.7157,M,0.7,0*5B
771245,273604992,$GNVTG,76.805,T,83.431,M,0.61499,N,1.13897,K,D*3F
771247,28708800,$GNGGA,075828.80,3158.67371753,N,12054.58689337,E,4,22,0.9,9.5953,M,8.7157,M,0.8,0*5A
771249,216092992,$GNVTG,60.493,T,67.119,M,0.75463,N,1.39757,K,D*35
771251,28708900,$GNGGA,075828.90,3158.67373312,N,12054.58692714,E,4,21,0.9,9.5903,M,8.7157,M,0.9,0*50
771253,208876000,$GNVTG,58.576,T,65.202,M,0.91187,N,1.68879,K,D*3D
771258,28709000,$GNGGA,075829.00,3158.67375467,N,12054.58697156,E,4,20,0.9,9.5842,M,8.7157,M,1.0,0*53
771260,212483008,$GNVTG,59.583,T,66.209,M,1.19186,N,2.20733,K,D*30
771546,28709100,$GNGGA,075829.10,3158.67377358,N,12054.58702461,E,4,22,0.9,9.5855,M,8.7157,M,1.1,0*52
771548,230408992,$GNVTG,64.509,T,71.135,M,1.76152,N,3.26233,K,D*34
771550,28709200,$GNGGA,075829.20,3158.67381287,N,12054.58710076,E,4,22,0.9,9.5861,M,8.7157,M,1.2,0*5E
771551,223252000,$GNVTG,62.752,T,69.378,M,2.36216,N,4.37473,K,D*3D
771557,28709300,$GNGGA,075829.30,3158.67384585,N,12054.58717172,E,4,22,0.9,9.5830,M,8.7157,M,1.3,0*58
771558,216071008,$GNVTG,60.971,T,67.597,M,2.62900,N,4.86891,K,D*3E
771848,28709400,$GNGGA,075829.40,3158.67386089,N,12054.58723347,E,4,22,0.9,9.5914,M,8.7158,M,1.4,0*58
771854,230418000,$GNVTG,64.418,T,71.044,M,2.34165,N,4.33674,K,D*37
771856,28709500,$GNGGA,075829.50,3158.67385933,N,12054.58728286,E,4,21,0.9,9.5980,M,8.7158,M,1.5,0*5A
771859,288064992,$GNVTG,80.365,T,86.991,M,1.78161,N,3.29954,K,D*37
771861,28709600,$GNGGA,075829.60,3158.67386276,N,12054.58731925,E,4,21,0.9,9.5990,M,8.7158,M,1.6,0*58
771863,334820992,$GNVTG,93.121,T,99.747,M,1.37969,N,2.55518,K,D*39
772159,28709700,$GNGGA,075829.70,3158.67386065,N,12054.58734162,E,4,21,0.9,9.6080,M,8.7158,M,1.7,0*5D
772161,36633000,$GNVTG,104.393,T,111.019,M,0.93977,N,1.74045,K,D*3D
772163,28709800,$GNGGA,075829.80,3158.67385240,N,12054.58735612,E,4,21,0.9,9.6022,M,8.7158,M,1.8,0*52
772168,44069000,$GNVTG,121.809,T,128.435,M,0.52624,N,0.97459,K,D*33
772170,28709900,$GNGGA,075829.90,3158.67383362,N,12054.58736269,E,4,22,0.9,9.6132,M,8.7158,M,1.9,0*5D
772172,50750000,$GNVTG,145.050,T,151.675,M,0.43972,N,0.81436,K,D*3F
772465,28710000,$GNGGA,075830.00,3158.67381273,N,12054.58737219,E,4,22,0.9,9.6007,M,8.7158,M,1.0,0*57
772467,54963000,$GNVTG,153.783,T,160.409,M,0.49163,N,0.91050,K,D*3D
772469,28710100,$GNGGA,075830.10,3158.67380253,N,12054.58738618,E,4,22,0.9,9.5783,M,8.7158,M,1.1,0*56
772474,51387000,$GNVTG,147.567,T,154.193,M,0.61132,N,1.13217,K,D*35
772476,28710200,$GNGGA,075830.20,3158.67379790,N,12054.58739177,E,4,21,0.9,9.5885,M,8.7158,M,1.2,0*5F
772478,48041000,$GNVTG,136.881,T,143.507,M,0.56292,N,1.04253,K,D*32
772768,28710300,$GNGGA,075830.30,3158.67379277,N,12054.58739655,E,4,21,0.9,9.6015,M,8.7158,M,1.3,0*56
772770,44137000,$GNVTG,123.757,T,130.383,M,0.40873,N,0.75698,K,D*3A
772772,28710400,$GNGGA,075830.40,3158.67379350,N,12054.58740190,E,4,21,0.9,9.5961,M,8.7158,M,0.4,0*5A
772777,331295008,$GNVTG,92.695,T,99.321,M,0.19135,N,0.35438,K,D*3F
772779,28710500,$GNGGA,075830.50,3158.67379214,N,12054.58740260,E,4,21,0.9,9.6012,M,8.7158,M,0.5,0*59
772780,147631008,$GNVTG,41.831,T,48.457,M,0.09530,N,0.17649,K,D*3F
773069,28710600,$GNGGA,075830.60,3158.67379369,N,12054.58740476,E,4,20,0.9,9.5964,M,8.7158,M,0.6,0*59
773075,119416000,$GNVTG,331.556,T,338.182,M,0.06254,N,0.11582,K,D*36
773077,28710700,$GNGGA,075830.70,3158.67378930,N,12054.58740436,E,4,20,0.9,9.6043,M,8.7158,M,0.7,0*55
773080,69307000,$GNVTG,196.547,T,203.173,M,0.09793,N,0.18137,K,D*3C
773082,28710800,$GNGGA,075830.80,3158.67379074,N,12054.58740687,E,4,21,0.9,9.5990,M,8.7158,M,0.8,0*50
773084,61561000,$GNVTG,170.361,T,176.987,M,0.10307,N,0.19089,K,D*30
773387,28710900,$GNGGA,075830.90,3158.67378783,N,12054.58740974,E,4,21,0.9,9.6052,M,8.7158,M,0.9,0*59
773389,54233000,$GNVTG,150.233,T,156.859,M,0.13530,N,0.25057,K,D*39
773391,28711000,$GNGGA,075831.00,3158.67378555,N,12054.58741577,E,4,21,0.9,9.6047,M,8.7158,M,1.0,0*5A
773396,47830000,$GNVTG,134.790,T,141.416,M,0.17750,N,0.32874,K,D*39
773398,28711100,$GNGGA,075831.10,3158.67378261,N,12054.58741974,E,4,21,0.9,9.6079,M,8.7158,M,1.1,0*58
773400,47352000,$GNVTG,131.492,T,138.118,M,0.19313,N,0.35768,K,D*30
773688,28711200,$GNGGA,075831.20,3158.67378354,N,12054.58743534,E,4,21,0.9,9.5748,M,8.7158,M,1.2,0*53
773694,44363000,$GNVTG,128.683,T,135.309,M,0.21521,N,0.39857,K,D*36
773696,28711300,$GNGGA,075831.30,3158.67378399,N,12054.58744164,E,4,21,0.9,9.5680,M,8.7158,M,1.3,0*51
773699,43434000,$GNVTG,121.174,T,127.800,M,0.19366,N,0.35865,K,D*32
773701,28711400,$GNGGA,075831.40,3158.67378074,N,12054.58744753,E,4,21,0.9,9.5693,M,8.7158,M,0.4,0*50
773703,40672000,$GNVTG,119.532,T,126.158,M,0.17872,N,0.33099,K,D*37
773991,28711500,$GNGGA,075831.50,3158.67377946,N,12054.58745497,E,4,21,0.9,9.5640,M,8.7158,M,0.5,0*53
773993,40202000,$GNVTG,118.122,T,124.748,M,0.19091,N,0.35356,K,D*3B
773995,28711600,$GNGGA,075831.60,3158.67377714,N,12054.58746428,E,4,21,0.9,9.5488,M,8.7158,M,0.6,0*5B
774000,40619000,$GNVTG,114.779,T,121.405,M,0.20801,N,0.38523,K,D*32
774002,28711700,$GNGGA,075831.70,3158.67377924,N,12054.58747679,E,4,21,0.9,9.5533,M,8.7158,M,0.7,0*50
774004,37085000,$GNVTG,107.665,T,114.291,M,0.24590,N,0.45541,K,D*3E
774299,28711800,$GNGGA,075831.80,3158.67378254,N,12054.58749611,E,4,21,0.9,9.5624,M,8.7158,M,0.8,0*56
774305,306079008,$GNVTG,85.379,T,92.005,M,0.41099,N,0.76114,K,D*36
774307,28711900,$GNGGA,075831.90,3158.67379301,N,12054.58752884,E,4,21,0.9,9.5595,M,8.7158,M,0.9,0*57
774310,259208000,$GNVTG,72.208,T,78.834,M,0.69440,N,1.28603,K,D*36
774312,28712000,$GNGGA,075832.00,3158.67380564,N,12054.58757035,E,4,21,0.9,9.5671,M,8.7158,M,1.0,0*58
774314,241260000,$GNVTG,67.360,T,73.986,M,1.22600,N,2.27055,K,D*3F
774608,28712100,$GNGGA,075832.10,3158.67382649,N,12054.58762430,E,4,21,0.9,9.5736,M,8.7158,M,1.1,0*53
774610,234098000,$GNVTG,65.498,T,72.124,M,1.72296,N,3.19092,K,D*35
774612,28712200,$GNGGA,075832.20,3158.67385226,N,12054.58769751,E,4,21,0.9,9.5415,M,8.7158,M,1.2,0*54
774617,234023008,$GNVTG,65.923,T,72.549,M,2.12494,N,3.93539,K,D*30
774619,28712300,$GNGGA,075832.30,3158.67388309,N,12054.58778996,E,4,21,0.9,9.5344,M,8.7158,M,1.3,0*53
774620,262819008,$GNVTG,73.719,T,80.345,M,2.86930,N,5.31395,K,D*37
774913,28712400,$GNGGA,075832.40,3158.67390056,N,12054.58790138,E,4,21,0.9,9.5731,M,8.7158,M,0.4,0*5E
774919,284480992,$GNVTG,79.181,T,85.807,M,3.57546,N,6.62174,K,D*3A
774921,28712500,$GNGGA,075832.50,3158.67391161,N,12054.58796723,E,4,20,0.9,9.5862,M,8.7158,M,0.5,0*58
774924,284420000,$GNVTG,79.820,T,86.446,M,3.13698,N,5.80970,K,D*31
774926,28712600,$GNGGA,075832.60,3158.67391257,N,12054.58799600,E,4,21,0.9,9.6192,M,8.7158,M,0.6,0*55
774928,298876000,$GNVTG,83.576,T,90.202,M,1.58470,N,2.93486,K,D*33
775220,28712700,$GNGGA,075832.70,3158.67391490,N,12054.58801339,E,4,20,0.9,9.6295,M,8.7158,M,0.7,0*5C
775222,208888000,$GNVTG,58.588,T,65.214,M,0.22567,N,0.41794,K,D*3F
775224,28712800,$GNGGA,075832.80,3158.67390423,N,12054.58803019,E,4,20,1.0,9.6154,M,8.7158,M,0.8,0*50
775229,80394000,$GNVTG,224.954,T,231.580,M,0.26387,N,0.48868,K,D*3B
775231,28712900,$GNGGA,075832.90,3158.67389834,N,12054.58804451,E,4,19,1.0,9.5840,M,8.7158,M,0.9,0*58
775233,69028000,$GNVTG,195.328,T,201.954,M,0.50897,N,0.94261,K,D*3C
775526,28713000,$GNGGA,075833.00,3158.67387117,N,12054.58805058,E,4,20,1.0,9.5878,M,8.7158,M,1.0,0*53
775533,62083000,$GNVTG,176.523,T,183.149,M,0.60299,N,1.11674,K,D*3A
775535,28713100,$GNGGA,075833.10,3158.67385068,N,12054.58806383,E,4,20,1.0,9.5697,M,8.7158,M,1.1,0*51
775538,51169000,$GNVTG,149.229,T,155.855,M,0.78773,N,1.45887,K,D*3F
775540,28713200,$GNGGA,075833.20,3158.67384533,N,12054.58807937,E,4,20,1.0,9.5249,M,8.7158,M,1.2,0*58
775542,50535000,$GNVTG,141.075,T,147.701,M,0.85981,N,1.59236,K,D*3D
775544,28713300,$GNGGA,075833.30,3158.67383239,N,12054.58809355,E,4,20,1.0,9.5372,M,8.7158,M,1.3,0*5B
775545,48015000,$GNVTG,136.855,T,143.481,M,0.74733,N,1.38405,K,D*30
775830,28713400,$GNGGA,075833.40,3158.67382037,N,12054.58809736,E,4,20,1.0,9.5516,M,8.7158,M,1.4,0*53
775835,47406000,$GNVTG,136.246,T,142.872,M,0.45640,N,0.84525,K,D*3B
775837,28713500,$GNGGA,075833.50,3158.67381829,N,12054.58810227,E,4,20,1.0,9.5549,M,8.7158,M,0.5,0*51
775839,36695000,$GNVTG,106.335,T,112.961,M,0.13563,N,0.25118,K,D*3B
775841,28713600,$GNGGA,075833.60,3158.67381926,N,12054.58810654,E,4,19,1.0,9.5527,M,8.7158,M,0.6,0*5D
775843,144068000,$GNVTG,40.068,T,46.695,M,0.07042,N,0.13043,K,D*3E
776138,28713700,$GNGGA,075833.70,3158.67382015,N,12054.58811133,E,4,19,1.0,9.5471,M,8.7158,M,0.7,0*52
776145,151256000,$GNVTG,42.656,T,49.282,M,0.02067,N,0.03828,K,D*3C
776148,28713800,$GNGGA,075833.80,3158.67381433,N,12054.58811212,E,4,19,1.0,9.5545,M,8.7158,M,0.8,0*57
776149,51332000,$GNVTG,143.752,T,150.378,M,0.07719,N,0.14295,K,D*35
776453,28713900,$GNGGA,075833.90,3158.67381431,N,12054.58811855,E,4,19,1.0,9.5520,M,8.7158,M,0.9,0*5F
776455,44196000,$GNVTG,126.636,T,133.262,M,0.16363,N,0.30305,K,D*3D
776457,28714000,$GNGGA,075834.00,3158.67381451,N,12054.58812907,E,4,19,1.0,9.5557,M,8.7158,M,1.0,0*5A
776462,37052000,$GNVTG,103.872,T,110.498,M,0.25562,N,0.47341,K,D*31
776464,28714100,$GNGGA,075834.10,3158.67381778,N,12054.58814879,E,4,20,1.0,9.5499,M,8.7158,M,1.1,0*55
776465,302452000,$GNVTG,84.852,T,91.478,M,0.47278,N,0.87558,K,D*31
776467,28714200,$GNGGA,075834.20,3158.67382677,N,12054.58817264,E,4,20,1.0,9.5498,M,8.7158,M,1.2,0*5C
776469,280825984,$GNVTG,78.326,T,84.952,M,0.70043,N,1.29720,K,D*3D
776753,28714300,$GNGGA,075834.30,3158.67383511,N,12054.58820202,E,4,20,1.0,9.5514,M,8.7158,M,1.3,0*5F
776760,259200000,$GNVTG,72.300,T,78.926,M,0.85087,N,1.57580,K,D*30
776762,28714400,$GNGGA,075834.40,3158.67385054,N,12054.58823095,E,4,20,1.0,9.5632,M,8.7158,M,1.4,0*55
776764,212480992,$GNVTG,59.581,T,66.207,M,1.08247,N,2.00474,K,D*30
776766,28714500,$GNGGA,075834.50,3158.67387090,N,12054.58827645,E,4,20,1.0,9.5904,M,8.7158,M,1.5,0*5A
776768,201660992,$GNVTG,56.261,T,62.887,M,1.37114,N,2.53935,K,D*37
777060,28714600,$GNGGA,075834.60,3158.67390238,N,12054.58834404,E,4,20,1.0,9.5647,M,8.7158,M,0.6,0*50
777065,212460992,$GNVTG,59.061,T,65.687,M,1.54424,N,2.85994,K,D*30
777067,28714700,$GNGGA,075834.70,3158.67393118,N,12054.58843076,E,4,20,1.0,9.5387,M,8.7158,M,0.7,0*5A
777068,237680000,$GNVTG,66.680,T,73.306,M,2.10291,N,3.89459,K,D*34
777071,28714800,$GNGGA,075834.80,3158.67395057,N,12054.58852264,E,4,20,1.0,9.5093,M,8.7158,M,0.8,0*51
777072,270017984,$GNVTG,75.218,T,81.844,M,2.59685,N,4.80937,K,D*34
777363,28714900,$GNGGA,075834.90,3158.67395364,N,12054.58859188,E,4,19,1.0,9.5428,M,8.7159,M,0.9,0*57
777370,288049984,$GNVTG,80.550,T,87.176,M,2.54868,N,4.72016,K,D*3C
777372,28715000,$GNGGA,075835.00,3158.67396169,N,12054.58862471,E,4,19,1.0,9.5803,M,8.7159,M,1.0,0*55
777374,295299008,$GNVTG,82.599,T,89.225,M,2.14555,N,3.97355,K,D*3F
777376,28715100,$GNGGA,075835.10,3158.67395894,N,12054.58864115,E,4,19,1.0,9.6050,M,8.7159,M,1.1,0*51
777378,338496000,$GNVTG,94.696,T,101.322,M,0.93215,N,1.72634,K,D*06
777668,28715200,$GNGGA,075835.20,3158.67395815,N,12054.58865466,E,4,19,1.0,9.5903,M,8.7159,M,1.2,0*54
777673,51876000,$GNVTG,149.936,T,156.562,M,0.24215,N,0.44847,K,D*30
777675,28715300,$GNGGA,075835.30,3158.67394428,N,12054.58866357,E,4,19,1.0,9.5860,M,8.7159,M,1.3,0*55
777676,65098000,$GNVTG,180.298,T,186.924,M,0.50284,N,0.93126,K,D*36
777679,28715400,$GNGGA,075835.40,3158.67391489,N,12054.58867784,E,4,18,1.1,9.5654,M,8.7159,M,0.4,0*58
777680,61786000,$GNVTG,174.346,T,180.972,M,0.77207,N,1.42988,K,D*35
777974,28715500,$GNGGA,075835.50,3158.67389152,N,12054.58868858,E,4,19,1.0,9.5477,M,8.7159,M,0.5,0*50
777981,58295000,$GNVTG,165.395,T,172.021,M,1.02416,N,1.89674,K,D*37
777983,28715600,$GNGGA,075835.60,3158.67388023,N,12054.58869545,E,4,19,1.0,9.5435,M,8.7159,M,0.6,0*50
777985,54654000,$GNVTG,156.294,T,162.920,M,0.79849,N,1.47881,K,D*33
777987,28715700,$GNGGA,075835.70,3158.67387571,N,12054.58870115,E,4,19,1.0,9.5553,M,8.7159,M,0.7,0*55
777989,47701000,$GNVTG,130.901,T,137.527,M,0.46401,N,0.85934,K,D*33
778288,28715800,$GNGGA,075835.80,3158.67387189,N,12054.58870498,E,4,19,1.0,9.5754,M,8.7159,M,0.8,0*53
778293,255656992,$GNVTG,71.157,T,77.783,M,0.32845,N,0.60829,K,D*3C
778295,28715900,$GNGGA,075835.90,3158.67387352,N,12054.58871150,E,4,19,1.0,9.5805,M,8.7159,M,0.9,0*5C
778297,219684000,$GNVTG,61.384,T,68.010,M,0.30618,N,0.56704,K,D*33
778299,28716000,$GNGGA,075836.00,3158.67387425,N,12054.58871787,E,4,19,1.0,9.5783,M,8.7159,M,1.0,0*54
778300,219696992,$GNVTG,61.697,T,68.323,M,0.19433,N,0.35990,K,D*31
778595,28716100,$GNGGA,075836.10,3158.67387315,N,12054.58872586,E,4,19,1.0,9.5778,M,8.7159,M,1.1,0*54
778602,320436000,$GNVTG,89.836,T,96.462,M,0.15250,N,0.28242,K,D*36
778604,28716200,$GNGGA,075836.20,3158.67387502,N,12054.58873978,E,4,19,1.0,9.5754,M,8.7159,M,1.2,0*56
778606,345692992,$GNVTG,96.693,T,103.319,M,0.17379,N,0.32186,K,D*07
778608,28716300,$GNGGA,075836.30,3158.67387425,N,12054.58874586,E,4,19,1.0,9.5820,M,8.7159,M,1.3,0*54
778610,313255008,$GNVTG,87.155,T,93.781,M,0.18853,N,0.34916,K,D*3C
778896,28716400,$GNGGA,075836.40,3158.67387475,N,12054.58875637,E,4,19,1.0,9.5916,M,8.7159,M,0.4,0*5C
778898,284471008,$GNVTG,79.871,T,86.497,M,0.22696,N,0.42033,K,D*33
778900,28716500,$GNGGA,075836.50,3158.67387626,N,12054.58876377,E,4,19,1.0,9.5867,M,8.7159,M,0.5,0*5D
778902,277265984,$GNVTG,77.866,T,84.492,M,0.23741,N,0.43968,K,D*30
778904,28716600,$GNGGA,075836.60,3158.67387679,N,12054.58876738,E,4,19,1.0,9.5934,M,8.7159,M,0.6,0*5F
778905,280897984,$GNVTG,78.098,T,84.724,M,0.22459,N,0.41594,K,D*3E
779201,28716700,$GNGGA,075836.70,3158.67387879,N,12054.58877516,E,4,19,1.0,9.5873,M,8.7159,M,0.7,0*5C
779208,291648992,$GNVTG,81.949,T,88.575,M,0.21221,N,0.39301,K,D*38
779210,28716800,$GNGGA,075836.80,3158.67388016,N,12054.58878640,E,4,19,1.0,9.5787,M,8.7159,M,0.8,0*59
779211,309611008,$GNVTG,86.111,T,92.737,M,0.22116,N,0.40959,K,D*38
779213,28716900,$GNGGA,075836.90,3158.67388662,N,12054.58880187,E,4,19,1.0,9.5644,M,8.7159,M,0.9,0*59
779215,295265984,$GNVTG,82.766,T,89.392,M,0.26308,N,0.48722,K,D*38
779533,28717000,$GNGGA,075837.00,3158.67389326,N,12054.58882872,E,4,19,1.0,9.5559,M,8.7159,M,1.0,0*53
779535,284419008,$GNVTG,79.219,T,85.845,M,0.44926,N,0.83203,K,D*3F
779537,28717100,$GNGGA,075837.10,3158.67390009,N,12054.58885731,E,4,19,1.0,9.5580,M,8.7159,M,1.1,0*5E
779539,277201984,$GNVTG,77.902,T,84.528,M,0.76159,N,1.41046,K,D*3A
779541,28717200,$GNGGA,075837.20,3158.67391847,N,12054.58889678,E,4,19,1.0,9.5602,M,8.7159,M,1.2,0*54
779542,259216992,$GNVTG,72.417,T,79.043,M,1.07648,N,1.99364,K,D*3A
779548,28717300,$GNGGA,075837.30,3158.67394156,N,12054.58895946,E,4,19,1.0,9.5429,M,8.7159,M,1.3,0*5C
779549,248488992,$GNVTG,69.489,T,76.115,M,1.31027,N,2.42662,K,D*36
779835,28717400,$GNGGA,075837.40,3158.67396720,N,12054.58902490,E,4,19,1.0,9.5562,M,8.7159,M,0.4,0*5F
779841,237656000,$GNVTG,66.656,T,73.282,M,1.53866,N,2.84960,K,D*3F
779843,28717500,$GNGGA,075837.50,3158.67398947,N,12054.58909764,E,4,19,1.0,9.5346,M,8.7159,M,0.5,0*5D
779845,237620000,$GNVTG,66.820,T,73.447,M,1.73702,N,3.21696,K,D*38
779847,28717600,$GNGGA,075837.60,3158.67400877,N,12054.58915975,E,4,18,1.1,9.5540,M,8.7159,M,0.6,0*5A
779851,241212000,$GNVTG,67.312,T,73.938,M,1.83096,N,3.39093,K,D*39
780142,28717700,$GNGGA,075837.70,3158.67402121,N,12054.58919138,E,4,19,1.0,9.5895,M,8.7159,M,0.7,0*5A
780144,248420000,$GNVTG,69.220,T,75.846,M,1.70200,N,3.15210,K,D*3F
780146,28717800,$GNGGA,075837.80,3158.67402767,N,12054.58921208,E,4,19,1.0,9.5953,M,8.7159,M,0.8,0*5E
780148,255635008,$GNVTG,71.135,T,77.761,M,1.09898,N,2.03530,K,D*3F
780150,28717900,$GNGGA,075837.90,3158.67402542,N,12054.58922594,E,4,19,1.0,9.5938,M,8.7159,M,0.9,0*57
780154,306072000,$GNVTG,85.172,T,91.798,M,0.47108,N,0.87243,K,D*3F
780446,28718000,$GNGGA,075838.00,3158.67401702,N,12054.58923414,E,4,19,1.0,9.5879,M,8.7159,M,1.0,0*50
780448,51574000,$GNVTG,147.754,T,154.380,M,0.25351,N,0.46950,K,D*39
780450,28718100,$GNGGA,075838.10,3158.67400760,N,12054.58923126,E,4,19,1.0,9.5867,M,8.7159,M,1.1,0*5E
780452,65473000,$GNVTG,183.493,T,190.119,M,0.31273,N,0.57918,K,D*3B
780454,28718200,$GNGGA,075838.20,3158.67400097,N,12054.58922481,E,4,19,1.0,9.5867,M,8.7159,M,1.2,0*58
780459,65619000,$GNVTG,188.339,T,194.965,M,0.31950,N,0.59172,K,D*30
780755,28718300,$GNGGA,075838.30,3158.67400159,N,12054.58922869,E,4,19,1.0,9.5727,M,8.7159,M,1.3,0*5A
780757,65088000,$GNVTG,180.288,T,186.914,M,0.26407,N,0.48906,K,D*34
780759,28718400,$GNGGA,075838.40,3158.67399890,N,12054.58923224,E,4,19,1.0,9.5661,M,8.7159,M,1.4,0*50
780761,51776000,$GNVTG,149.836,T,156.462,M,0.16831,N,0.31171,K,D*33
780763,28718500,$GNGGA,075838.50,3158.67399221,N,12054.58923065,E,4,19,1.0,9.5758,M,8.7159,M,1.5,0*5C
780767,39729000,$GNVTG,112.009,T,118.635,M,0.14385,N,0.26640,K,D*36
781059,28718600,$GNGGA,075838.60,3158.67399213,N,12054.58923608,E,4,19,1.0,9.5680,M,8.7159,M,0.6,0*55
781065,356404992,$GNVTG,99.405,T,106.031,M,0.13505,N,0.25011,K,D*09
781067,28718700,$GNGGA,075838.70,3158.67399057,N,12054.58923585,E,4,19,1.0,9.5741,M,8.7159,M,0.7,0*5D
781069,51513000,$GNVTG,149.573,T,156.199,M,0.03289,N,0.06091,K,D*38
781071,28718800,$GNGGA,075838.80,3158.67398898,N,12054.58923882,E,4,18,1.0,9.5768,M,8.7159,M,0.8,0*57
781076,352824992,$GNVTG,98.925,T,105.551,M,0.05990,N,0.11093,K,D*0D
781362,28718900,$GNGGA,075838.90,3158.67399545,N,12054.58924251,E,4,18,1.0,9.5632,M,8.7159,M,0.9,0*56
781364,126806000,$GNVTG,350.806,T,357.432,M,0.07331,N,0.13578,K,D*3A
781366,28719000,$GNGGA,075839.00,3158.67399338,N,12054.58924328,E,4,18,1.0,9.5754,M,8.7159,M,1.0,0*54
781367,201600992,$GNVTG,56.901,T,63.527,M,0.09732,N,0.18024,K,D*36
781369,28719100,$GNGGA,075839.10,3158.67399469,N,12054.58924329,E,4,18,1.0,9.5739,M,8.7159,M,1.1,0*5D
781374,19145000,$GNVTG,4.795,T,11.421,M,0.04964,N,0.09194,K,D*0A
781665,28719200,$GNGGA,075839.20,3158.67399134,N,12054.58924261,E,4,18,1.0,9.5746,M,8.7159,M,1.2,0*55
781671,37152000,$GNVTG,109.612,T,116.238,M,0.02905,N,0.05380,K,D*3A
781673,28719300,$GNGGA,075839.30,3158.67398953,N,12054.58924158,E,4,18,1.0,9.5807,M,8.7159,M,1.3,0*5E
781675,248434000,$GNVTG,69.934,T,76.560,M,0.02047,N,0.03791,K,D*36
781677,28719400,$GNGGA,075839.40,3158.67399140,N,12054.58924158,E,4,18,1.0,9.5762,M,8.7159,M,0.4,0*58
781682,115825000,$GNVTG,322.505,T,329.131,M,0.03317,N,0.06143,K,D*36
781991,28719500,$GNGGA,075839.50,3158.67399483,N,12054.58923980,E,4,18,1.0,9.5668,M,8.7159,M,0.5,0*53
781993,127332000,$GNVTG,356.972,T,3.598,M,0.03469,N,0.06425,K,D*3E
781995,28719600,$GNGGA,075839.60,3158.67399376,N,12054.58923759,E,4,18,1.0,9.5549,M,8.7159,M,0.6,0*54
781997,97745000,$GNVTG,276.185,T,282.811,M,0.01822,N,0.03375,K,D*3C
781999,28719700,$GNGGA,075839.70,3158.67399128,N,12054.58923308,E,4,18,1.0,9.5181,M,8.7159,M,0.7,0*5D
782004,76165000,$GNVTG,210.565,T,217.192,M,0.13076,N,0.24218,K,D*3D
782296,28719800,$GNGGA,075839.80,3158.67398208,N,12054.58923509,E,4,18,1.0,9.4901,M,8.7159,M,0.8,0*5B
782302,69434000,$GNVTG,196.674,T,203.300,M,0.20095,N,0.37216,K,D*3E
782305,28719900,$GNGGA,075839.90,3158.67397911,N,12054.58925762,E,4,18,1.0,9.4847,M,8.7159,M,0.9,0*5D
782306,47477000,$GNVTG,133.497,T,140.123,M,0.41765,N,0.77349,K,D*39
782308,28720000,$GNGGA,075840.00,3158.67397663,N,12054.58928977,E,4,18,1.0,9.4982,M,8.7159,M,1.0,0*57
782313,37309000,$GNVTG,108.829,T,115.455,M,0.85379,N,1.58122,K,D*3E
782599,28720100,$GNGGA,075840.10,3158.67397959,N,12054.58934954,E,4,18,1.0,9.4997,M,8.7159,M,1.1,0*59
782601,334867008,$GNVTG,93.967,T,100.593,M,1.41916,N,2.62829,K,D*0B
782603,28720200,$GNGGA,075840.20,3158.67397982,N,12054.58941688,E,4,18,1.0,9.4888,M,8.7159,M,1.2,0*5C
782604,331288992,$GNVTG,92.689,T,99.315,M,2.26286,N,4.19081,K,D*3C
782607,28720300,$GNGGA,075840.30,3158.67397055,N,12054.58952286,E,4,18,1.0,9.4836,M,8.7159,M,1.3,0*52
782611,334896000,$GNVTG,93.196,T,99.823,M,2.73680,N,5.06856,K,D*35
782906,28720400,$GNGGA,075840.40,3158.67396412,N,12054.58961303,E,4,18,1.0,9.5032,M,8.7159,M,0.4,0*54
782912,338417984,$GNVTG,94.018,T,100.645,M,3.01726,N,5.58796,K,D*0B
782914,28720500,$GNGGA,075840.50,3158.67396389,N,12054.58966718,E,4,18,1.0,9.5343,M,8.7159,M,0.5,0*5D
782916,316806016,$GNVTG,88.606,T,95.233,M,2.35597,N,4.36326,K,D*3F
782918,28720600,$GNGGA,075840.60,3158.67397900,N,12054.58970676,E,4,17,1.1,9.5707,M,8.7159,M,0.6,0*53
782922,284427008,$GNVTG,79.427,T,86.053,M,1.70458,N,3.15688,K,D*31
783218,28720700,$GNGGA,075840.70,3158.67399704,N,12054.58973549,E,4,16,1.2,9.5819,M,8.7159,M,0.7,0*59
783220,241222000,$GNVTG,67.522,T,74.148,M,1.25391,N,2.32225,K,D*39
783222,28720800,$GNGGA,075840.80,3158.67401156,N,12054.58975000,E,4,16,1.2,9.5822,M,8.7159,M,0.8,0*58
783224,201610000,$GNVTG,56.710,T,63.336,M,0.96197,N,1.78157,K,D*33
783226,28720900,$GNGGA,075840.90,3158.67402903,N,12054.58976522,E,4,18,1.0,9.5796,M,8.7159,M,0.9,0*59
783231,183606000,$GNVTG,51.706,T,58.332,M,0.80512,N,1.49109,K,D*38
783233,28721000,$GNGGA,075841.00,3158.67404456,N,12054.58977680,E,4,18,1.0,9.5803,M,8.7159,M,1.0,0*5B
783234,162052000,$GNVTG,45.452,T,52.078,M,0.72722,N,1.34681,K,D*39
783530,28721100,$GNGGA,075841.10,3158.67405528,N,12054.58978602,E,4,18,1.0,9.5765,M,8.7159,M,1.1,0*58
783532,165666000,$GNVTG,46.766,T,53.392,M,0.67637,N,1.25264,K,D*36
783534,28721200,$GNGGA,075841.20,3158.67405407,N,12054.58979664,E,4,18,1.0,9.5962,M,8.7159,M,1.2,0*5C
783539,176424000,$GNVTG,49.924,T,56.550,M,0.63740,N,1.18047,K,D*34
783541,28721300,$GNGGA,075841.30,3158.67405503,N,12054.58979986,E,4,18,1.0,9.5990,M,8.7159,M,1.3,0*57
783543,190858000,$GNVTG,53.758,T,60.384,M,0.56757,N,1.05113,K,D*3C
783830,28721400,$GNGGA,075841.40,3158.67405061,N,12054.58980403,E,4,18,1.0,9.6128,M,8.7159,M,0.4,0*59
783832,212456000,$GNVTG,59.656,T,66.282,M,0.48944,N,0.90645,K,D*32
783834,28721500,$GNGGA,075841.50,3158.67404993,N,12054.58981134,E,4,18,1.0,9.6039,M,8.7159,M,0.5,0*5D
783839,237604992,$GNVTG,66.505,T,73.131,M,0.41637,N,0.77111,K,D*39
783841,28721600,$GNGGA,075841.60,3158.67405019,N,12054.58981502,E,4,18,1.0,9.6039,M,8.7159,M,0.6,0*56
783843,255620000,$GNVTG,71.320,T,77.946,M,0.35774,N,0.66254,K,D*35
784133,28721700,$GNGGA,075841.70,3158.67404586,N,12054.58981925,E,4,18,1.0,9.6147,M,8.7159,M,0.7,0*55
784139,270094016,$GNVTG,75.994,T,82.619,M,0.32379,N,0.59965,K,D*30
784141,28721800,$GNGGA,075841.80,3158.67404687,N,12054.58982840,E,4,18,1.0,9.6101,M,8.7159,M,0.8,0*54
784144,284460000,$GNVTG,79.060,T,85.686,M,0.30933,N,0.57288,K,D*3F
784146,28721900,$GNGGA,075841.90,3158.67404877,N,12054.58983180,E,4,18,1.0,9.6155,M,8.7159,M,0.9,0*50
784148,288043008,$GNVTG,80.743,T,87.369,M,0.27139,N,0.50262,K,D*3E
784455,28722000,$GNGGA,075842.00,3158.67404669,N,12054.58983633,E,4,18,1.0,9.6042,M,8.7159,M,1.0,0*5B
784457,316838016,$GNVTG,88.738,T,95.364,M,0.19371,N,0.35875,K,D*38
784459,28722100,$GNGGA,075842.10,3158.67404398,N,12054.58984147,E,4,18,1.0,9.5884,M,8.7159,M,1.1,0*52
784463,43882000,$GNVTG,120.682,T,127.308,M,0.16194,N,0.29992,K,D*3A
784466,28722200,$GNGGA,075842.20,3158.67404128,N,12054.58986026,E,4,18,1.0,9.5633,M,8.7159,M,1.2,0*5D
784467,43491000,$GNVTG,120.291,T,126.917,M,0.25259,N,0.46780,K,D*3F
784762,28722300,$GNGGA,075842.30,3158.67403998,N,12054.58988558,E,4,18,1.0,9.5681,M,8.7159,M,1.3,0*52
784769,37106000,$GNVTG,102.986,T,109.612,M,0.59243,N,1.09718,K,D*3E
784772,28722400,$GNGGA,075842.40,3158.67404538,N,12054.58992749,E,4,18,1.0,9.5581,M,8.7159,M,0.4,0*58
784773,331260000,$GNVTG,92.660,T,99.286,M,0.97559,N,1.80679,K,D*39
784775,28722500,$GNGGA,075842.50,3158.67404341,N,12054.58997646,E,4,18,1.0,9.5289,M,8.7159,M,0.5,0*54
784777,334838016,$GNVTG,93.938,T,100.564,M,1.40207,N,2.59663,K,D*0B
785069,28722600,$GNGGA,075842.60,3158.67403345,N,12054.59004314,E,4,17,1.1,9.5097,M,8.7159,M,0.6,0*54
785074,352881984,$GNVTG,98.682,T,105.308,M,1.81869,N,3.36822,K,D*0B
785076,28722700,$GNGGA,075842.70,3158.67401769,N,12054.59012582,E,4,18,1.0,9.4983,M,8.7159,M,0.7,0*51
785078,36133000,$GNVTG,101.073,T,107.699,M,2.17847,N,4.03453,K,D*36
785080,28722800,$GNGGA,075842.80,3158.67400170,N,12054.59021971,E,4,18,1.0,9.5102,M,8.7159,M,0.8,0*5E
785082,36316000,$GNVTG,104.076,T,110.703,M,2.66252,N,4.93098,K,D*30
785376,28722900,$GNGGA,075842.90,3158.67399169,N,12054.59027948,E,4,18,1.0,9.5571,M,8.7159,M,0.9,0*5D
785383,36239000,$GNVTG,101.179,T,107.805,M,2.50954,N,4.64766,K,D*32
785385,28723000,$GNGGA,075843.00,3158.67399711,N,12054.59031778,E,4,18,1.0,9.5922,M,8.7159,M,1.0,0*54
785387,306068992,$GNVTG,85.569,T,92.195,M,1.65009,N,3.05597,K,D*3F
785389,28723100,$GNGGA,075843.10,3158.67400237,N,12054.59034121,E,4,18,1.0,9.6038,M,8.7159,M,1.1,0*5C
785391,226872992,$GNVTG,63.073,T,69.699,M,0.79145,N,1.46577,K,D*38
785685,28723200,$GNGGA,075843.20,3158.67400500,N,12054.59035411,E,4,18,1.0,9.5776,M,8.7159,M,1.2,0*56
785690,79263000,$GNVTG,22.463,T,29.089,M,0.35478,N,0.65705,K,D*3F
785692,28723300,$GNGGA,075843.30,3158.67400507,N,12054.59036710,E,4,18,1.0,9.5714,M,8.7159,M,1.3,0*54
785694,133269000,$GNVTG,37.169,T,43.795,M,0.08822,N,0.16338,K,D*31
785696,28723400,$GNGGA,075843.40,3158.67400919,N,12054.59038390,E,4,18,1.0,9.5852,M,8.7160,M,1.4,0*52
785697,298888000,$GNVTG,83.188,T,89.814,M,0.27267,N,0.50498,K,D*38
785987,28723500,$GNGGA,075843.50,3158.67401834,N,12054.59039772,E,4,18,1.0,9.6039,M,8.7160,M,1.5,0*52
785995,255627008,$GNVTG,71.727,T,78.353,M,0.57798,N,1.07042,K,D*32
785997,28723600,$GNGGA,075843.60,3158.67403376,N,12054.59041193,E,4,18,1.0,9.6048,M,8.7160,M,1.6,0*5D
785999,187280000,$GNVTG,52.280,T,58.905,M,0.77518,N,1.43563,K,D*3E
786001,28723700,$GNGGA,075843.70,3158.67404701,N,12054.59042475,E,4,18,1.0,9.5988,M,8.7160,M,0.7,0*57
786003,158459008,$GNVTG,44.659,T,51.285,M,0.82027,N,1.51913,K,D*38
786290,28723800,$GNGGA,075843.80,3158.67405403,N,12054.59043331,E,4,18,1.0,9.6007,M,8.7160,M,0.8,0*5C
786295,151280992,$GNVTG,42.081,T,48.707,M,0.67650,N,1.25288,K,D*3D
786297,28723900,$GNGGA,075843.90,3158.67405820,N,12054.59044162,E,4,18,1.0,9.5993,M,8.7160,M,0.9,0*55
786299,151272992,$GNVTG,42.273,T,48.899,M,0.46517,N,0.86150,K,D*37
786301,28724000,$GNGGA,075844.00,3158.67406361,N,12054.59044535,E,4,18,1.0,9.6023,M,8.7160,M,1.0,0*59
786302,205216992,$GNVTG,57.917,T,64.543,M,0.11284,N,0.20899,K,D*31
786598,28724100,$GNGGA,075844.10,3158.67406625,N,12054.59044898,E,4,18,1.0,9.6118,M,8.7160,M,1.1,0*5F
786605,194475008,$GNVTG,54.675,T,61.301,M,0.14389,N,0.26649,K,D*30
786607,28724200,$GNGGA,075844.20,3158.67407422,N,12054.59045038,E,4,18,1.0,9.6123,M,8.7160,M,1.2,0*50
786609,190854000,$GNVTG,53.254,T,59.880,M,0.16566,N,0.30681,K,D*3F
786611,28724300,$GNGGA,075844.30,3158.67407825,N,12054.59045404,E,4,18,1.0,9.6125,M,8.7160,M,1.3,0*56
786613,147680992,$GNVTG,41.481,T,48.107,M,0.20654,N,0.38252,K,D*31
786904,28724400,$GNGGA,075844.40,3158.67408343,N,12054.59045426,E,4,18,1.0,9.6096,M,8.7160,M,0.4,0*5A
786910,115237000,$GNVTG,32.937,T,39.563,M,0.20207,N,0.37423,K,D*38
786912,28724500,$GNGGA,075844.50,3158.67408658,N,12054.59045352,E,4,18,1.0,9.5974,M,8.7160,M,0.5,0*57
786913,30785000,$GNVTG,8.335,T,14.961,M,0.14973,N,0.27731,K,D*06
786915,28724600,$GNGGA,075844.60,3158.67408494,N,12054.59045194,E,4,18,1.0,9.5745,M,8.7160,M,0.6,0*51
786917,101738000,$GNVTG,280.938,T,287.564,M,0.08472,N,0.15690,K,D*38
787211,28724700,$GNGGA,075844.70,3158.67408041,N,12054.59045382,E,4,18,1.0,9.5580,M,8.7160,M,0.7,0*53
787218,69375000,$GNVTG,196.615,T,203.241,M,0.14872,N,0.27543,K,D*3D
787220,28724800,$GNGGA,075844.80,3158.67408280,N,12054.59046636,E,4,18,1.0,9.5573,M,8.7160,M,0.8,0*59
787222,43765000,$GNVTG,128.085,T,134.711,M,0.18058,N,0.33444,K,D*3F
787224,28724900,$GNGGA,075844.90,3158.67409236,N,12054.59049463,E,4,18,1.0,9.5499,M,8.7159,M,0.9,0*57
787226,295270016,$GNVTG,82.270,T,88.896,M,0.52853,N,0.97884,K,D*33
787519,28725000,$GNGGA,075845.00,3158.67410390,N,12054.59053731,E,4,18,1.0,9.5275,M,8.7159,M,1.0,0*59
787524,273636000,$GNVTG,76.236,T,82.862,M,0.93828,N,1.73769,K,D*3D
787526,28725100,$GNGGA,075845.10,3158.67410976,N,12054.59058874,E,4,18,1.0,9.5001,M,8.7159,M,1.1,0*5F
787528,277271008,$GNVTG,77.071,T,83.698,M,1.46722,N,2.71730,K,D*36
787530,28725200,$GNGGA,075845.20,3158.67411141,N,12054.59068326,E,4,18,1.0,9.4718,M,8.7159,M,1.2,0*53
787531,324052992,$GNVTG,90.653,T,97.279,M,2.38701,N,4.42075,K,D*3C
787824,28725300,$GNGGA,075845.30,3158.67410282,N,12054.59078953,E,4,18,1.0,9.4729,M,8.7159,M,1.3,0*55
787831,342092000,$GNVTG,95.992,T,102.618,M,3.18242,N,5.89383,K,D*08
787833,28725400,$GNGGA,075845.40,3158.67409670,N,12054.59088797,E,4,18,1.0,9.5046,M,8.7160,M,1.4,0*58
787835,345617984,$GNVTG,96.718,T,103.345,M,3.54520,N,6.56571,K,D*0A
787837,28725500,$GNGGA,075845.50,3158.67409176,N,12054.59095186,E,4,18,1.0,9.5595,M,8.7160,M,1.5,0*58
787839,338495008,$GNVTG,94.395,T,101.021,M,2.85944,N,5.29568,K,D*0A
787841,28725600,$GNGGA,075845.60,3158.67410447,N,12054.59099205,E,4,18,1.0,9.5912,M,8.7160,M,1.6,0*50
787845,288016992,$GNVTG,80.717,T,87.343,M,1.55870,N,2.88672,K,D*35
788157,28725700,$GNGGA,075845.70,3158.67411511,N,12054.59101630,E,4,18,1.0,9.5980,M,8.7160,M,0.7,0*5B
788159,111662000,$GNVTG,31.462,T,38.088,M,0.71744,N,1.32870,K,D*3F
788161,28725800,$GNGGA,075845.80,3158.67411680,N,12054.59103206,E,4,17,1.4,9.6117,M,8.7160,M,0.8,0*5D
788163,25864000,$GNVTG,6.714,T,13.340,M,0.57378,N,1.06265,K,D*01
788165,28725900,$GNGGA,075845.90,3158.67412924,N,12054.59104913,E,4,18,1.0,9.5756,M,8.7160,M,0.9,0*5C
788170,43215000,$GNVTG,12.915,T,19.541,M,0.28266,N,0.52348,K,D*3E
788462,28726000,$GNGGA,075846.00,3158.67413299,N,12054.59105976,E,4,18,1.0,9.5800,M,8.7160,M,1.0,0*5C
788464,244822000,$GNVTG,68.922,T,75.548,M,0.28092,N,0.52026,K,D*36
788466,28726100,$GNGGA,075846.10,3158.67414112,N,12054.59106586,E,4,18,1.0,9.5662,M,8.7160,M,1.1,0*51
788467,273608992,$GNVTG,76.709,T,83.335,M,0.33665,N,0.62347,K,D*38
788470,28726200,$GNGGA,075846.20,3158.67414675,N,12054.59107023,E,4,18,1.0,9.5754,M,8.7160,M,1.2,0*58
788474,237663008,$GNVTG,66.563,T,73.189,M,0.35000,N,0.64820,K,D*32
788771,28726300,$GNGGA,075846.30,3158.67415446,N,12054.59108264,E,4,18,1.0,9.5698,M,8.7160,M,1.3,0*54
788773,198060992,$GNVTG,55.561,T,62.187,M,0.36187,N,0.67018,K,D*33
788775,28726400,$GNGGA,075846.40,3158.67415547,N,12054.59109075,E,4,18,1.0,9.5813,M,8.7160,M,0.4,0*5B
788777,194400000,$GNVTG,54.000,T,60.626,M,0.36396,N,0.67405,K,D*34
788779,28726500,$GNGGA,075846.50,3158.67415913,N,12054.59109875,E,4,18,1.0,9.5722,M,8.7160,M,0.5,0*53
788784,198091008,$GNVTG,55.491,T,62.117,M,0.34525,N,0.63940,K,D*3A
789075,28726600,$GNGGA,075846.60,3158.67416283,N,12054.59110585,E,4,18,1.0,9.5689,M,8.7160,M,0.6,0*58
789081,212456000,$GNVTG,59.356,T,65.982,M,0.30339,N,0.56189,K,D*3D
789083,28726700,$GNGGA,075846.70,3158.67416565,N,12054.59111037,E,4,18,1.0,9.5716,M,8.7160,M,0.7,0*5D
789085,216028992,$GNVTG,60.629,T,67.255,M,0.26534,N,0.49141,K,D*3F
789087,28726800,$GNGGA,075846.80,3158.67416464,N,12054.59111595,E,4,18,1.0,9.5739,M,8.7160,M,0.8,0*5D
789089,223236992,$GNVTG,62.537,T,69.163,M,0.23488,N,0.43500,K,D*31
789377,28726900,$GNGGA,075846.90,3158.67417055,N,12054.59112503,E,4,18,1.0,9.5645,M,8.7160,M,0.9,0*5C
789379,226819008,$GNVTG,63.319,T,69.945,M,0.24558,N,0.45482,K,D*30
789381,28727000,$GNGGA,075847.00,3158.67417197,N,12054.59113559,E,4,18,1.0,9.5514,M,8.7160,M,1.0,0*5A
789382,226800000,$GNVTG,63.500,T,70.126,M,0.27498,N,0.50927,K,D*33
789385,28727100,$GNGGA,075847.10,3158.67417355,N,12054.59114853,E,4,18,1.0,9.5403,M,8.7160,M,1.1,0*51
789386,241207008,$GNVTG,67.307,T,73.933,M,0.30902,N,0.57231,K,D*3A
789684,28727200,$GNGGA,075847.20,3158.67417702,N,12054.59117452,E,4,18,1.0,9.5340,M,8.7160,M,1.2,0*59
789690,273648000,$GNVTG,76.848,T,83.475,M,0.55075,N,1.01999,K,D*3B
789693,28727300,$GNGGA,075847.30,3158.67418459,N,12054.59122637,E,4,18,1.0,9.5220,M,8.7160,M,1.3,0*5B
789694,298876000,$GNVTG,83.476,T,90.102,M,1.14260,N,2.11609,K,D*31
789696,28727400,$GNGGA,075847.40,3158.67419044,N,12054.59129485,E,4,18,1.0,9.5220,M,8.7160,M,1.4,0*52
789698,306024992,$GNVTG,85.625,T,92.251,M,1.69999,N,3.14838,K,D*3B
790006,28727500,$GNGGA,075847.50,3158.67419435,N,12054.59138253,E,4,18,1.0,9.5034,M,8.7160,M,1.5,0*5A
790008,324071008,$GNVTG,90.571,T,97.197,M,2.45761,N,4.55149,K,D*38
790010,28727600,$GNGGA,075847.60,3158.67419423,N,12054.59148515,E,4,18,1.0,9.5096,M,8.7160,M,0.6,0*56
790012,327636000,$GNVTG,91.736,T,98.363,M,3.00216,N,5.56001,K,D*34
790014,28727700,$GNGGA,075847.70,3158.67419292,N,12054.59156463,E,4,18,1.0,9.4958,M,8.7160,M,0.7,0*5F
790015,324048992,$GNVTG,90.649,T,97.275,M,2.94901,N,5.46156,K,D*36
790311,28727800,$GNGGA,075847.80,3158.67419867,N,12054.59162155,E,4,18,1.0,9.5366,M,8.7160,M,0.8,0*5E
790317,302481984,$GNVTG,84.882,T,91.508,M,2.39627,N,4.43789,K,D*3D
790319,28727900,$GNGGA,075847.90,3158.67421773,N,12054.59165585,E,4,18,1.0,9.5800,M,8.7160,M,0.9,0*5A
790321,259226000,$GNVTG,72.826,T,79.452,M,1.56237,N,2.89350,K,D*3D
790323,28728000,$GNGGA,075848.00,3158.67423182,N,12054.59167810,E,4,17,1.1,9.5908,M,8.7160,M,1.0,0*5A
790324,172896000,$GNVTG,48.696,T,55.322,M,0.86591,N,1.60366,K,D*39
790330,28728100,$GNGGA,075848.10,3158.67424506,N,12054.59169522,E,4,18,1.0,9.5915,M,8.7160,M,1.1,0*55
790331,100829000,$GNVTG,28.629,T,35.255,M,0.62093,N,1.14997,K,D*36
790616,28728200,$GNGGA,075848.20,3158.67426211,N,12054.59170987,E,4,18,1.0,9.5829,M,8.7160,M,1.2,0*53
790618,111682000,$GNVTG,31.082,T,37.708,M,0.52767,N,0.97724,K,D*35
790620,28728300,$GNGGA,075848.30,3158.67426936,N,12054.59171346,E,4,18,1.0,9.6062,M,8.7160,M,1.3,0*5F
790622,122437000,$GNVTG,34.837,T,41.462,M,0.48328,N,0.89504,K,D*33
790922,28728400,$GNGGA,075848.40,3158.67427803,N,12054.59172470,E,4,17,1.1,9.5941,M,8.7160,M,0.4,0*5C
790928,136871008,$GNVTG,38.271,T,44.897,M,0.41390,N,0.76654,K,D*38
790930,28728500,$GNGGA,075848.50,3158.67428303,N,12054.59173648,E,4,18,1.0,9.5848,M,8.7160,M,0.5,0*56
790932,158436992,$GNVTG,44.537,T,51.163,M,0.35842,N,0.66379,K,D*3C
790934,28728600,$GNGGA,075848.60,3158.67428744,N,12054.59174689,E,4,18,1.0,9.5856,M,8.7160,M,0.6,0*54
790936,212450000,$GNVTG,59.050,T,65.676,M,0.29096,N,0.53886,K,D*31
790941,28728700,$GNGGA,075848.70,3158.67428626,N,12054.59175053,E,4,17,1.1,9.5948,M,8.7160,M,0.7,0*51
790943,244855008,$GNVTG,68.355,T,74.981,M,0.26360,N,0.48819,K,D*3B
791253,28728800,$GNGGA,075848.80,3158.67429139,N,12054.59175947,E,4,17,1.1,9.5847,M,8.7160,M,0.8,0*5B
791255,252015008,$GNVTG,70.815,T,77.441,M,0.24390,N,0.45171,K,D*38
791257,28728900,$GNGGA,075848.90,3158.67429409,N,12054.59176043,E,4,18,1.0,9.5828,M,8.7160,M,0.9,0*54
791259,252095008,$GNVTG,70.495,T,77.121,M,0.22153,N,0.41027,K,D*32
791264,28729000,$GNGGA,075849.00,3158.67429605,N,12054.59176614,E,4,17,1.1,9.5770,M,8.7160,M,1.0,0*52
791266,194438000,$GNVTG,54.538,T,61.164,M,0.10763,N,0.19933,K,D*31
791557,28729100,$GNGGA,075849.10,3158.67429507,N,12054.59176673,E,4,19,1.0,9.5748,M,8.7160,M,1.1,0*56
791559,65270000,$GNVTG,180.470,T,187.096,M,0.01915,N,0.03546,K,D*3B
791561,28729200,$GNGGA,075849.20,3158.67428893,N,12054.59176997,E,4,19,1.0,9.5866,M,8.7160,M,1.2,0*51
791563,50555000,$GNVTG,141.095,T,147.721,M,0.06805,N,0.12603,K,D*3B
791568,28729300,$GNGGA,075849.30,3158.67428831,N,12054.59178090,E,4,19,1.0,9.5504,M,8.7160,M,1.3,0*50
791570,43740000,$GNVTG,128.060,T,134.686,M,0.20086,N,0.37199,K,D*32
791864,28729400,$GNGGA,075849.40,3158.67428800,N,12054.59180178,E,4,19,1.0,9.5186,M,8.7160,M,1.4,0*5C
791866,40709000,$GNVTG,117.689,T,124.315,M,0.41990,N,0.77766,K,D*3A
791868,28729500,$GNGGA,075849.50,3158.67428904,N,12054.59183924,E,4,19,1.0,9.5027,M,8.7160,M,0.5,0*50
791870,36308000,$GNVTG,103.128,T,109.754,M,0.88424,N,1.63760,K,D*38
791875,28729600,$GNGGA,075849.60,3158.67428964,N,12054.59188644,E,4,19,1.0,9.5065,M,8.7160,M,0.6,0*52
791877,338436000,$GNVTG,94.136,T,100.762,M,1.44787,N,2.68145,K,D*06
