sys_ms,nmea_ms,nmea
339151,30819300,$GNGGA,083339.30,3158.67257738,N,12054.58155763,E,1,28,0.8,5.6151,M,8.7155,M,,*47
339153,20769000,$GNVTG,5.469,T,12.106,M,0.03583,N,0.06636,K,A*0F
339155,30819400,$GNGGA,083339.40,3158.67257640,N,12054.58155855,E,1,28,0.8,5.6183,M,8.7155,M,,*4B
339157,123316000,$GNVTG,347.496,T,354.133,M,0.07235,N,0.13398,K,A*36
339159,30819500,$GNGGA,083339.50,3158.67258329,N,12054.58155875,E,1,28,0.8,5.6257,M,8.7155,M,,*47
339161,2944000,$GNVTG,0.494,T,7.130,M,0.20361,N,0.37709,K,A*3D
339163,30819600,$GNGGA,083339.60,3158.67259126,N,12054.58156380,E,1,28,0.8,5.6432,M,8.7155,M,,*4F
339167,24248000,$GNVTG,6.448,T,13.085,M,0.32865,N,0.60865,K,A*0B
339169,30819700,$GNGGA,083339.70,3158.67260214,N,12054.58156247,E,1,28,0.8,5.6515,M,8.7155,M,,*48
339171,22860000,$GNVTG,5.810,T,12.447,M,0.34768,N,0.64390,K,A*03
339173,30819800,$GNGGA,083339.80,3158.67261771,N,12054.58156806,E,1,28,0.8,5.6426,M,8.7155,M,,*4E
339174,43233000,$GNVTG,12.833,T,19.470,M,0.29912,N,0.55397,K,A*31
339176,30819900,$GNGGA,083339.90,3158.67261564,N,12054.58157112,E,1,28,0.8,5.6438,M,8.7155,M,,*4B
339181,158494000,$GNVTG,44.294,T,50.931,M,0.20231,N,0.37469,K,A*31
339183,30820000,$GNGGA,083340.00,3158.67260347,N,12054.58157672,E,1,28,0.8,5.6423,M,8.7155,M,,*41
339185,36959000,$GNVTG,109.419,T,116.055,M,0.18345,N,0.33976,K,A*3C
339187,30820100,$GNGGA,083340.10,3158.67268480,N,12054.58155149,E,1,28,0.8,6.1655,M,8.7155,M,,*4E
339189,50950000,$GNVTG,142.430,T,149.065,M,0.27497,N,0.50925,K,A*36
339191,30820200,$GNGGA,083340.20,3158.67267780,N,12054.58155296,E,1,28,0.8,6.1546,M,8.7155,M,,*41
339195,54437000,$GNVTG,155.137,T,161.772,M,0.24639,N,0.45632,K,A*31
339197,30820300,$GNGGA,083340.30,3158.67266817,N,12054.58155253,E,1,28,0.8,6.1673,M,8.7155,M,,*4C
339199,58449000,$GNVTG,160.849,T,167.484,M,0.20183,N,0.37380,K,A*30
339201,30820400,$GNGGA,083340.40,3158.67266374,N,12054.58155698,E,1,28,0.8,6.1546,M,8.7155,M,,*43
339203,54939000,$GNVTG,153.759,T,160.394,M,0.18525,N,0.34308,K,A*3F
339205,30820500,$GNGGA,083340.50,3158.67265634,N,12054.58155346,E,1,28,0.8,6.1495,M,8.7155,M,,*49
339209,54883000,$GNVTG,150.883,T,157.518,M,0.15133,N,0.28026,K,A*3E
339211,30820600,$GNGGA,083340.60,3158.67265782,N,12054.58155754,E,1,28,0.8,6.1386,M,8.7155,M,,*44
339213,44014000,$GNVTG,129.274,T,135.909,M,0.10103,N,0.18712,K,A*3F
339215,30820700,$GNGGA,083340.70,3158.67265102,N,12054.58155629,E,1,28,0.8,6.1349,M,8.7155,M,,*43
339217,47237000,$GNVTG,133.257,T,139.892,M,0.05566,N,0.10308,K,A*3E
339219,30820800,$GNGGA,083340.80,3158.67265064,N,12054.58155809,E,1,28,0.8,6.1351,M,8.7155,M,,*48
339224,62127000,$GNVTG,170.927,T,177.563,M,0.06652,N,0.12320,K,A*33
339226,30820900,$GNGGA,083340.90,3158.67265043,N,12054.58155891,E,1,28,0.8,6.1311,M,8.7155,M,,*49
339227,69090000,$GNVTG,197.270,T,203.906,M,0.13673,N,0.25322,K,A*3D
339457,30821000,$GNGGA,083341.00,3158.67264561,N,12054.58156393,E,1,28,0.8,6.1417,M,8.7155,M,,*4E
339459,69458000,$GNVTG,199.518,T,206.154,M,0.21326,N,0.39496,K,A*31
339461,30821100,$GNGGA,083341.10,3158.67251209,N,12054.58149593,E,1,27,0.9,6.5709,M,8.7155,M,,*4E
339466,65729000,$GNVTG,182.809,T,189.444,M,0.30460,N,0.56412,K,A*36
339468,30821200,$GNGGA,083341.20,3158.67250912,N,12054.58150009,E,1,27,0.9,6.5466,M,8.7155,M,,*49
339470,65469000,$GNVTG,180.669,T,187.303,M,0.36251,N,0.67137,K,A*34
339762,30821300,$GNGGA,083341.30,3158.67249592,N,12054.58150401,E,1,27,0.9,6.5438,M,8.7155,M,,*43
339768,62249000,$GNVTG,179.509,T,186.143,M,0.41834,N,0.77476,K,A*38
339770,30821400,$GNGGA,083341.40,3158.67248346,N,12054.58150172,E,1,27,0.9,6.5493,M,8.7155,M,,*4A
339773,65727000,$GNVTG,181.867,T,188.501,M,0.47313,N,0.87625,K,A*35
339775,30821500,$GNGGA,083341.50,3158.67246250,N,12054.58150012,E,1,27,0.9,6.5570,M,8.7155,M,,*48
339777,65836000,$GNVTG,185.736,T,192.370,M,0.49643,N,0.91938,K,A*3B
340069,30821600,$GNGGA,083341.60,3158.67245988,N,12054.58149619,E,1,27,0.9,6.5514,M,8.7155,M,,*41
340071,69094000,$GNVTG,195.394,T,202.028,M,0.43048,N,0.79726,K,A*32
340073,30821700,$GNGGA,083341.70,3158.67246065,N,12054.58148577,E,1,27,0.9,6.5500,M,8.7155,M,,*46
340078,91161000,$GNVTG,253.981,T,260.615,M,0.15530,N,0.28762,K,A*34
340080,30821800,$GNGGA,083341.80,3158.67246474,N,12054.58148966,E,1,27,0.9,6.5390,M,8.7155,M,,*4E
340081,115399000,$GNVTG,321.139,T,327.773,M,0.14850,N,0.27503,K,A*38
340370,30821900,$GNGGA,083341.90,3158.67246690,N,12054.58148917,E,1,27,0.9,6.5322,M,8.7155,M,,*48
340377,127395000,$GNVTG,357.975,T,4.609,M,0.15259,N,0.28260,K,A*38
340379,30822000,$GNGGA,083342.00,3158.67246630,N,12054.58148991,E,1,27,0.9,6.5351,M,8.7155,M,,*42
340381,158415008,$GNVTG,44.415,T,51.049,M,0.10592,N,0.19617,K,A*33
340383,30822100,$GNGGA,083342.10,3158.67258051,N,12054.58154286,E,1,28,0.8,6.7566,M,8.7155,M,,*43
340386,302456000,$GNVTG,84.356,T,90.990,M,0.05962,N,0.11041,K,A*35
340672,30822200,$GNGGA,083342.20,3158.67258240,N,12054.58154148,E,1,28,0.8,6.7525,M,8.7155,M,,*44
340674,90975000,$GNVTG,252.855,T,259.489,M,0.01641,N,0.03040,K,A*3E
340676,30822300,$GNGGA,083342.30,3158.67258744,N,12054.58154113,E,1,28,0.8,6.7491,M,8.7155,M,,*44
340678,94625000,$GNVTG,267.605,T,274.238,M,0.06920,N,0.12816,K,A*34
340680,30822400,$GNGGA,083342.40,3158.67258803,N,12054.58153983,E,1,28,0.8,6.7531,M,8.7155,M,,*42
340685,119549000,$GNVTG,333.569,T,340.202,M,0.06852,N,0.12689,K,A*3E
340979,30822500,$GNGGA,083342.50,3158.67259025,N,12054.58153924,E,1,28,0.8,6.7519,M,8.7155,M,,*49
340985,17824000,$GNVTG,4.574,T,11.208,M,0.07945,N,0.14715,K,A*0C
340987,30822600,$GNGGA,083342.60,3158.67258858,N,12054.58153655,E,1,28,0.8,6.7554,M,8.7155,M,,*49
340989,19685000,$GNVTG,5.285,T,11.919,M,0.05916,N,0.10957,K,A*07
340991,30822700,$GNGGA,083342.70,3158.67259634,N,12054.58153544,E,1,28,0.8,6.7475,M,8.7155,M,,*4C
340996,8349000,$GNVTG,1.799,T,8.433,M,0.07621,N,0.14114,K,A*34
341316,30822800,$GNGGA,083342.80,3158.67259266,N,12054.58153476,E,1,28,0.8,6.7463,M,8.7155,M,,*47
341318,115641000,$GNVTG,322.321,T,328.955,M,0.04630,N,0.08574,K,A*31
341320,30822900,$GNGGA,083342.90,3158.67259113,N,12054.58153439,E,1,28,0.8,6.7456,M,8.7155,M,,*4A
341322,75761000,$GNVTG,211.101,T,217.735,M,0.03924,N,0.07267,K,A*32
341324,30823000,$GNGGA,083343.00,3158.67259605,N,12054.58153254,E,1,28,0.8,6.7390,M,8.7155,M,,*42
341329,122991000,$GNVTG,343.411,T,350.045,M,0.04441,N,0.08224,K,A*33
341621,30823100,$GNGGA,083343.10,3158.67271054,N,12054.58158350,E,1,27,0.9,6.9240,M,8.7155,M,,*49
341627,12964000,$GNVTG,3.364,T,9.997,M,0.06499,N,0.12037,K,A*34
341629,30823200,$GNGGA,083343.20,3158.67270918,N,12054.58158161,E,1,27,0.9,6.9262,M,8.7155,M,,*4A
341631,61267000,$GNVTG,17.467,T,24.100,M,0.08798,N,0.16295,K,A*3E
341633,30823300,$GNGGA,083343.30,3158.67270750,N,12054.58158078,E,1,27,0.9,6.9333,M,8.7155,M,,*45
341638,93678000,$GNVTG,26.778,T,33.411,M,0.11140,N,0.20632,K,A*35
341934,30823400,$GNGGA,083343.40,3158.67270946,N,12054.58157940,E,1,27,0.9,6.9334,M,8.7155,M,,*41
341936,100841000,$GNVTG,28.841,T,35.474,M,0.11799,N,0.21853,K,A*31
341938,30823500,$GNGGA,083343.50,3158.67270778,N,12054.58157951,E,1,27,0.9,6.9385,M,8.7155,M,,*49
341940,82816000,$GNVTG,23.116,T,29.749,M,0.09426,N,0.17457,K,A*32
341942,30823600,$GNGGA,083343.60,3158.67270793,N,12054.58157998,E,1,27,0.9,6.9401,M,8.7155,M,,*41
341946,93612000,$GNVTG,26.612,T,33.245,M,0.08525,N,0.15789,K,A*37
342239,30823700,$GNGGA,083343.70,3158.67271227,N,12054.58158067,E,1,27,0.9,6.9291,M,8.7155,M,,*42
342245,46882000,$GNVTG,13.082,T,19.715,M,0.05763,N,0.10673,K,A*3A
342247,30823800,$GNGGA,083343.80,3158.67271353,N,12054.58158083,E,1,27,0.9,6.9244,M,8.7155,M,,*4D
342249,93622000,$GNVTG,26.722,T,33.355,M,0.05748,N,0.10645,K,A*35
342251,30823900,$GNGGA,083343.90,3158.67271541,N,12054.58158466,E,1,27,0.9,6.9222,M,8.7155,M,,*46
342256,187226000,$GNVTG,52.726,T,59.359,M,0.06582,N,0.12190,K,A*38
342545,30824000,$GNGGA,083344.00,3158.67271063,N,12054.58158598,E,1,27,0.9,6.9192,M,8.7155,M,,*45
342547,40064000,$GNVTG,112.344,T,118.977,M,0.07814,N,0.14472,K,A*33
342550,30824100,$GNGGA,083344.10,3158.67286644,N,12054.58161038,E,1,27,0.9,7.1466,M,8.7155,M,,*4D
342552,43775000,$GNVTG,126.215,T,132.848,M,0.10042,N,0.18597,K,A*3F
342554,30824200,$GNGGA,083344.20,3158.67287059,N,12054.58160836,E,1,27,0.9,7.1384,M,8.7155,M,,*49
342557,47764000,$GNVTG,132.844,T,139.477,M,0.10509,N,0.19463,K,A*3E
342851,30824300,$GNGGA,083344.30,3158.67287191,N,12054.58160719,E,1,27,0.9,7.1327,M,8.7155,M,,*46
342857,80056000,$GNVTG,221.796,T,228.429,M,0.04056,N,0.07512,K,A*35
342859,30824400,$GNGGA,083344.40,3158.67286890,N,12054.58160541,E,1,27,0.9,7.1415,M,8.7155,M,,*41
342861,87375000,$GNVTG,243.795,T,250.428,M,0.08425,N,0.15603,K,A*30
342863,30824500,$GNGGA,083344.50,3158.67286840,N,12054.58160554,E,1,27,0.9,7.1469,M,8.7155,M,,*42
342868,83589000,$GNVTG,237.369,T,244.002,M,0.09735,N,0.18030,K,A*35
342870,30824600,$GNGGA,083344.60,3158.67286408,N,12054.58160599,E,1,27,0.9,7.1537,M,8.7155,M,,*4A
342871,76340000,$GNVTG,218.260,T,224.892,M,0.07149,N,0.13239,K,A*34
343174,30824700,$GNGGA,083344.70,3158.67286431,N,12054.58160710,E,1,27,0.9,7.1485,M,8.7155,M,,*4A
343176,62361000,$GNVTG,179.621,T,186.254,M,0.08477,N,0.15699,K,A*35
343178,30824800,$GNGGA,083344.80,3158.67286807,N,12054.58160820,E,1,27,0.9,7.1431,M,8.7155,M,,*4F
343183,58126000,$GNVTG,160.526,T,167.158,M,0.08584,N,0.15897,K,A*34
343185,30824900,$GNGGA,083344.90,3158.67287363,N,12054.58160899,E,1,27,0.9,7.1314,M,8.7155,M,,*44
343187,47406000,$GNVTG,136.246,T,142.879,M,0.03044,N,0.05637,K,A*3C
343478,30825000,$GNGGA,083345.00,3158.67288164,N,12054.58159276,E,1,27,0.9,7.1394,M,8.7155,M,,*4F
343485,108910000,$GNVTG,306.550,T,313.182,M,0.29764,N,0.55123,K,A*3C
343487,30825100,$GNGGA,083345.10,3158.67303436,N,12054.58163689,E,1,27,0.9,7.8548,M,8.7155,M,,*4D
343490,108366000,$GNVTG,306.006,T,312.636,M,0.37285,N,0.69051,K,A*3D
343492,30825200,$GNGGA,083345.20,3158.67303699,N,12054.58163209,E,1,27,0.9,7.8505,M,8.7155,M,,*4C
343494,109358000,$GNVTG,306.998,T,313.629,M,0.34981,N,0.64784,K,A*32
343786,30825300,$GNGGA,083345.30,3158.67304025,N,12054.58162812,E,1,27,0.9,7.8538,M,8.7155,M,,*44
343788,112500000,$GNVTG,316.540,T,323.171,M,0.20877,N,0.38664,K,A*38
343790,30825400,$GNGGA,083345.40,3158.67304469,N,12054.58162805,E,1,27,0.9,7.8613,M,8.7155,M,,*43
343795,127154000,$GNVTG,356.794,T,3.424,M,0.13271,N,0.24578,K,A*3C
343797,30825500,$GNGGA,083345.50,3158.67305250,N,12054.58163246,E,1,27,0.9,7.8623,M,8.7155,M,,*40
343798,90005000,$GNVTG,25.105,T,31.736,M,0.19228,N,0.35611,K,A*3E
344094,30825600,$GNGGA,083345.60,3158.67305897,N,12054.58163767,E,1,27,0.9,7.8821,M,8.7155,M,,*48
344100,118843000,$GNVTG,33.843,T,40.474,M,0.30287,N,0.56092,K,A*37
344102,30825700,$GNGGA,083345.70,3158.67306905,N,12054.58164733,E,1,27,0.9,7.9012,M,8.7155,M,,*4F
344105,129699000,$GNVTG,36.199,T,42.830,M,0.41802,N,0.77417,K,A*39
344107,30825800,$GNGGA,083345.80,3158.67308289,N,12054.58164967,E,1,27,0.9,7.9258,M,8.7155,M,,*42
344109,122403000,$GNVTG,34.503,T,41.134,M,0.47355,N,0.87702,K,A*35
344398,30825900,$GNGGA,083345.90,3158.67309062,N,12054.58164845,E,1,27,0.9,7.9575,M,8.7155,M,,*4C
344399,108083000,$GNVTG,30.083,T,36.714,M,0.49511,N,0.91694,K,A*39
344402,30826000,$GNGGA,083346.00,3158.67310668,N,12054.58163849,E,1,27,0.9,7.9616,M,8.7155,M,,*4F
344406,43291000,$GNVTG,12.391,T,19.022,M,0.51357,N,0.95113,K,A*37
344408,30826100,$GNGGA,083346.10,3158.67327576,N,12054.58153038,E,1,27,0.9,8.2731,M,8.7155,M,,*4B
344410,126841000,$GNVTG,358.361,T,4.991,M,0.52470,N,0.97175,K,A*3B
344705,30826200,$GNGGA,083346.20,3158.67328257,N,12054.58153089,E,1,27,0.9,8.2569,M,8.7155,M,,*46
344711,123178000,$GNVTG,347.358,T,353.987,M,0.42138,N,0.78040,K,A*37
344713,30826300,$GNGGA,083346.30,3158.67327698,N,12054.58152672,E,1,27,0.9,8.2380,M,8.7155,M,,*4D
344716,119678000,$GNVTG,335.578,T,342.208,M,0.24634,N,0.45623,K,A*3C
344718,30826400,$GNGGA,083346.40,3158.67326889,N,12054.58153537,E,1,27,0.9,8.2140,M,8.7155,M,,*48
344720,61982000,$GNVTG,177.362,T,183.991,M,0.25984,N,0.48123,K,A*3E
345011,30826500,$GNGGA,083346.50,3158.67325144,N,12054.58155853,E,1,27,0.9,8.1956,M,8.7155,M,,*47
345013,54187000,$GNVTG,151.127,T,157.757,M,0.45044,N,0.83422,K,A*34
345015,30826600,$GNGGA,083346.60,3158.67322364,N,12054.58159862,E,1,27,0.9,8.1806,M,8.7155,M,,*49
345020,47655000,$GNVTG,130.855,T,137.484,M,1.18319,N,2.19126,K,A*36
345022,30826700,$GNGGA,083346.70,3158.67320594,N,12054.58166406,E,1,27,0.9,8.1465,M,8.7155,M,,*48
345023,43465000,$GNVTG,120.265,T,126.895,M,1.89823,N,3.51551,K,A*31
345312,30826800,$GNGGA,083346.80,3158.67318101,N,12054.58172948,E,1,27,0.9,8.1621,M,8.7155,M,,*44
345318,40022000,$GNVTG,112.302,T,118.932,M,2.16287,N,4.00564,K,A*35
345320,30826900,$GNGGA,083346.90,3158.67316662,N,12054.58180823,E,1,27,0.9,8.1886,M,8.7155,M,,*4B
345322,36888000,$GNVTG,105.588,T,112.218,M,2.25439,N,4.17512,K,A*3A
345324,30827000,$GNGGA,083347.00,3158.67317207,N,12054.58188294,E,1,27,0.9,8.1730,M,8.7155,M,,*49
345328,352823008,$GNVTG,98.723,T,105.353,M,2.30354,N,4.26616,K,A*09
345628,30827100,$GNGGA,083347.10,3158.67302926,N,12054.58183332,E,1,28,0.8,8.5273,M,8.7155,M,,*4A
345630,320411008,$GNVTG,89.411,T,96.039,M,2.30744,N,4.27338,K,A*32
345632,30827200,$GNGGA,083347.20,3158.67302542,N,12054.58191888,E,1,28,0.8,8.5096,M,8.7155,M,,*47
345634,320484992,$GNVTG,89.285,T,95.914,M,2.25011,N,4.16720,K,A*30
345636,30827300,$GNGGA,083347.30,3158.67303897,N,12054.58197485,E,1,28,0.8,8.5207,M,8.7155,M,,*4F
345641,313256992,$GNVTG,87.557,T,94.186,M,2.12438,N,3.93434,K,A*33
345935,30827400,$GNGGA,083347.40,3158.67303980,N,12054.58202346,E,1,28,0.8,8.5297,M,8.7155,M,,*41
345941,309678016,$GNVTG,86.178,T,92.807,M,1.74343,N,3.22883,K,A*3F
345943,30827500,$GNGGA,083347.50,3158.67301728,N,12054.58206577,E,1,28,0.8,8.5378,M,8.7155,M,,*4E
345945,334871008,$GNVTG,93.571,T,100.200,M,1.34422,N,2.48950,K,A*07
345947,30827600,$GNGGA,083347.60,3158.67301256,N,12054.58208989,E,1,28,0.8,8.5354,M,8.7155,M,,*4C
345952,40527000,$GNVTG,115.627,T,122.256,M,0.96352,N,1.78444,K,A*3A
346251,30827700,$GNGGA,083347.70,3158.67300102,N,12054.58210683,E,1,28,0.8,8.5352,M,8.7155,M,,*44
346253,51547000,$GNVTG,149.607,T,156.235,M,0.77489,N,1.43509,K,A*39
346255,30827800,$GNGGA,083347.80,3158.67298225,N,12054.58211502,E,1,28,0.8,8.5259,M,8.7155,M,,*4C
346257,61322000,$GNVTG,170.122,T,176.750,M,0.69670,N,1.29029,K,A*37
346259,30827900,$GNGGA,083347.90,3158.67296948,N,12054.58211497,E,1,28,0.8,8.5208,M,8.7155,M,,*4A
346264,65197000,$GNVTG,180.397,T,187.026,M,0.64102,N,1.18717,K,A*3B
346555,30828000,$GNGGA,083348.00,3158.67295593,N,12054.58211441,E,1,28,0.8,8.5244,M,8.7155,M,,*46
346561,65899000,$GNVTG,183.919,T,190.548,M,0.54504,N,1.00942,K,A*39
346563,30828100,$GNGGA,083348.10,3158.67269206,N,12054.58204385,E,1,26,0.9,8.7342,M,8.7155,M,,*4E
346565,72921000,$GNVTG,200.921,T,207.549,M,0.43132,N,0.79880,K,A*31
346567,30828200,$GNGGA,083348.20,3158.67269259,N,12054.58204113,E,1,26,0.9,8.7172,M,8.7155,M,,*4B
346572,76012000,$GNVTG,214.172,T,220.800,M,0.32313,N,0.59843,K,A*35
346574,30828300,$GNGGA,083348.30,3158.67268806,N,12054.58203976,E,1,26,0.9,8.7259,M,8.7155,M,,*4D
346576,79684000,$GNVTG,220.484,T,227.112,M,0.20885,N,0.38678,K,A*35
346862,30828400,$GNGGA,083348.40,3158.67269125,N,12054.58204689,E,1,26,0.9,8.7218,M,8.7155,M,,*4E
346864,65730000,$GNVTG,189.390,T,196.018,M,0.13190,N,0.24428,K,A*32
346866,30828500,$GNGGA,083348.50,3158.67269245,N,12054.58206262,E,1,26,0.9,8.7283,M,8.7155,M,,*4B
346871,40070000,$GNVTG,117.050,T,123.678,M,0.19081,N,0.35337,K,A*36
346873,30828600,$GNGGA,083348.60,3158.67270232,N,12054.58208879,E,1,26,0.9,8.7229,M,8.7155,M,,*4E
346874,316884000,$GNVTG,88.984,T,95.612,M,0.40681,N,0.75341,K,A*3E
347167,30828700,$GNGGA,083348.70,3158.67274002,N,12054.58212239,E,1,26,0.9,8.7148,M,8.7155,M,,*4B
347173,266455008,$GNVTG,74.055,T,80.683,M,0.77278,N,1.43118,K,A*38
347175,30828800,$GNGGA,083348.80,3158.67276702,N,12054.58217497,E,1,26,0.9,8.7327,M,8.7155,M,,*4D
347178,241260992,$GNVTG,67.061,T,73.689,M,1.11388,N,2.06290,K,A*35
347180,30828900,$GNGGA,083348.90,3158.67281369,N,12054.58224172,E,1,26,0.9,8.7420,M,8.7155,M,,*43
347182,223206000,$GNVTG,62.106,T,68.734,M,1.49099,N,2.76131,K,A*3C
347500,30829000,$GNGGA,083349.00,3158.67283198,N,12054.58228545,E,1,26,0.9,8.8191,M,8.7155,M,,*49
347502,223279008,$GNVTG,62.379,T,69.007,M,1.69503,N,3.13919,K,A*34
347504,30829100,$GNGGA,083349.10,3158.67258245,N,12054.58230249,E,1,26,0.9,9.1087,M,8.7155,M,,*41
347509,223258000,$GNVTG,62.458,T,69.085,M,1.78114,N,3.29866,K,A*38
347511,30829200,$GNGGA,083349.20,3158.67262940,N,12054.58236062,E,1,26,0.9,9.0972,M,8.7155,M,,*4A
347512,219627008,$GNVTG,61.727,T,68.355,M,1.75474,N,3.24978,K,A*32
347804,30829300,$GNGGA,083349.30,3158.67266568,N,12054.58241728,E,1,26,0.9,9.0812,M,8.7155,M,,*47
347810,219631008,$GNVTG,61.631,T,68.258,M,1.71503,N,3.17623,K,A*3C
347812,30829400,$GNGGA,083349.40,3158.67270869,N,12054.58247615,E,1,26,0.9,9.0413,M,8.7155,M,,*4F
347815,216084992,$GNVTG,60.785,T,67.412,M,1.67719,N,3.10616,K,A*3B
347817,30829500,$GNGGA,083349.50,3158.67274495,N,12054.58252192,E,1,26,0.9,9.0151,M,8.7155,M,,*4A
347819,216028992,$GNVTG,60.029,T,66.656,M,1.60446,N,2.97146,K,A*3B
348115,30829600,$GNGGA,083349.60,3158.67279800,N,12054.58257581,E,1,26,0.9,8.9517,M,8.7155,M,,*49
348117,219608992,$GNVTG,61.909,T,68.536,M,1.51740,N,2.81022,K,A*39
348119,30829700,$GNGGA,083349.70,3158.67281115,N,12054.58260509,E,1,26,0.9,8.9680,M,8.7155,M,,*4B
348124,234023008,$GNVTG,65.123,T,71.751,M,1.40863,N,2.60877,K,A*3F
348126,30829800,$GNGGA,083349.80,3158.67279022,N,12054.58260491,E,1,26,0.9,9.0024,M,8.7155,M,,*46
348127,241212000,$GNVTG,67.612,T,74.240,M,1.24530,N,2.30630,K,A*39
348419,30829900,$GNGGA,083349.90,3158.67283201,N,12054.58264405,E,1,26,0.9,8.8974,M,8.7155,M,,*4D
348421,255699008,$GNVTG,71.099,T,77.727,M,1.05158,N,1.94753,K,A*3C
348423,30830000,$GNGGA,083350.00,3158.67282357,N,12054.58264834,E,1,26,0.9,8.9225,M,8.7155,M,,*4F
348428,252075008,$GNVTG,70.975,T,77.603,M,0.91773,N,1.69964,K,A*3A
348430,30830100,$GNGGA,083350.10,3158.67262851,N,12054.58290584,E,1,25,0.9,9.2325,M,8.7155,M,,*48
348432,291688992,$GNVTG,81.389,T,88.016,M,0.48031,N,0.88953,K,A*30
348728,30830200,$GNGGA,083350.20,3158.67262852,N,12054.58291815,E,1,25,0.9,9.2530,M,8.7155,M,,*4E
348730,40370000,$GNVTG,116.410,T,123.037,M,0.32113,N,0.59472,K,A*35
348732,30830300,$GNGGA,083350.30,3158.67262768,N,12054.58292766,E,1,25,0.9,9.2568,M,8.7155,M,,*4C
348737,48219000,$GNVTG,137.999,T,144.626,M,0.34348,N,0.63612,K,A*3A
348739,30830400,$GNGGA,083350.40,3158.67262011,N,12054.58293979,E,1,24,0.9,9.2670,M,8.7155,M,,*48
348740,50604000,$GNVTG,141.144,T,147.771,M,0.40555,N,0.75107,K,A*3E
349036,30830500,$GNGGA,083350.50,3158.67261962,N,12054.58295788,E,1,24,0.9,9.2506,M,8.7155,M,,*43
349042,50478000,$GNVTG,140.078,T,146.705,M,0.58745,N,1.08796,K,A*3C
349044,30830600,$GNGGA,083350.60,3158.67262373,N,12054.58299187,E,1,25,0.9,9.2446,M,8.7155,M,,*48
349047,46951000,$GNVTG,132.031,T,138.657,M,0.67884,N,1.25721,K,A*36
349049,30830700,$GNGGA,083350.70,3158.67263599,N,12054.58303650,E,1,25,0.9,9.2352,M,8.7155,M,,*47
349051,40174000,$GNVTG,111.514,T,118.141,M,0.98664,N,1.82725,K,A*3E
349343,30830800,$GNGGA,083350.80,3158.67264871,N,12054.58310726,E,1,25,0.9,9.2329,M,8.7156,M,,*49
349345,352817984,$GNVTG,98.418,T,105.045,M,1.25953,N,2.33265,K,A*0E
349347,30830900,$GNGGA,083350.90,3158.67267167,N,12054.58319109,E,1,25,0.9,9.1805,M,8.7156,M,,*41
349352,327672000,$GNVTG,91.672,T,98.299,M,1.62853,N,3.01603,K,A*39
349354,30831000,$GNGGA,083351.00,3158.67268415,N,12054.58326781,E,1,25,0.9,9.2046,M,8.7156,M,,*40
349355,313206016,$GNVTG,87.606,T,94.233,M,1.95074,N,3.61277,K,A*35
349648,30831100,$GNGGA,083351.10,3158.67252248,N,12054.58343221,E,1,25,0.9,9.4061,M,8.7156,M,,*49
349654,313273984,$GNVTG,87.374,T,94.000,M,2.15622,N,3.99333,K,A*3F
349656,30831200,$GNGGA,083351.20,3158.67253148,N,12054.58350046,E,1,25,0.9,9.3784,M,8.7156,M,,*42
349659,324088000,$GNVTG,90.588,T,97.214,M,2.10131,N,3.89162,K,A*3F
349661,30831300,$GNGGA,083351.30,3158.67255651,N,12054.58355163,E,1,25,0.9,9.3813,M,8.7156,M,,*48
349663,327641984,$GNVTG,91.042,T,97.668,M,1.84761,N,3.42176,K,A*3D
349665,30831400,$GNGGA,083351.40,3158.67253314,N,12054.58356800,E,1,25,0.9,9.4567,M,8.7156,M,,*4B
349666,320459008,$GNVTG,89.059,T,95.686,M,1.53407,N,2.84111,K,A*3F
349962,30831500,$GNGGA,083351.50,3158.67254109,N,12054.58358299,E,1,25,0.9,9.4855,M,8.7156,M,,*4B
349967,306009984,$GNVTG,85.210,T,91.836,M,1.16935,N,2.16564,K,A*3D
349969,30831600,$GNGGA,083351.60,3158.67258727,N,12054.58360929,E,1,25,0.9,9.4905,M,8.7156,M,,*41
349971,291668992,$GNVTG,81.869,T,88.495,M,0.96344,N,1.78429,K,A*36
349973,30831700,$GNGGA,083351.70,3158.67259405,N,12054.58362661,E,1,25,0.9,9.5192,M,8.7156,M,,*44
349975,273641984,$GNVTG,76.542,T,83.168,M,0.88387,N,1.63692,K,A*3E
350263,30831800,$GNGGA,083351.80,3158.67262476,N,12054.58363940,E,1,25,0.9,9.5133,M,8.7156,M,,*41
350270,244844992,$GNVTG,68.045,T,74.671,M,0.80408,N,1.48915,K,A*35
350272,30831900,$GNGGA,083351.90,3158.67264443,N,12054.58365389,E,1,25,0.9,9.5155,M,8.7156,M,,*49
350274,230403008,$GNVTG,64.103,T,70.729,M,0.78018,N,1.44490,K,A*3C
350276,30832000,$GNGGA,083352.00,3158.67267699,N,12054.58367888,E,1,25,0.9,9.5035,M,8.7156,M,,*4A
350278,237604992,$GNVTG,66.805,T,73.431,M,0.70549,N,1.30657,K,A*3B
350568,30832100,$GNGGA,083352.10,3158.67239929,N,12054.58378248,E,1,26,0.9,9.5185,M,8.7156,M,,*45
350570,248440000,$GNVTG,69.140,T,75.766,M,0.65183,N,1.20718,K,A*36
350575,30832200,$GNGGA,083352.20,3158.67240628,N,12054.58378958,E,1,26,0.9,9.5340,M,8.7156,M,,*47
350577,252056992,$GNVTG,70.257,T,76.883,M,0.58353,N,1.08069,K,A*36
350579,30832300,$GNGGA,083352.30,3158.67242731,N,12054.58380707,E,1,26,0.9,9.5129,M,8.7156,M,,*43
350580,266406000,$GNVTG,74.206,T,80.832,M,0.32444,N,0.60085,K,A*35
350869,30832400,$GNGGA,083352.40,3158.67244050,N,12054.58381935,E,1,26,0.9,9.5024,M,8.7156,M,,*40
350876,342081984,$GNVTG,95.782,T,102.409,M,0.18936,N,0.35069,K,A*0E
350878,30832500,$GNGGA,083352.50,3158.67243986,N,12054.58382729,E,1,26,0.9,9.4973,M,8.7156,M,,*4E
350880,41093000,$GNVTG,119.953,T,126.579,M,0.19964,N,0.36973,K,A*3E
350882,30832600,$GNGGA,083352.60,3158.67243892,N,12054.58384655,E,1,26,0.9,9.4930,M,8.7156,M,,*42
350884,43622000,$GNVTG,121.362,T,127.988,M,0.29694,N,0.54993,K,A*37
351173,30832700,$GNGGA,083352.70,3158.67243478,N,12054.58388296,E,1,26,0.9,9.4539,M,8.7156,M,,*49
351175,43369000,$GNVTG,121.109,T,127.735,M,0.44456,N,0.82332,K,A*3D
351180,30832800,$GNGGA,083352.80,3158.67243299,N,12054.58392103,E,1,26,0.9,9.4347,M,8.7156,M,,*44
351182,43926000,$GNVTG,120.726,T,127.352,M,0.67982,N,1.25903,K,A*33
351184,30832900,$GNGGA,083352.90,3158.67239087,N,12054.58396329,E,1,26,0.9,9.4752,M,8.7156,M,,*4B
351185,43939000,$GNVTG,121.679,T,128.306,M,0.96414,N,1.78558,K,A*31
351480,30833000,$GNGGA,083353.00,3158.67235721,N,12054.58401326,E,1,26,0.9,9.4656,M,8.7156,M,,*47
351487,43616000,$GNVTG,120.416,T,127.043,M,1.25485,N,2.32399,K,A*31
351489,30833100,$GNGGA,083353.10,3158.67234799,N,12054.58408399,E,1,26,0.9,9.4238,M,8.7156,M,,*45
351491,41059000,$GNVTG,119.919,T,126.545,M,1.43007,N,2.64848,K,A*31
351493,30833200,$GNGGA,083353.20,3158.67233160,N,12054.58412139,E,1,26,0.9,9.4696,M,8.7156,M,,*42
351495,40265000,$GNVTG,118.185,T,124.812,M,1.43552,N,2.65859,K,A*34
351785,30833300,$GNGGA,083353.30,3158.67230709,N,12054.58413069,E,1,26,0.9,9.5896,M,8.7156,M,,*43
351787,40639000,$GNVTG,112.919,T,119.545,M,1.32057,N,2.44570,K,A*31
351792,30833400,$GNGGA,083353.40,3158.67234873,N,12054.58421446,E,1,26,0.9,9.5348,M,8.7156,M,,*42
351794,37301000,$GNVTG,107.881,T,114.507,M,1.16327,N,2.15439,K,A*34
351796,30833500,$GNGGA,083353.50,3158.67237363,N,12054.58426081,E,1,26,0.9,9.5216,M,8.7156,M,,*48
351798,37120000,$GNVTG,104.880,T,111.506,M,1.06516,N,1.97267,K,A*33
352087,30833600,$GNGGA,083353.60,3158.67234541,N,12054.58430642,E,1,26,0.9,9.5405,M,8.7156,M,,*44
352093,36915000,$GNVTG,101.855,T,108.481,M,1.00114,N,1.85411,K,A*3C
352095,30833700,$GNGGA,083353.70,3158.67234078,N,12054.58435052,E,1,26,0.9,9.5611,M,8.7156,M,,*4F
352098,36535000,$GNVTG,100.535,T,107.161,M,0.95013,N,1.75963,K,A*3E
352100,30833800,$GNGGA,083353.80,3158.67234418,N,12054.58437438,E,1,26,0.9,9.5635,M,8.7156,M,,*4E
352102,36609000,$GNVTG,100.609,T,107.235,M,0.88464,N,1.63836,K,A*3E
352391,30833900,$GNGGA,083353.90,3158.67237533,N,12054.58440662,E,1,26,0.9,9.4845,M,8.7156,M,,*41
352393,36771000,$GNVTG,101.711,T,108.337,M,0.81634,N,1.51187,K,A*37
352395,30834000,$GNGGA,083354.00,3158.67236613,N,12054.58442831,E,1,26,0.9,9.5164,M,8.7156,M,,*4E
352400,36966000,$GNVTG,103.786,T,110.413,M,0.77248,N,1.43064,K,A*3A
352402,30834100,$GNGGA,083354.10,3158.67189029,N,12054.58425226,E,1,26,0.9,9.6145,M,8.7156,M,,*4A
352403,37352000,$GNVTG,106.992,T,113.618,M,0.52943,N,0.98051,K,A*38
352699,30834200,$GNGGA,083354.20,3158.67186534,N,12054.58423682,E,1,26,0.9,9.6768,M,8.7156,M,,*4A
352705,44142000,$GNVTG,121.882,T,128.508,M,0.30342,N,0.56192,K,A*34
352707,30834300,$GNGGA,083354.30,3158.67188045,N,12054.58426956,E,1,26,0.9,9.6106,M,8.7156,M,,*4B
352710,58609000,$GNVTG,161.949,T,168.575,M,0.24289,N,0.44983,K,A*30
352712,30834400,$GNGGA,083354.40,3158.67186351,N,12054.58427472,E,1,26,0.9,9.5956,M,8.7156,M,,*40
352714,62482000,$GNVTG,176.922,T,183.548,M,0.35121,N,0.65043,K,A*37
353005,30834500,$GNGGA,083354.50,3158.67183238,N,12054.58429616,E,1,26,0.9,9.5626,M,8.7156,M,,*4C
353007,61938000,$GNVTG,171.678,T,178.304,M,0.51419,N,0.95228,K,A*36
353009,30834600,$GNGGA,083354.60,3158.67178714,N,12054.58428757,E,1,26,0.9,9.6160,M,8.7156,M,,*43
353014,58779000,$GNVTG,166.819,T,173.445,M,0.70285,N,1.30167,K,A*36
353016,30834700,$GNGGA,083354.70,3158.67175883,N,12054.58428134,E,1,26,0.9,9.6423,M,8.7156,M,,*4F
353018,57856000,$GNVTG,164.016,T,170.642,M,0.78759,N,1.45861,K,A*34
353308,30834800,$GNGGA,083354.80,3158.67172339,N,12054.58430765,E,1,26,0.9,9.6197,M,8.7156,M,,*4C
353314,58209000,$GNVTG,160.609,T,167.235,M,0.85459,N,1.58271,K,A*3C
353316,30834900,$GNGGA,083354.90,3158.67170425,N,12054.58435880,E,1,26,0.9,9.5672,M,8.7156,M,,*4B
353319,54936000,$GNVTG,155.636,T,162.262,M,0.94878,N,1.75715,K,A*36
353321,30835000,$GNGGA,083355.00,3158.67167367,N,12054.58440479,E,1,26,0.9,9.5252,M,8.7156,M,,*4A
353323,54555000,$GNVTG,153.375,T,160.001,M,1.05247,N,1.94918,K,A*34
353608,30835100,$GNGGA,083355.10,3158.67144514,N,12054.58439683,E,1,26,0.9,9.6880,M,8.7156,M,,*47
353610,54735000,$GNVTG,150.735,T,157.360,M,1.12855,N,2.09008,K,A*37
353612,30835200,$GNGGA,083355.20,3158.67139878,N,12054.58443500,E,1,26,0.9,9.7533,M,8.7157,M,,*49
353617,51458000,$GNVTG,146.698,T,153.324,M,1.16309,N,2.15405,K,A*30
353619,30835300,$GNGGA,083355.30,3158.67132715,N,12054.58444035,E,1,26,0.9,9.9021,M,8.7157,M,,*4B
353620,50907000,$GNVTG,140.507,T,147.132,M,1.17645,N,2.17879,K,A*3A
353909,30835400,$GNGGA,083355.40,3158.67135797,N,12054.58456100,E,1,26,0.9,9.8464,M,8.7157,M,,*41
353915,47658000,$GNVTG,135.558,T,142.183,M,1.16171,N,2.15149,K,A*34
353917,30835500,$GNGGA,083355.50,3158.67136696,N,12054.58462447,E,1,26,0.9,9.7881,M,8.7157,M,,*4A
353920,47503000,$GNVTG,134.463,T,141.089,M,1.11289,N,2.06107,K,A*3F
353922,30835600,$GNGGA,083355.60,3158.67136096,N,12054.58463926,E,1,26,0.9,9.8223,M,8.7157,M,,*49
353924,47129000,$GNVTG,135.029,T,141.655,M,1.01536,N,1.88045,K,A*33
354229,30835700,$GNGGA,083355.70,3158.67140302,N,12054.58466606,E,1,26,0.9,9.8289,M,8.7157,M,,*4F
354231,47750000,$GNVTG,135.650,T,142.276,M,0.88902,N,1.64647,K,A*30
354233,30835800,$GNGGA,083355.80,3158.67143191,N,12054.58470353,E,1,26,0.9,9.7858,M,8.7157,M,,*40
354238,51225000,$GNVTG,140.825,T,147.450,M,0.56040,N,1.03787,K,A*39
354240,30835900,$GNGGA,083355.90,3158.67140915,N,12054.58474173,E,1,26,0.9,9.6778,M,8.7157,M,,*4E
354242,48230000,$GNVTG,138.950,T,145.576,M,0.53523,N,0.99124,K,A*3A
354536,30836000,$GNGGA,083356.00,3158.67142848,N,12054.58479495,E,1,26,0.9,9.6904,M,8.7157,M,,*4A
354542,47892000,$GNVTG,135.792,T,142.418,M,0.56342,N,1.04345,K,A*3D
354544,30836100,$GNGGA,083356.10,3158.67124100,N,12054.58450778,E,1,24,0.9,9.7492,M,8.7157,M,,*44
354547,47667000,$GNVTG,134.627,T,141.253,M,0.55365,N,1.02537,K,A*3A
354549,30836200,$GNGGA,083356.20,3158.67121635,N,12054.58452150,E,1,24,0.9,9.7515,M,8.7157,M,,*43
354551,47894000,$GNVTG,137.674,T,144.300,M,0.51546,N,0.95462,K,A*30
354842,30836300,$GNGGA,083356.30,3158.67122955,N,12054.58453842,E,1,24,0.9,9.7155,M,8.7157,M,,*43
354844,47991000,$GNVTG,139.651,T,146.277,M,0.48802,N,0.90382,K,A*33
354846,30836400,$GNGGA,083356.40,3158.67119440,N,12054.58454658,E,1,24,0.9,9.7330,M,8.7157,M,,*46
354851,51370000,$GNVTG,143.790,T,150.416,M,0.45715,N,0.84664,K,A*38
354853,30836500,$GNGGA,083356.50,3158.67115280,N,12054.58456713,E,1,24,0.9,9.7352,M,8.7157,M,,*49
354854,51471000,$GNVTG,148.591,T,155.216,M,0.45353,N,0.83993,K,A*35
355145,30836600,$GNGGA,083356.60,3158.67112915,N,12054.58458833,E,1,24,0.9,9.7303,M,8.7157,M,,*4D
355151,54275000,$GNVTG,154.035,T,160.661,M,0.47621,N,0.88195,K,A*36
355153,30836700,$GNGGA,083356.70,3158.67105468,N,12054.58460647,E,1,24,0.9,9.7602,M,8.7157,M,,*4F
355156,54740000,$GNVTG,157.320,T,163.946,M,0.55175,N,1.02184,K,A*3D
355158,30836800,$GNGGA,083356.80,3158.67097291,N,12054.58463690,E,1,24,0.9,9.7793,M,8.7157,M,,*4A
355160,54429000,$GNVTG,156.069,T,162.695,M,0.68408,N,1.26692,K,A*35
355462,30836900,$GNGGA,083356.90,3158.67091606,N,12054.58466818,E,1,24,0.9,9.7095,M,8.7157,M,,*4D
355464,54946000,$GNVTG,155.646,T,162.271,M,0.84740,N,1.56938,K,A*36
355466,30837000,$GNGGA,083357.00,3158.67084263,N,12054.58470266,E,1,24,0.9,9.6974,M,8.7157,M,,*45
355471,54883000,$GNVTG,155.583,T,162.208,M,0.95352,N,1.76591,K,A*38
355473,30837100,$GNGGA,083357.10,3158.67087603,N,12054.58465141,E,1,26,0.9,9.8305,M,8.7157,M,,*47
355474,54458000,$GNVTG,156.098,T,162.723,M,0.96773,N,1.79224,K,A*3A
355476,30837200,$GNGGA,083357.20,3158.67084895,N,12054.58467688,E,1,26,0.9,9.8601,M,8.7157,M,,*47
355478,55284000,$GNVTG,156.924,T,163.549,M,0.94377,N,1.74786,K,A*39
355763,30837300,$GNGGA,083357.30,3158.67083660,N,12054.58468735,E,1,26,0.9,9.8717,M,8.7157,M,,*4B
355771,54518000,$GNVTG,156.158,T,162.783,M,0.86160,N,1.59569,K,A*34
355773,30837400,$GNGGA,083357.40,3158.67083361,N,12054.58470910,E,1,26,0.9,9.8870,M,8.7157,M,,*46
355775,51128000,$GNVTG,149.188,T,155.813,M,0.63261,N,1.17160,K,A*3B
355777,30837500,$GNGGA,083357.50,3158.67085283,N,12054.58475434,E,1,26,0.9,9.8497,M,8.7157,M,,*47
355778,50874000,$GNVTG,142.354,T,148.979,M,0.55472,N,1.02734,K,A*30
356069,30837600,$GNGGA,083357.60,3158.67085560,N,12054.58479460,E,1,26,0.9,9.7890,M,8.7157,M,,*47
356071,47942000,$GNVTG,137.722,T,144.347,M,0.54775,N,1.01443,K,A*39
356076,30837700,$GNGGA,083357.70,3158.67085880,N,12054.58481974,E,1,26,0.9,9.7812,M,8.7157,M,,*40
356078,47632000,$GNVTG,134.592,T,141.217,M,0.55885,N,1.03498,K,A*37
356080,30837800,$GNGGA,083357.80,3158.67083576,N,12054.58483050,E,1,26,0.9,9.8002,M,8.7157,M,,*46
356081,47719000,$GNVTG,134.679,T,141.304,M,0.52119,N,0.96525,K,A*33
356376,30837900,$GNGGA,083357.90,3158.67082801,N,12054.58483405,E,1,26,0.9,9.8358,M,8.7157,M,,*43
356378,47812000,$GNVTG,135.712,T,142.337,M,0.47547,N,0.88057,K,A*39
356383,30838000,$GNGGA,083358.00,3158.67082641,N,12054.58483492,E,1,26,0.9,9.8227,M,8.7157,M,,*48
356385,48011000,$GNVTG,137.791,T,144.416,M,0.40448,N,0.74909,K,A*3A
356387,30838100,$GNGGA,083358.10,3158.67081919,N,12054.58483505,E,1,24,0.9,9.8301,M,8.7157,M,,*40
356388,50666000,$GNVTG,141.206,T,147.831,M,0.32436,N,0.60072,K,A*36
356715,30838200,$GNGGA,083358.20,3158.67080499,N,12054.58482706,E,1,24,0.9,9.8550,M,8.7157,M,,*45
356717,65692000,$GNVTG,183.712,T,190.337,M,0.19220,N,0.35596,K,A*38
356722,30838300,$GNGGA,083358.30,3158.67079837,N,12054.58482814,E,1,24,0.9,9.8498,M,8.7157,M,,*43
356724,72543000,$GNVTG,201.483,T,208.108,M,0.20296,N,0.37589,K,A*3D
356726,30838400,$GNGGA,083358.40,3158.67078902,N,12054.58482213,E,1,24,0.9,9.8601,M,8.7157,M,,*4D
356728,76296000,$GNVTG,213.516,T,220.141,M,0.22260,N,0.41226,K,A*3C
357016,30838500,$GNGGA,083358.50,3158.67077515,N,12054.58481178,E,1,24,0.9,9.8639,M,8.7157,M,,*4F
357024,79458000,$GNVTG,223.078,T,229.703,M,0.24860,N,0.46041,K,A*33
357026,30838600,$GNGGA,083358.60,3158.67076933,N,12054.58480441,E,1,24,0.9,9.8513,M,8.7157,M,,*40
357028,83388000,$GNVTG,239.048,T,245.673,M,0.31735,N,0.58774,K,A*32
357030,30838700,$GNGGA,083358.70,3158.67075869,N,12054.58479767,E,1,24,0.9,9.8431,M,8.7157,M,,*4C
357031,87026000,$GNVTG,245.326,T,251.951,M,0.33272,N,0.61620,K,A*36
357328,30838800,$GNGGA,083358.80,3158.67077209,N,12054.58480676,E,1,24,0.9,9.7559,M,8.7157,M,,*4A
357330,87395000,$GNVTG,244.755,T,251.380,M,0.27902,N,0.51674,K,A*3A
357336,30838900,$GNGGA,083358.90,3158.67073156,N,12054.58477124,E,1,24,0.9,9.8407,M,8.7157,M,,*4B
357337,79618000,$GNVTG,223.238,T,229.863,M,0.22600,N,0.41855,K,A*38
357339,30839000,$GNGGA,083359.00,3158.67072171,N,12054.58477594,E,1,24,0.9,9.8418,M,8.7157,M,,*46
357341,68687000,$GNVTG,191.227,T,197.853,M,0.23147,N,0.42869,K,A*30
357633,30839100,$GNGGA,083359.10,3158.67067755,N,12054.58468684,E,1,23,1.1,10.0431,M,8.7157,M,,*7A
357641,55174000,$GNVTG,157.754,T,164.378,M,0.30781,N,0.57006,K,A*3E
357643,30839200,$GNGGA,083359.20,3158.67062521,N,12054.58476932,E,1,23,1.1,10.0360,M,8.7157,M,,*73
357645,47261000,$GNVTG,134.221,T,140.846,M,0.55534,N,1.02849,K,A*31
357647,30839300,$GNGGA,083359.30,3158.67057057,N,12054.58482045,E,1,23,1.1,10.0971,M,8.7157,M,,*78
357648,43589000,$GNVTG,124.149,T,130.774,M,0.97335,N,1.80265,K,A*33
357940,30839400,$GNGGA,083359.40,3158.67052847,N,12054.58490306,E,1,23,1.1,10.0913,M,8.7157,M,,*70
357942,43822000,$GNVTG,120.622,T,127.246,M,1.17720,N,2.18017,K,A*33
357947,30839500,$GNGGA,083359.50,3158.67048558,N,12054.58493467,E,1,23,1.1,10.1204,M,8.7157,M,,*76
357949,43394000,$GNVTG,121.134,T,127.759,M,1.10061,N,2.03833,K,A*38
357951,30839600,$GNGGA,083359.60,3158.67047447,N,12054.58495474,E,1,23,1.1,10.1861,M,8.7157,M,,*78
357952,43443000,$GNVTG,122.123,T,128.747,M,0.91783,N,1.69983,K,A*3B
358245,30839700,$GNGGA,083359.70,3158.67046589,N,12054.58498502,E,1,23,1.1,10.1522,M,8.7157,M,,*7C
358252,44329000,$GNVTG,123.949,T,130.573,M,0.76826,N,1.42281,K,A*3B
358254,30839800,$GNGGA,083359.80,3158.67046058,N,12054.58500454,E,1,23,1.1,10.1206,M,8.7157,M,,*79
358256,43688000,$GNVTG,128.008,T,134.632,M,0.66752,N,1.23625,K,A*3E
358258,30839900,$GNGGA,083359.90,3158.67045304,N,12054.58503027,E,1,23,1.1,10.1059,M,8.7157,M,,*7A
358260,47418000,$GNVTG,131.558,T,138.182,M,0.62041,N,1.14900,K,A*3B
358553,30840000,$GNGGA,083400.00,3158.67044157,N,12054.58504554,E,1,23,1.1,10.1164,M,8.7157,M,,*74
358554,47254000,$GNVTG,134.214,T,140.839,M,0.59858,N,1.10857,K,A*38
358560,30840100,$GNGGA,083400.10,3158.67043567,N,12054.58505854,E,1,23,1.1,10.1277,M,8.7157,M,,*78
358562,48076000,$GNVTG,135.976,T,142.601,M,0.59278,N,1.09782,K,A*36
358564,30840200,$GNGGA,083400.20,3158.67041499,N,12054.58506911,E,1,23,1.1,10.1666,M,8.7157,M,,*7E
358565,47730000,$GNVTG,135.630,T,142.254,M,0.57669,N,1.06802,K,A*3D
358567,30840300,$GNGGA,083400.30,3158.67039650,N,12054.58508872,E,1,23,1.1,10.1350,M,8.7157,M,,*7D
358569,47680000,$GNVTG,134.640,T,141.265,M,0.52697,N,0.97594,K,A*35
358854,30840400,$GNGGA,083400.40,3158.67039377,N,12054.58508928,E,1,23,1.1,10.1458,M,8.7157,M,,*7B
358860,47118000,$GNVTG,135.018,T,141.643,M,0.43893,N,0.81290,K,A*31
358862,30840500,$GNGGA,083400.50,3158.67037637,N,12054.58508586,E,1,23,1.1,10.1478,M,8.7157,M,,*7F
358864,47418000,$GNVTG,137.198,T,143.823,M,0.36155,N,0.66960,K,A*3C
358866,30840600,$GNGGA,083400.60,3158.67036652,N,12054.58508633,E,1,23,1.1,10.1387,M,8.7157,M,,*74
358868,51007000,$GNVTG,145.307,T,151.931,M,0.28000,N,0.51856,K,A*32
359157,30840700,$GNGGA,083400.70,3158.67034477,N,12054.58508248,E,1,23,1.1,10.1353,M,8.7157,M,,*73
359159,58038000,$GNVTG,161.378,T,168.003,M,0.20332,N,0.37655,K,A*39
359161,30840800,$GNGGA,083400.80,3158.67033339,N,12054.58506737,E,1,23,1.1,10.1380,M,8.7157,M,,*7B
359163,69538000,$GNVTG,199.598,T,206.223,M,0.16134,N,0.29881,K,A*34
359165,30840900,$GNGGA,083400.90,3158.67032225,N,12054.58505275,E,1,23,1.1,10.1213,M,8.7157,M,,*7C
359167,83581000,$GNVTG,231.721,T,238.346,M,0.20573,N,0.38101,K,A*39
359464,30841000,$GNGGA,083401.00,3158.67031495,N,12054.58503468,E,1,23,1.1,10.1089,M,8.7157,M,,*77
359466,90583000,$GNVTG,250.583,T,257.207,M,0.27672,N,0.51248,K,A*3D
359468,30841100,$GNGGA,083401.10,3158.67051896,N,12054.58473669,E,1,24,0.9,10.0785,M,8.7157,M,,*7E
359470,91125000,$GNVTG,257.705,T,264.330,M,0.32206,N,0.59646,K,A*32
359472,30841200,$GNGGA,083401.20,3158.67050400,N,12054.58472832,E,1,24,0.9,10.0709,M,8.7157,M,,*7A
359473,94704000,$GNVTG,262.984,T,269.608,M,0.34795,N,0.64440,K,A*33
359765,30841300,$GNGGA,083401.30,3158.67048582,N,12054.58475004,E,1,24,0.9,10.0513,M,8.7157,M,,*7A
359767,93797000,$GNVTG,261.137,T,267.761,M,0.29104,N,0.53900,K,A*3F
359769,30841400,$GNGGA,083401.40,3158.67046186,N,12054.58478546,E,1,24,0.9,10.0412,M,8.7157,M,,*7D
359771,86700000,$GNVTG,242.180,T,248.804,M,0.16455,N,0.30475,K,A*34
359773,30841500,$GNGGA,083401.50,3158.67044453,N,12054.58482885,E,1,24,0.9,10.0613,M,8.7157,M,,*77
359774,50961000,$GNVTG,148.081,T,154.705,M,0.13873,N,0.25694,K,A*39
360067,30841600,$GNGGA,083401.60,3158.67039934,N,12054.58488272,E,1,24,0.9,10.0412,M,8.7157,M,,*79
360073,39957000,$GNVTG,115.057,T,121.681,M,0.38660,N,0.71597,K,A*31
360075,30841700,$GNGGA,083401.70,3158.67035032,N,12054.58494329,E,1,24,0.9,10.0720,M,8.7157,M,,*7B
360077,39904000,$GNVTG,111.244,T,117.869,M,0.74374,N,1.37741,K,A*3A
360079,30841800,$GNGGA,083401.80,3158.67029765,N,12054.58499912,E,1,24,0.9,10.1077,M,8.7157,M,,*77
360081,40343000,$GNVTG,110.743,T,117.367,M,0.98119,N,1.81717,K,A*39
360378,30841900,$GNGGA,083401.90,3158.67023903,N,12054.58502552,E,1,24,0.9,10.1404,M,8.7157,M,,*79
360380,40706000,$GNVTG,112.986,T,119.611,M,1.06591,N,1.97406,K,A*30
360382,30842000,$GNGGA,083402.00,3158.67022947,N,12054.58505015,E,1,24,0.9,10.1783,M,8.7157,M,,*7F
360384,40095000,$GNVTG,114.255,T,120.879,M,0.96977,N,1.79601,K,A*30
360386,30842100,$GNGGA,083402.10,3158.67022545,N,12054.58505290,E,1,19,1.0,10.1976,M,8.7157,M,,*7D
360388,40095000,$GNVTG,112.375,T,118.999,M,0.76295,N,1.41299,K,A*36
360683,30842200,$GNGGA,083402.20,3158.67022568,N,12054.58506339,E,1,19,1.0,10.1776,M,8.7157,M,,*7E
360689,36482000,$GNVTG,108.002,T,114.626,M,0.55272,N,1.02364,K,A*35
360691,30842300,$GNGGA,083402.30,3158.67021255,N,12054.58507752,E,1,19,1.0,10.1785,M,8.7157,M,,*71
360693,356427008,$GNVTG,99.127,T,105.751,M,0.35254,N,0.65290,K,A*03
360695,30842400,$GNGGA,083402.40,3158.67020334,N,12054.58510052,E,1,19,1.0,10.1548,M,8.7157,M,,*73
360697,331200000,$GNVTG,92.200,T,98.824,M,0.36769,N,0.68096,K,A*37
360986,30842500,$GNGGA,083402.50,3158.67020116,N,12054.58511328,E,1,19,1.0,10.1520,M,8.7157,M,,*71
360988,309654016,$GNVTG,86.554,T,93.179,M,0.39698,N,0.73520,K,A*3C
360990,30842600,$GNGGA,083402.60,3158.67020173,N,12054.58512122,E,1,19,1.0,10.1405,M,8.7157,M,,*7C
360991,280808000,$GNVTG,78.208,T,84.832,M,0.41585,N,0.77014,K,A*35
360993,30842700,$GNGGA,083402.70,3158.67021594,N,12054.58513128,E,1,19,1.0,10.1218,M,8.7157,M,,*70
360995,234000000,$GNVTG,65.400,T,72.024,M,0.43106,N,0.79832,K,A*3E
361292,30842800,$GNGGA,083402.80,3158.67022081,N,12054.58514471,E,1,19,1.0,10.1261,M,8.7157,M,,*7D
361298,198047008,$GNVTG,55.047,T,61.672,M,0.45721,N,0.84675,K,A*37
361300,30842900,$GNGGA,083402.90,3158.67022227,N,12054.58515549,E,1,19,1.0,10.1452,M,8.7157,M,,*7F
361302,176422000,$GNVTG,49.722,T,56.347,M,0.47643,N,0.88234,K,A*33
361304,30843000,$GNGGA,083403.00,3158.67020839,N,12054.58516225,E,1,19,1.0,10.1668,M,8.7157,M,,*75
361306,190874000,$GNVTG,53.874,T,60.499,M,0.43975,N,0.81442,K,A*35
361616,30843100,$GNGGA,083403.10,3158.67019682,N,12054.58516809,E,1,27,0.8,10.3743,M,8.7157,M,,*7A
361617,241248000,$GNVTG,67.048,T,73.671,M,0.34404,N,0.63716,K,A*36
361623,30843200,$GNGGA,083403.20,3158.67017627,N,12054.58516988,E,1,27,0.8,10.3630,M,8.7157,M,,*75
361625,327612992,$GNVTG,91.113,T,97.736,M,0.27961,N,0.51784,K,A*3E
361627,30843300,$GNGGA,083403.30,3158.67017849,N,12054.58520561,E,1,27,0.8,10.2756,M,8.7157,M,,*7C
361628,44190000,$GNVTG,120.990,T,127.614,M,0.31545,N,0.58422,K,A*36
361921,30843400,$GNGGA,083403.40,3158.67015008,N,12054.58524340,E,1,27,0.8,10.2623,M,8.7157,M,,*76
361928,47574000,$GNVTG,132.654,T,139.278,M,0.45290,N,0.83877,K,A*35
361930,30843500,$GNGGA,083403.50,3158.67012447,N,12054.58528622,E,1,27,0.8,10.2591,M,8.7157,M,,*78
361932,44271000,$GNVTG,129.531,T,136.155,M,0.65228,N,1.20802,K,A*37
361934,30843600,$GNGGA,083403.60,3158.67011344,N,12054.58532772,E,1,27,0.8,10.2469,M,8.7157,M,,*75
361936,43595000,$GNVTG,125.095,T,131.719,M,0.84793,N,1.57037,K,A*3D
362225,30843700,$GNGGA,083403.70,3158.67009419,N,12054.58536468,E,1,27,0.8,10.2599,M,8.7157,M,,*70
362227,43545000,$GNVTG,122.225,T,128.850,M,1.00411,N,1.85961,K,A*38
362232,30843800,$GNGGA,083403.80,3158.67008322,N,12054.58541613,E,1,27,0.8,10.2537,M,8.7157,M,,*7B
362234,44017000,$GNVTG,120.817,T,127.442,M,1.14903,N,2.12800,K,A*31
362236,30843900,$GNGGA,083403.90,3158.67005155,N,12054.58546681,E,1,27,0.8,10.2484,M,8.7157,M,,*70
362237,43872000,$GNVTG,120.672,T,127.296,M,1.27947,N,2.36958,K,A*39
362530,30844000,$GNGGA,083404.00,3158.67002784,N,12054.58549485,E,1,27,0.8,10.2998,M,8.7157,M,,*7A
362537,43594000,$GNVTG,121.334,T,127.958,M,1.31805,N,2.44104,K,A*32
362539,30844100,$GNGGA,083404.10,3158.67003626,N,12054.58551480,E,1,20,0.9,10.3312,M,8.7157,M,,*70
362541,43820000,$GNVTG,121.560,T,128.184,M,1.25814,N,2.33008,K,A*3B
362543,30844200,$GNGGA,083404.20,3158.67002198,N,12054.58553610,E,1,20,0.9,10.3426,M,8.7157,M,,*79
362545,43800000,$GNVTG,123.420,T,130.044,M,1.14989,N,2.12959,K,A*31
362857,30844300,$GNGGA,083404.30,3158.67001767,N,12054.58554637,E,1,20,0.9,10.3384,M,8.7157,M,,*70
362859,44237000,$GNVTG,128.557,T,135.181,M,1.05147,N,1.94732,K,A*32
362864,30844400,$GNGGA,083404.40,3158.67003039,N,12054.58556779,E,1,20,0.9,10.3154,M,8.7157,M,,*7F
362866,46953000,$GNVTG,130.153,T,136.777,M,0.96366,N,1.78469,K,A*32
362868,30844500,$GNGGA,083404.50,3158.67004077,N,12054.58558587,E,1,20,0.9,10.3032,M,8.7157,M,,*7F
362870,46977000,$GNVTG,131.117,T,137.741,M,0.86372,N,1.59961,K,A*35
362872,30844600,$GNGGA,083404.60,3158.67004517,N,12054.58558750,E,1,20,0.9,10.3422,M,8.7157,M,,*72
362873,44226000,$GNVTG,127.606,T,134.230,M,0.79601,N,1.47421,K,A*32
363158,30844700,$GNGGA,083404.70,3158.67004222,N,12054.58559629,E,1,20,0.9,10.3729,M,8.7157,M,,*74
363164,43876000,$GNVTG,125.376,T,132.000,M,0.76744,N,1.42130,K,A*3A
363166,30844800,$GNGGA,083404.80,3158.67002800,N,12054.58558870,E,1,21,0.9,10.4485,M,8.7157,M,,*77
363168,43897000,$GNVTG,123.517,T,130.140,M,0.73526,N,1.36171,K,A*3F
363170,30844900,$GNGGA,083404.90,3158.67003564,N,12054.58561157,E,1,21,0.9,10.4234,M,8.7157,M,,*72
363175,43823000,$GNVTG,123.443,T,130.067,M,0.69791,N,1.29253,K,A*33
363467,30845000,$GNGGA,083405.00,3158.67002887,N,12054.58561846,E,1,21,0.9,10.4374,M,8.7157,M,,*77
363469,43830000,$GNVTG,123.450,T,130.074,M,0.64234,N,1.18961,K,A*3C
363471,30845100,$GNGGA,083405.10,3158.67002234,N,12054.58563235,E,1,20,1.0,10.4443,M,8.7157,M,,*72
363473,44202000,$GNVTG,123.822,T,130.446,M,0.57435,N,1.06369,K,A*3A
363774,30845200,$GNGGA,083405.20,3158.67002549,N,12054.58564183,E,1,20,1.0,10.4359,M,8.7157,M,,*79
363782,44278000,$GNVTG,123.898,T,130.522,M,0.50866,N,0.94204,K,A*35
363784,30845300,$GNGGA,083405.30,3158.67001652,N,12054.58564280,E,1,20,1.0,10.4577,M,8.7157,M,,*78
363785,44027000,$GNVTG,126.467,T,133.091,M,0.41149,N,0.76208,K,A*36
363787,30845400,$GNGGA,083405.40,3158.67001619,N,12054.58564529,E,1,20,1.0,10.4595,M,8.7157,M,,*78
363789,43818000,$GNVTG,128.138,T,134.762,M,0.34504,N,0.63902,K,A*31
363791,30845500,$GNGGA,083405.50,3158.67001896,N,12054.58564661,E,1,20,1.0,10.4593,M,8.7157,M,,*79
363793,43752000,$GNVTG,128.072,T,134.695,M,0.27392,N,0.50730,K,A*33
364082,30845600,$GNGGA,083405.60,3158.67002361,N,12054.58565262,E,1,20,1.0,10.4536,M,8.7157,M,,*73
364084,43600000,$GNVTG,122.280,T,128.903,M,0.21364,N,0.39566,K,A*3A
364086,30845700,$GNGGA,083405.70,3158.67003283,N,12054.58565488,E,1,20,1.0,10.4484,M,8.7157,M,,*74
364088,169204992,$GNVTG,47.305,T,53.929,M,0.16444,N,0.30454,K,A*39
364090,30845800,$GNGGA,083405.80,3158.67004087,N,12054.58565744,E,1,20,1.0,10.4451,M,8.7157,M,,*71
364091,97247000,$GNVTG,27.247,T,33.870,M,0.32085,N,0.59422,K,A*32
364384,30845900,$GNGGA,083405.90,3158.67004644,N,12054.58566047,E,1,20,1.0,10.4418,M,8.7157,M,,*73
364386,90055000,$GNVTG,25.455,T,32.078,M,0.42886,N,0.79426,K,A*3E
364388,30846000,$GNGGA,083406.00,3158.67005124,N,12054.58566841,E,1,20,1.0,10.4365,M,8.7157,M,,*7A
364390,97259000,$GNVTG,27.859,T,34.483,M,0.47552,N,0.88067,K,A*34
364392,30846100,$GNGGA,083406.10,3158.66986782,N,12054.58619390,E,1,24,0.9,10.5632,M,8.7158,M,,*7B
364393,104494000,$GNVTG,29.794,T,36.418,M,0.50885,N,0.94239,K,A*31
364690,30846200,$GNGGA,083406.20,3158.66986309,N,12054.58619499,E,1,24,0.9,10.5653,M,8.7158,M,,*76
364692,115228000,$GNVTG,32.128,T,38.752,M,0.48995,N,0.90739,K,A*31
364694,30846300,$GNGGA,083406.30,3158.66986301,N,12054.58619696,E,1,24,0.9,10.5562,M,8.7158,M,,*73
364696,100870000,$GNVTG,28.170,T,34.793,M,0.45396,N,0.84074,K,A*39
364698,30846400,$GNGGA,083406.40,3158.66985892,N,12054.58619855,E,1,24,0.9,10.5595,M,8.7158,M,,*7F
364699,82805000,$GNVTG,23.605,T,30.228,M,0.44188,N,0.81836,K,A*31
364994,30846500,$GNGGA,083406.50,3158.66986000,N,12054.58619756,E,1,24,0.9,10.5639,M,8.7158,M,,*77
365000,64843000,$GNVTG,18.743,T,25.366,M,0.45546,N,0.84350,K,A*3C
365002,30846600,$GNGGA,083406.60,3158.66985743,N,12054.58619923,E,1,24,0.9,10.5709,M,8.7158,M,,*79
365004,61258000,$GNVTG,17.758,T,24.381,M,0.47877,N,0.88667,K,A*31
365006,30846700,$GNGGA,083406.70,3158.66985515,N,12054.58619970,E,1,24,0.9,10.5683,M,8.7158,M,,*7C
365008,72004000,$GNVTG,20.204,T,26.827,M,0.48221,N,0.89305,K,A*3A
365301,30846800,$GNGGA,083406.80,3158.66985854,N,12054.58620038,E,1,24,0.9,10.5683,M,8.7158,M,,*74
365303,68471000,$GNVTG,19.971,T,26.594,M,0.45057,N,0.83446,K,A*38
365305,30846900,$GNGGA,083406.90,3158.66985461,N,12054.58619554,E,1,24,0.9,10.5840,M,8.7158,M,,*7B
365307,54089000,$GNVTG,15.689,T,22.313,M,0.41753,N,0.77327,K,A*3D
365309,30847000,$GNGGA,083407.00,3158.66985301,N,12054.58619493,E,1,24,0.9,10.5773,M,8.7158,M,,*77
365310,30248000,$GNVTG,8.248,T,14.872,M,0.39324,N,0.72828,K,A*0B
365604,30847100,$GNGGA,083407.10,3158.67001450,N,12054.58632570,E,1,25,0.8,10.5551,M,8.7158,M,,*76
365610,3124000,$GNVTG,0.524,T,7.148,M,0.38283,N,0.70901,K,A*39
365612,30847200,$GNGGA,083407.20,3158.67001180,N,12054.58632383,E,1,25,0.8,10.5559,M,8.7158,M,,*7F
365614,126928000,$GNVTG,357.508,T,4.132,M,0.37709,N,0.69837,K,A*3C
365616,30847300,$GNGGA,083407.30,3158.67001296,N,12054.58632489,E,1,25,0.8,10.5487,M,8.7158,M,,*75
365618,127223000,$GNVTG,357.803,T,4.426,M,0.37369,N,0.69208,K,A*3E
365941,30847400,$GNGGA,083407.40,3158.67001001,N,12054.58632231,E,1,25,0.8,10.5510,M,8.7158,M,,*74
365943,127050000,$GNVTG,358.570,T,5.194,M,0.37641,N,0.69711,K,A*37
365945,30847500,$GNGGA,083407.50,3158.67000906,N,12054.58631927,E,1,25,0.8,10.5464,M,8.7158,M,,*77
365947,127062000,$GNVTG,359.522,T,6.145,M,0.37512,N,0.69471,K,A*3E
365949,30847600,$GNGGA,083407.60,3158.67000881,N,12054.58631696,E,1,25,0.8,10.5522,M,8.7158,M,,*7C
365951,126956000,$GNVTG,359.416,T,6.039,M,0.38165,N,0.70682,K,A*3F
366247,30847700,$GNGGA,083407.70,3158.67000707,N,12054.58631284,E,1,25,0.8,10.5527,M,8.7158,M,,*7E
366253,127358000,$GNVTG,357.938,T,4.561,M,0.37996,N,0.70369,K,A*31
366255,30847800,$GNGGA,083407.80,3158.67000091,N,12054.58631147,E,1,25,0.8,10.5620,M,8.7158,M,,*71
366257,126873000,$GNVTG,357.453,T,4.076,M,0.37375,N,0.69218,K,A*3A
366259,30847900,$GNGGA,083407.90,3158.67001056,N,12054.58631366,E,1,25,0.8,10.5474,M,8.7158,M,,*78
366260,126826000,$GNVTG,359.286,T,5.910,M,0.37809,N,0.70022,K,A*31
366266,30848000,$GNGGA,083408.00,3158.67000887,N,12054.58631288,E,1,25,0.8,10.5481,M,8.7158,M,,*70
366267,3962000,$GNVTG,0.662,T,7.285,M,0.38476,N,0.71258,K,A*30
366557,30848100,$GNGGA,083408.10,3158.67022579,N,12054.58639044,E,1,25,0.8,10.5417,M,8.7158,M,,*78
366561,8046000,$GNVTG,2.146,T,8.769,M,0.38077,N,0.70518,K,A*3C
366563,30848200,$GNGGA,083408.20,3158.67022343,N,12054.58639135,E,1,25,0.8,10.5458,M,8.7158,M,,*78
366564,11166000,$GNVTG,2.666,T,9.289,M,0.36741,N,0.68045,K,A*3B
366567,30848300,$GNGGA,083408.30,3158.67022210,N,12054.58638734,E,1,25,0.8,10.5452,M,8.7158,M,,*72
366569,4685000,$GNVTG,1.185,T,7.808,M,0.35677,N,0.66074,K,A*34
366857,30848400,$GNGGA,083408.40,3158.67022141,N,12054.58638816,E,1,25,0.8,10.5479,M,8.7158,M,,*74
366864,7446000,$GNVTG,1.646,T,8.270,M,0.35269,N,0.65319,K,A*36
366866,30848500,$GNGGA,083408.50,3158.67022211,N,12054.58638987,E,1,25,0.8,10.5465,M,8.7158,M,,*77
366867,12667000,$GNVTG,3.317,T,9.940,M,0.35431,N,0.65618,K,A*33
366869,30848600,$GNGGA,083408.60,3158.67022772,N,12054.58639167,E,1,25,0.8,10.5428,M,8.7158,M,,*7A
366874,19500000,$GNVTG,4.850,T,11.473,M,0.36479,N,0.67558,K,A*02
367164,30848700,$GNGGA,083408.70,3158.67022636,N,12054.58639340,E,1,25,0.8,10.5454,M,8.7158,M,,*76
367166,23762000,$GNVTG,6.362,T,12.986,M,0.37649,N,0.69725,K,A*08
367168,30848800,$GNGGA,083408.80,3158.67022444,N,12054.58639441,E,1,25,0.8,10.5479,M,8.7158,M,,*77
367170,28382000,$GNVTG,7.532,T,14.155,M,0.38471,N,0.71248,K,A*0B
367172,30848900,$GNGGA,083408.90,3158.67022088,N,12054.58639346,E,1,25,0.8,10.5494,M,8.7158,M,,*71
367176,30540000,$GNVTG,7.890,T,14.513,M,0.38834,N,0.71920,K,A*00
367471,30849000,$GNGGA,083409.00,3158.67022154,N,12054.58639507,E,1,25,0.8,10.5519,M,8.7158,M,,*7E
367473,29167000,$GNVTG,8.067,T,14.691,M,0.39040,N,0.72303,K,A*04
367475,30849100,$GNGGA,083409.10,3158.67040317,N,12054.58646008,E,1,24,0.9,10.5196,M,8.7158,M,,*7F
367477,32403000,$GNVTG,8.603,T,15.226,M,0.38973,N,0.72177,K,A*00
367479,30849200,$GNGGA,083409.20,3158.67040457,N,12054.58646354,E,1,24,0.9,10.5138,M,8.7158,M,,*71
367483,35102000,$GNVTG,9.452,T,16.075,M,0.39035,N,0.72293,K,A*03
367774,30849300,$GNGGA,083409.30,3158.67040258,N,12054.58646417,E,1,24,0.9,10.5128,M,8.7158,M,,*78
367776,36061000,$GNVTG,10.661,T,17.284,M,0.38940,N,0.72117,K,A*31
367778,30849400,$GNGGA,083409.40,3158.67040175,N,12054.58646550,E,1,24,0.9,10.5202,M,8.7158,M,,*7A
367780,39676000,$GNVTG,11.576,T,18.200,M,0.39554,N,0.73254,K,A*3B
367782,30849500,$GNGGA,083409.50,3158.67040184,N,12054.58646498,E,1,24,0.9,10.5209,M,8.7158,M,,*7B
367787,39662000,$GNVTG,11.762,T,18.385,M,0.40533,N,0.75067,K,A*3B
368075,30849600,$GNGGA,083409.60,3158.67039997,N,12054.58646431,E,1,24,0.9,10.5255,M,8.7158,M,,*76
368081,39619000,$GNVTG,11.419,T,18.042,M,0.41349,N,0.76578,K,A*3E
368083,30849700,$GNGGA,083409.70,3158.67040350,N,12054.58646749,E,1,24,0.9,10.5160,M,8.7158,M,,*71
368085,39650000,$GNVTG,11.250,T,17.874,M,0.42462,N,0.78639,K,A*32
368087,30849800,$GNGGA,083409.80,3158.67040089,N,12054.58646565,E,1,24,0.9,10.5212,M,8.7158,M,,*73
368092,39680000,$GNVTG,11.080,T,17.704,M,0.43294,N,0.80181,K,A*38
368381,30849900,$GNGGA,083409.90,3158.67039698,N,12054.58646725,E,1,24,0.9,10.5322,M,8.7158,M,,*7E
368383,39663000,$GNVTG,11.563,T,18.186,M,0.43686,N,0.80906,K,A*33
368385,30850000,$GNGGA,083410.00,3158.67039635,N,12054.58646745,E,1,24,0.9,10.5198,M,8.7158,M,,*7D
368387,39602000,$GNVTG,11.602,T,18.225,M,0.43163,N,0.79937,K,A*35
368389,30850100,$GNGGA,083410.10,3158.67052918,N,12054.58653222,E,1,24,0.9,10.4957,M,8.7158,M,,*7B
368393,39657000,$GNVTG,11.457,T,18.080,M,0.42777,N,0.79223,K,A*36
368687,30850200,$GNGGA,083410.20,3158.67052924,N,12054.58653547,E,1,24,0.9,10.4937,M,8.7158,M,,*75
368693,39664000,$GNVTG,11.064,T,17.687,M,0.42855,N,0.79368,K,A*3D
368695,30850300,$GNGGA,083410.30,3158.67053072,N,12054.58653778,E,1,24,0.9,10.4870,M,8.7158,M,,*73
368697,39619000,$GNVTG,11.519,T,18.142,M,0.43893,N,0.81289,K,A*31
368699,30850400,$GNGGA,083410.40,3158.67052690,N,12054.58654686,E,1,24,0.9,10.4950,M,8.7158,M,,*7B
368701,61246000,$GNVTG,17.446,T,24.070,M,0.44617,N,0.82630,K,A*33
368994,30850500,$GNGGA,083410.50,3158.67052922,N,12054.58656138,E,1,24,0.9,10.4950,M,8.7158,M,,*7C
368996,115251000,$GNVTG,32.651,T,39.274,M,0.47449,N,0.87875,K,A*3A
368998,30850600,$GNGGA,083410.60,3158.67052548,N,12054.58658454,E,1,24,0.9,10.5032,M,8.7158,M,,*72
368999,183642000,$GNVTG,51.642,T,58.265,M,0.57623,N,1.06717,K,A*36
369001,30850700,$GNGGA,083410.70,3158.67052631,N,12054.58661053,E,1,24,0.9,10.5027,M,8.7158,M,,*73
369003,230492000,$GNVTG,64.192,T,70.816,M,0.72536,N,1.34337,K,A*39
369297,30850800,$GNGGA,083410.80,3158.67051918,N,12054.58664915,E,1,24,0.9,10.4933,M,8.7158,M,,*78
369303,252060992,$GNVTG,70.061,T,76.684,M,0.82793,N,1.53333,K,A*35
369305,30850900,$GNGGA,083410.90,3158.67050250,N,12054.58669763,E,1,24,0.9,10.4664,M,8.7158,M,,*70
369307,273656000,$GNVTG,76.356,T,82.980,M,0.92869,N,1.71994,K,A*38
369309,30851000,$GNGGA,083411.00,3158.67047257,N,12054.58675985,E,1,24,0.9,10.4385,M,8.7158,M,,*78
369310,316860000,$GNVTG,88.560,T,95.184,M,1.08611,N,2.01147,K,A*31
369607,30851100,$GNGGA,083411.10,3158.67051602,N,12054.58687215,E,1,24,0.9,10.3896,M,8.7158,M,,*7B
369609,352888992,$GNVTG,98.189,T,104.812,M,1.20092,N,2.22410,K,A*0D
369611,30851200,$GNGGA,083411.20,3158.67050150,N,12054.58691118,E,1,24,0.9,10.3541,M,8.7158,M,,*77
369613,36284000,$GNVTG,101.224,T,107.848,M,1.21443,N,2.24912,K,A*34
369615,30851300,$GNGGA,083411.30,3158.67048823,N,12054.58694204,E,1,24,0.9,10.3539,M,8.7158,M,,*76
369616,356400992,$GNVTG,99.101,T,105.725,M,1.14594,N,2.12228,K,A*0C
369909,30851400,$GNGGA,083411.40,3158.67048281,N,12054.58696231,E,1,24,0.9,10.3568,M,8.7158,M,,*73
369915,309688992,$GNVTG,86.489,T,93.112,M,0.72504,N,1.34278,K,A*31
369917,30851500,$GNGGA,083411.50,3158.67047706,N,12054.58698156,E,1,24,0.9,10.3669,M,8.7158,M,,*79
369919,284449984,$GNVTG,79.950,T,86.574,M,0.60950,N,1.12879,K,A*39
369921,30851600,$GNGGA,083411.60,3158.67048076,N,12054.58700255,E,1,24,0.9,10.3791,M,8.7158,M,,*73
369923,252018000,$GNVTG,70.118,T,76.742,M,0.56642,N,1.04901,K,A*3C
370210,30851700,$GNGGA,083411.70,3158.67048819,N,12054.58701878,E,1,24,0.9,10.3858,M,8.7158,M,,*7D
370212,226827008,$GNVTG,63.527,T,70.150,M,0.62031,N,1.14882,K,A*3B
370214,30851800,$GNGGA,083411.80,3158.67049583,N,12054.58703340,E,1,24,0.9,10.3877,M,8.7158,M,,*72
370216,212472000,$GNVTG,59.572,T,66.196,M,0.65074,N,1.20516,K,A*3E
370218,30851900,$GNGGA,083411.90,3158.67049182,N,12054.58704135,E,1,24,0.9,10.3785,M,8.7158,M,,*73
370219,194412000,$GNVTG,54.812,T,61.436,M,0.54796,N,1.01483,K,A*37
370514,30852000,$GNGGA,083412.00,3158.67049504,N,12054.58704273,E,1,24,0.9,10.3812,M,8.7158,M,,*73
370520,162044000,$GNVTG,45.144,T,51.768,M,0.38505,N,0.71311,K,A*3E
370522,30852100,$GNGGA,083412.10,3158.67054582,N,12054.58714032,E,1,24,0.9,10.1929,M,8.7158,M,,*7D
370524,57644000,$GNVTG,16.744,T,23.369,M,0.21588,N,0.39981,K,A*3C
370526,30852200,$GNGGA,083412.20,3158.67053987,N,12054.58714103,E,1,24,0.9,10.1959,M,8.7158,M,,*74
370528,126632000,$GNVTG,354.392,T,1.016,M,0.14533,N,0.26915,K,A*38
370837,30852300,$GNGGA,083412.30,3158.67053927,N,12054.58713801,E,1,24,0.9,10.1978,M,8.7158,M,,*70
370839,123084000,$GNVTG,346.324,T,352.949,M,0.12254,N,0.22694,K,A*32
370841,30852400,$GNGGA,083412.40,3158.67053465,N,12054.58713806,E,1,24,0.9,10.1994,M,8.7158,M,,*79
370843,126451000,$GNVTG,353.271,T,359.895,M,0.12155,N,0.22510,K,A*31
370845,30852500,$GNGGA,083412.50,3158.67053610,N,12054.58713718,E,1,24,0.9,10.2022,M,8.7158,M,,*7F
370847,20701000,$GNVTG,5.451,T,12.075,M,0.14829,N,0.27464,K,A*0C
371142,30852600,$GNGGA,083412.60,3158.67053294,N,12054.58714230,E,1,24,0.9,10.2070,M,8.7158,M,,*7B
371148,46880000,$GNVTG,13.180,T,19.804,M,0.18231,N,0.33763,K,A*39
371150,30852700,$GNGGA,083412.70,3158.67053587,N,12054.58714740,E,1,24,0.9,10.2068,M,8.7158,M,,*74
371152,72011000,$GNVTG,20.411,T,27.036,M,0.24259,N,0.44928,K,A*30
371154,30852800,$GNGGA,083412.80,3158.67053470,N,12054.58716183,E,1,24,0.9,10.2022,M,8.7158,M,,*77
371156,104429000,$GNVTG,29.329,T,35.953,M,0.30444,N,0.56382,K,A*3A
371161,30852900,$GNGGA,083412.90,3158.67052872,N,12054.58718582,E,1,24,0.9,10.2208,M,8.7158,M,,*78
371163,140472000,$GNVTG,39.672,T,46.296,M,0.37251,N,0.68990,K,A*37
371445,30853000,$GNGGA,083413.00,3158.67052513,N,12054.58721597,E,1,24,0.9,10.2007,M,8.7158,M,,*79
371447,180011008,$GNVTG,50.211,T,56.835,M,0.46489,N,0.86098,K,A*3F
371449,30853100,$GNGGA,083413.10,3158.67057989,N,12054.58739834,E,1,24,0.9,10.0312,M,8.7158,M,,*7A
371450,212423008,$GNVTG,59.723,T,66.347,M,0.55690,N,1.03138,K,A*30
371751,30853200,$GNGGA,083413.20,3158.67056610,N,12054.58743049,E,1,24,0.9,10.0272,M,8.7158,M,,*7F
371757,230404000,$GNVTG,64.604,T,71.229,M,0.62415,N,1.15593,K,A*3C
371759,30853300,$GNGGA,083413.30,3158.67054691,N,12054.58746882,E,1,24,0.9,10.0116,M,8.7158,M,,*7E
371761,252044992,$GNVTG,70.245,T,76.870,M,0.66216,N,1.22632,K,A*34
371763,30853400,$GNGGA,083413.40,3158.67051662,N,12054.58752414,E,1,24,0.9,10.0495,M,8.7158,M,,*78
371765,277299008,$GNVTG,77.999,T,84.624,M,0.76214,N,1.41149,K,A*36
371770,30853500,$GNGGA,083413.50,3158.67050102,N,12054.58758495,E,1,24,0.9,9.9587,M,8.7158,M,,*49
371771,313239008,$GNVTG,87.039,T,93.664,M,0.92939,N,1.72123,K,A*3A
372081,30853600,$GNGGA,083413.60,3158.67047004,N,12054.58764016,E,1,24,0.9,9.9658,M,8.7159,M,,*4B
372083,338400992,$GNVTG,94.201,T,100.826,M,1.05947,N,1.96214,K,A*09
372085,30853700,$GNGGA,083413.70,3158.67044852,N,12054.58767637,E,1,24,0.9,9.9957,M,8.7159,M,,*44
372087,345663008,$GNVTG,96.063,T,102.688,M,1.09965,N,2.03655,K,A*07
372092,30853800,$GNGGA,083413.80,3158.67043777,N,12054.58770950,E,1,24,0.9,10.0213,M,8.7159,M,,*76
372093,342094016,$GNVTG,95.294,T,101.919,M,1.08920,N,2.01720,K,A*0B
372384,30853900,$GNGGA,083413.90,3158.67042863,N,12054.58773485,E,1,24,0.9,10.0574,M,8.7159,M,,*7C
372386,331291008,$GNVTG,92.091,T,98.716,M,1.02726,N,1.90249,K,A*38
372388,30854000,$GNGGA,083414.00,3158.67042796,N,12054.58776132,E,1,24,0.9,10.0553,M,8.7159,M,,*7E
372390,309656000,$GNVTG,86.556,T,93.181,M,0.94743,N,1.75464,K,A*3F
372395,30854100,$GNGGA,083414.10,3158.67063495,N,12054.58771019,E,1,24,0.9,9.7965,M,8.7159,M,,*45
372397,288032000,$GNVTG,80.132,T,86.757,M,0.89791,N,1.66292,K,A*38
372707,30854200,$GNGGA,083414.20,3158.67064764,N,12054.58772338,E,1,24,0.9,9.7833,M,8.7159,M,,*4D
372709,270043008,$GNVTG,75.843,T,82.469,M,0.85637,N,1.58600,K,A*34
372711,30854300,$GNGGA,083414.30,3158.67066409,N,12054.58775043,E,1,24,0.9,9.7430,M,8.7159,M,,*41
372713,259224992,$GNVTG,72.825,T,79.451,M,0.83791,N,1.55182,K,A*37
372715,30854400,$GNGGA,083414.40,3158.67066367,N,12054.58776862,E,1,24,0.9,9.7368,M,8.7159,M,,*4B
372719,252030000,$GNVTG,70.830,T,77.456,M,0.81164,N,1.50316,K,A*3C
373013,30854500,$GNGGA,083414.50,3158.67067039,N,12054.58777575,E,1,24,0.9,9.7675,M,8.7159,M,,*40
373020,248436000,$GNVTG,69.436,T,76.061,M,0.77777,N,1.44042,K,A*35
373022,30854600,$GNGGA,083414.60,3158.67066716,N,12054.58778265,E,1,24,0.9,9.7808,M,8.7159,M,,*45
373024,248410000,$GNVTG,69.310,T,75.936,M,0.72068,N,1.33471,K,A*36
373026,30854700,$GNGGA,083414.70,3158.67066239,N,12054.58778385,E,1,24,0.9,9.7879,M,8.7159,M,,*45
373030,255648000,$GNVTG,71.148,T,77.773,M,0.63625,N,1.17833,K,A*3E
373321,30854800,$GNGGA,083414.80,3158.67065206,N,12054.58778894,E,1,24,0.9,9.7837,M,8.7159,M,,*44
373322,270036992,$GNVTG,75.737,T,82.363,M,0.55164,N,1.02163,K,A*34
373325,30854900,$GNGGA,083414.90,3158.67064785,N,12054.58778816,E,1,24,0.9,9.7849,M,8.7159,M,,*49
373326,291688992,$GNVTG,81.189,T,87.815,M,0.47144,N,0.87310,K,A*38
373328,30855000,$GNGGA,083415.00,3158.67064746,N,12054.58779474,E,1,24,0.9,9.7734,M,8.7159,M,,*42
373333,302454016,$GNVTG,84.754,T,91.379,M,0.41289,N,0.76467,K,A*30
373627,30855100,$GNGGA,083415.10,3158.67063970,N,12054.58779515,E,1,20,1.0,9.7721,M,8.7159,M,,*41
373633,316872992,$GNVTG,88.073,T,94.698,M,0.35982,N,0.66639,K,A*3A
373635,30855200,$GNGGA,083415.20,3158.67062934,N,12054.58779451,E,1,20,1.0,9.7601,M,8.7159,M,,*41
373637,342028000,$GNVTG,95.028,T,101.653,M,0.30438,N,0.56371,K,A*01
373639,30855300,$GNGGA,083415.30,3158.67061545,N,12054.58779744,E,1,20,1.0,9.7558,M,8.7159,M,,*41
373644,37164000,$GNVTG,106.804,T,113.430,M,0.26599,N,0.49260,K,A*3A
373935,30855400,$GNGGA,083415.40,3158.67059778,N,12054.58781267,E,1,20,1.0,9.7572,M,8.7159,M,,*4A
