timestamp,nmea
786239,$GNGGA,082712.70,3158.66920431,N,12054.58217705,E,4,34,0.7,6.0999,M,8.7156,M,0.7,0*5E
786240,$GNVTG,72.129,T,78.764,M,0.01183,N,0.02191,K,D*3D
786243,$GNGGA,082712.80,3158.66920432,N,12054.58217793,E,4,34,0.7,6.0976,M,8.7156,M,0.8,0*53
786244,$GNVTG,89.280,T,95.915,M,0.01237,N,0.02290,K,D*3C
786246,$GNGGA,082712.90,3158.66920437,N,12054.58217595,E,4,34,0.7,6.1007,M,8.7156,M,0.9,0*5C
786248,$GNVTG,28.917,T,35.552,M,0.00829,N,0.01536,K,D*3B
786250,$GNGGA,082713.00,3158.66920588,N,12054.58217035,E,4,34,0.7,6.0927,M,8.7156,M,1.0,0*5C
786254,$GNVTG,310.290,T,316.925,M,0.02409,N,0.04462,K,D*30
786256,$GNGGA,082713.10,3158.66921120,N,12054.58216593,E,4,34,0.7,6.0931,M,8.7156,M,1.1,0*54
786258,$GNVTG,317.993,T,324.628,M,0.07611,N,0.14095,K,D*3F
786260,$GNGGA,082713.20,3158.66921717,N,12054.58216393,E,4,34,0.7,6.0990,M,8.7156,M,1.2,0*5B
786262,$GNVTG,333.046,T,339.681,M,0.16577,N,0.30701,K,D*38
786264,$GNGGA,082713.30,3158.66922260,N,12054.58216669,E,4,34,0.7,6.1060,M,8.7156,M,1.3,0*5A
786265,$GNVTG,343.036,T,349.671,M,0.22501,N,0.41672,K,D*35
786271,$GNGGA,082713.40,3158.66922406,N,12054.58216517,E,4,34,0.7,6.1179,M,8.7156,M,0.4,0*5E
786272,$GNVTG,349.134,T,355.769,M,0.22314,N,0.41326,K,D*3F
786274,$GNGGA,082713.50,3158.66922653,N,12054.58216399,E,4,34,0.7,6.1270,M,8.7156,M,0.5,0*56
786276,$GNVTG,352.951,T,359.586,M,0.19113,N,0.35397,K,D*35
786278,$GNGGA,082713.60,3158.66922734,N,12054.58216243,E,4,34,0.7,6.1247,M,8.7156,M,0.6,0*54
786280,$GNVTG,328.942,T,335.577,M,0.08356,N,0.15475,K,D*34
786282,$GNGGA,082713.70,3158.66922725,N,12054.58216113,E,4,34,0.7,6.1238,M,8.7156,M,0.7,0*5A
786286,$GNVTG,290.617,T,297.252,M,0.07253,N,0.13433,K,D*3F
786288,$GNGGA,082713.80,3158.66922721,N,12054.58216213,E,4,33,0.7,6.1136,M,8.7156,M,0.8,0*57
786290,$GNVTG,261.437,T,268.072,M,0.05466,N,0.10123,K,D*34
786292,$GNGGA,082713.90,3158.66922537,N,12054.58215829,E,4,33,0.7,6.1149,M,8.7156,M,0.9,0*5A
786294,$GNVTG,239.798,T,246.433,M,0.06860,N,0.12704,K,D*3A
786296,$GNGGA,082714.00,3158.66922422,N,12054.58215857,E,4,33,0.7,6.1090,M,8.7156,M,1.0,0*55
786300,$GNVTG,237.404,T,244.039,M,0.04767,N,0.08828,K,D*3E
786303,$GNGGA,082714.10,3158.66922207,N,12054.58215647,E,4,33,0.7,6.0974,M,8.7156,M,1.1,0*59
786304,$GNVTG,217.671,T,224.307,M,0.06826,N,0.12643,K,D*34
786306,$GNGGA,082714.20,3158.66921577,N,12054.58215548,E,4,33,0.7,6.0943,M,8.7156,M,1.2,0*52
786308,$GNVTG,201.898,T,208.533,M,0.09808,N,0.18165,K,D*3F
786310,$GNGGA,082714.30,3158.66921143,N,12054.58215355,E,4,33,0.7,6.0863,M,8.7156,M,1.3,0*58
786312,$GNVTG,194.067,T,200.702,M,0.13041,N,0.24152,K,D*35
786317,$GNGGA,082714.40,3158.66921906,N,12054.58215573,E,4,33,0.7,6.0665,M,8.7156,M,0.4,0*5A
786318,$GNVTG,195.193,T,201.828,M,0.09065,N,0.16788,K,D*35
786541,$GNGGA,082714.50,3158.66923128,N,12054.58215480,E,4,33,0.7,6.0540,M,8.7156,M,0.5,0*55
786543,$GNVTG,341.373,T,348.008,M,0.13766,N,0.25495,K,D*34
786545,$GNGGA,082714.60,3158.66925301,N,12054.58215803,E,4,33,0.7,6.0472,M,8.7156,M,0.6,0*5D
786546,$GNVTG,357.801,T,4.436,M,0.57500,N,1.06491,K,D*39
786843,$GNGGA,082714.70,3158.66927561,N,12054.58215746,E,4,32,0.7,6.0400,M,8.7156,M,0.7,0*55
786845,$GNVTG,358.691,T,5.326,M,0.83981,N,1.55533,K,D*35
786847,$GNGGA,082714.80,3158.66930044,N,12054.58215698,E,4,32,0.7,6.0160,M,8.7156,M,0.8,0*50
786848,$GNVTG,351.894,T,358.529,M,0.92855,N,1.71968,K,D*39
786850,$GNGGA,082714.90,3158.66933449,N,12054.58215609,E,4,32,0.7,5.9869,M,8.7156,M,0.9,0*58
786852,$GNVTG,348.091,T,354.726,M,0.99690,N,1.84625,K,D*3D
787148,$GNGGA,082715.00,3158.66937198,N,12054.58214024,E,4,31,0.8,5.9816,M,8.7156,M,1.0,0*59
787152,$GNVTG,344.762,T,351.397,M,1.12191,N,2.07778,K,D*34
787154,$GNGGA,082715.10,3158.66942109,N,12054.58213003,E,4,31,0.8,5.9708,M,8.7155,M,1.1,0*52
787155,$GNVTG,342.421,T,349.056,M,1.50174,N,2.78122,K,D*3D
787157,$GNGGA,082715.20,3158.66946229,N,12054.58211902,E,4,31,0.8,5.9802,M,8.7155,M,1.2,0*58
787159,$GNVTG,346.889,T,353.524,M,1.73875,N,3.22016,K,D*3D
787451,$GNGGA,082715.30,3158.66949008,N,12054.58211456,E,4,31,0.8,6.0135,M,8.7155,M,1.3,0*5D
787453,$GNVTG,2.220,T,8.855,M,1.46613,N,2.71527,K,D*39
787458,$GNGGA,082715.40,3158.66950280,N,12054.58212296,E,4,31,0.8,6.0561,M,8.7155,M,0.4,0*5A
787459,$GNVTG,27.396,T,34.031,M,0.97473,N,1.80520,K,D*34
787461,$GNGGA,082715.50,3158.66951134,N,12054.58213378,E,4,31,0.8,6.1001,M,8.7155,M,0.5,0*55
787463,$GNVTG,57.519,T,64.154,M,0.62338,N,1.15450,K,D*3D
787758,$GNGGA,082715.60,3158.66951720,N,12054.58215595,E,4,31,0.8,6.1242,M,8.7156,M,0.6,0*53
787760,$GNVTG,74.488,T,81.123,M,0.46862,N,0.86789,K,D*30
787762,$GNGGA,082715.70,3158.66952156,N,12054.58216926,E,4,31,0.8,6.1499,M,8.7156,M,0.7,0*50
787767,$GNVTG,76.715,T,83.350,M,0.39254,N,0.72698,K,D*3C
787769,$GNGGA,082715.80,3158.66952035,N,12054.58218893,E,4,31,0.8,6.1574,M,8.7156,M,0.8,0*57
787771,$GNVTG,84.408,T,91.043,M,0.37383,N,0.69233,K,D*36
788063,$GNGGA,082715.90,3158.66951293,N,12054.58220892,E,4,31,0.8,6.1626,M,8.7156,M,0.9,0*54
788065,$GNVTG,108.083,T,114.718,M,0.49899,N,0.92413,K,D*38
788067,$GNGGA,082716.00,3158.66949945,N,12054.58221764,E,4,31,0.8,6.1710,M,8.7156,M,1.0,0*5C
788072,$GNVTG,126.586,T,133.221,M,0.66868,N,1.23840,K,D*3C
788074,$GNGGA,082716.10,3158.66949011,N,12054.58223580,E,4,33,0.7,6.1608,M,8.7156,M,1.1,0*5B
788076,$GNVTG,129.736,T,136.370,M,0.72474,N,1.34222,K,D*36
788367,$GNGGA,082716.20,3158.66948223,N,12054.58225395,E,4,33,0.7,6.1582,M,8.7156,M,1.2,0*5C
788369,$GNVTG,127.604,T,134.239,M,0.74291,N,1.37587,K,D*36
788371,$GNGGA,082716.30,3158.66947815,N,12054.58228026,E,4,33,0.7,6.1564,M,8.7156,M,1.3,0*52
788373,$GNVTG,115.656,T,122.290,M,0.72904,N,1.35018,K,D*34
788378,$GNGGA,082716.40,3158.66948070,N,12054.58230861,E,4,33,0.7,6.1784,M,8.7156,M,0.4,0*59
788380,$GNVTG,88.398,T,95.033,M,0.75330,N,1.39511,K,D*3A
788669,$GNGGA,082716.50,3158.66949842,N,12054.58233622,E,4,33,0.7,6.1820,M,8.7156,M,0.5,0*5A
788671,$GNVTG,62.942,T,69.577,M,0.95596,N,1.77043,K,D*39
788673,$GNGGA,082716.60,3158.66952600,N,12054.58236560,E,4,33,0.7,6.1837,M,8.7156,M,0.6,0*5E
788675,$GNVTG,43.556,T,50.190,M,1.17250,N,2.17147,K,D*32
788677,$GNGGA,082716.70,3158.66955188,N,12054.58238632,E,4,33,0.7,6.1704,M,8.7156,M,0.7,0*5B
788681,$GNVTG,31.492,T,38.127,M,1.23506,N,2.28734,K,D*31
788997,$GNGGA,082716.80,3158.66957397,N,12054.58239851,E,4,33,0.7,6.1696,M,8.7156,M,0.8,0*55
788998,$GNVTG,22.336,T,28.970,M,1.07680,N,1.99423,K,D*36
789001,$GNGGA,082716.90,3158.66959033,N,12054.58240373,E,4,33,0.7,6.1726,M,8.7156,M,0.9,0*59
789002,$GNVTG,17.766,T,24.401,M,0.79042,N,1.46386,K,D*3C
789004,$GNGGA,082717.00,3158.66959786,N,12054.58239758,E,4,33,0.7,6.1803,M,8.7156,M,1.0,0*5B
789009,$GNVTG,7.582,T,14.217,M,0.44771,N,0.82915,K,D*07
789299,$GNGGA,082717.10,3158.66960187,N,12054.58238070,E,4,33,0.7,6.1810,M,8.7156,M,1.1,0*58
789301,$GNVTG,296.874,T,303.509,M,0.28852,N,0.53434,K,D*32
789303,$GNGGA,082717.20,3158.66960612,N,12054.58235782,E,4,33,0.7,6.1788,M,8.7156,M,1.2,0*5A
789304,$GNVTG,276.146,T,282.780,M,0.56610,N,1.04842,K,D*30
789306,$GNGGA,082717.30,3158.66960593,N,12054.58233746,E,4,33,0.7,6.1818,M,8.7156,M,1.3,0*58
789308,$GNVTG,275.589,T,282.224,M,0.65546,N,1.21392,K,D*3E
789600,$GNGGA,082717.40,3158.66960882,N,12054.58231679,E,4,33,0.7,6.1876,M,8.7156,M,0.4,0*53
789601,$GNVTG,283.783,T,290.418,M,0.67321,N,1.24678,K,D*34
789604,$GNGGA,082717.50,3158.66961931,N,12054.58230276,E,4,33,0.7,6.1802,M,8.7156,M,0.5,0*52
789605,$GNVTG,296.294,T,302.929,M,0.57111,N,1.05769,K,D*36
789607,$GNGGA,082717.60,3158.66963229,N,12054.58229569,E,4,32,0.7,6.1686,M,8.7156,M,0.6,0*50
789609,$GNVTG,310.114,T,316.749,M,0.52722,N,0.97641,K,D*3D
789902,$GNGGA,082717.70,3158.66964655,N,12054.58227627,E,4,32,0.7,6.1798,M,8.7156,M,0.7,0*51
789907,$GNVTG,321.367,T,328.002,M,0.57169,N,1.05876,K,D*30
789909,$GNGGA,082717.80,3158.66965788,N,12054.58226427,E,4,32,0.7,6.1716,M,8.7156,M,0.8,0*54
789910,$GNVTG,320.897,T,327.531,M,0.61603,N,1.14088,K,D*38
789913,$GNGGA,082717.90,3158.66967513,N,12054.58224640,E,4,31,0.8,6.1785,M,8.7156,M,0.9,0*51
789914,$GNVTG,318.263,T,324.898,M,0.65735,N,1.21741,K,D*3B
789916,$GNGGA,082718.00,3158.66969114,N,12054.58222475,E,4,31,0.8,6.1878,M,8.7156,M,1.0,0*5D
789921,$GNVTG,317.243,T,323.878,M,0.75053,N,1.38997,K,D*34
790220,$GNGGA,082718.10,3158.66970582,N,12054.58220855,E,4,31,0.8,6.1896,M,8.7156,M,1.1,0*52
790222,$GNVTG,315.638,T,322.272,M,0.75985,N,1.40723,K,D*33
790224,$GNGGA,082718.20,3158.66971589,N,12054.58218972,E,4,31,0.8,6.1780,M,8.7156,M,1.2,0*5F
790226,$GNVTG,312.196,T,318.831,M,0.74298,N,1.37600,K,D*35
790228,$GNGGA,082718.30,3158.66972387,N,12054.58217130,E,4,31,0.8,6.1777,M,8.7156,M,1.3,0*5D
790230,$GNVTG,302.738,T,309.373,M,0.67239,N,1.24527,K,D*36
790525,$GNGGA,082718.40,3158.66972725,N,12054.58215897,E,4,31,0.8,6.1881,M,8.7156,M,0.4,0*50
790527,$GNVTG,289.480,T,296.115,M,0.55805,N,1.03351,K,D*37
790529,$GNGGA,082718.50,3158.66972961,N,12054.58215473,E,4,31,0.8,6.1760,M,8.7156,M,0.5,0*58
790530,$GNVTG,271.636,T,278.270,M,0.29479,N,0.54595,K,D*3E
790532,$GNGGA,082718.60,3158.66972352,N,12054.58214532,E,4,31,0.8,6.1905,M,8.7156,M,0.6,0*5A
790534,$GNVTG,224.000,T,230.635,M,0.20296,N,0.37589,K,D*32
790833,$GNGGA,082718.70,3158.66971900,N,12054.58213997,E,4,31,0.8,6.1788,M,8.7156,M,0.7,0*5B
790838,$GNVTG,201.254,T,207.888,M,0.23171,N,0.42912,K,D*3F
790840,$GNGGA,082718.80,3158.66970628,N,12054.58213765,E,4,31,0.8,6.1844,M,8.7155,M,0.8,0*50
790841,$GNVTG,198.560,T,205.195,M,0.31760,N,0.58819,K,D*3F
790844,$GNGGA,082718.90,3158.66968403,N,12054.58213401,E,4,31,0.8,6.1867,M,8.7155,M,0.9,0*52
790845,$GNVTG,191.581,T,198.216,M,0.52253,N,0.96773,K,D*37
791136,$GNGGA,082719.00,3158.66965590,N,12054.58213175,E,4,31,0.8,6.1984,M,8.7155,M,1.0,0*5E
791141,$GNVTG,181.259,T,187.894,M,0.84299,N,1.56122,K,D*38
791143,$GNGGA,082719.10,3158.66962235,N,12054.58213647,E,4,33,0.7,6.2026,M,8.7155,M,1.1,0*58
791145,$GNVTG,168.122,T,174.757,M,1.16474,N,2.15711,K,D*31
791147,$GNGGA,082719.20,3158.66958715,N,12054.58215040,E,4,33,0.7,6.1975,M,8.7156,M,1.2,0*5E
791148,$GNVTG,164.747,T,171.382,M,1.33714,N,2.47638,K,D*3E
791453,$GNGGA,082719.30,3158.66954722,N,12054.58216137,E,4,33,0.7,6.1822,M,8.7156,M,1.3,0*57
791455,$GNVTG,165.880,T,172.515,M,1.45285,N,2.69069,K,D*32
791460,$GNGGA,082719.40,3158.66950282,N,12054.58216645,E,4,33,0.7,6.1724,M,8.7156,M,0.4,0*56
791462,$GNVTG,166.836,T,173.471,M,1.54717,N,2.86536,K,D*3E
791464,$GNGGA,082719.50,3158.66946506,N,12054.58217546,E,4,33,0.7,6.1721,M,8.7156,M,0.5,0*5E
791466,$GNVTG,169.353,T,175.988,M,1.52753,N,2.82898,K,D*3F
791755,$GNGGA,082719.60,3158.66943385,N,12054.58217631,E,4,33,0.7,6.1607,M,8.7156,M,0.6,0*50
791757,$GNVTG,175.774,T,182.409,M,1.27644,N,2.36396,K,D*30
791759,$GNGGA,082719.70,3158.66940832,N,12054.58217552,E,4,33,0.7,6.1530,M,8.7156,M,0.7,0*55
791763,$GNVTG,184.102,T,190.736,M,0.95816,N,1.77451,K,D*3E
791766,$GNGGA,082719.80,3158.66938316,N,12054.58216084,E,4,33,0.7,6.1788,M,8.7156,M,0.8,0*59
791767,$GNVTG,190.095,T,196.729,M,0.75822,N,1.40423,K,D*34
792063,$GNGGA,082719.90,3158.66936038,N,12054.58215168,E,4,33,0.7,6.1549,M,8.7156,M,0.9,0*57
792065,$GNVTG,197.791,T,204.426,M,0.77062,N,1.42718,K,D*33
792067,$GNGGA,082720.00,3158.66933131,N,12054.58213932,E,4,33,0.7,6.1122,M,8.7156,M,1.0,0*59
792071,$GNVTG,203.818,T,210.453,M,1.08344,N,2.00653,K,D*31
792074,$GNGGA,082720.10,3158.66930394,N,12054.58212315,E,4,33,0.7,6.0645,M,8.7155,M,1.1,0*5D
792075,$GNVTG,206.646,T,213.281,M,1.22860,N,2.27537,K,D*3A
792364,$GNGGA,082720.20,3158.66927548,N,12054.58209821,E,4,33,0.7,6.0203,M,8.7155,M,1.2,0*5C
792366,$GNVTG,213.796,T,220.431,M,1.32071,N,2.44595,K,D*3B
792368,$GNGGA,082720.30,3158.66925470,N,12054.58207177,E,4,33,0.7,6.0155,M,8.7155,M,1.3,0*50
792369,$GNVTG,225.751,T,232.386,M,1.10829,N,2.05256,K,D*35
792375,$GNGGA,082720.40,3158.66923704,N,12054.58204716,E,4,33,0.7,6.0365,M,8.7155,M,0.4,0*54
792376,$GNVTG,229.838,T,236.473,M,0.65416,N,1.21151,K,D*32
792669,$GNGGA,082720.50,3158.66922372,N,12054.58204603,E,4,32,0.7,6.0425,M,8.7155,M,0.5,0*57
792671,$GNVTG,203.864,T,210.499,M,0.39958,N,0.74002,K,D*3B
792673,$GNGGA,082720.60,3158.66920741,N,12054.58204569,E,4,32,0.7,6.0385,M,8.7155,M,0.6,0*53
792675,$GNVTG,165.391,T,172.027,M,0.47963,N,0.88828,K,D*3D
792677,$GNGGA,082720.70,3158.66919348,N,12054.58205122,E,4,32,0.7,6.0102,M,8.7155,M,0.7,0*53
792681,$GNVTG,161.761,T,168.396,M,0.56410,N,1.04471,K,D*3C
792971,$GNGGA,082720.80,3158.66918137,N,12054.58206799,E,4,32,0.7,6.0154,M,8.7155,M,0.8,0*5E
792973,$GNVTG,147.866,T,154.501,M,0.59261,N,1.09752,K,D*37
792975,$GNGGA,082720.90,3158.66917075,N,12054.58209681,E,4,32,0.7,6.0193,M,8.7155,M,0.9,0*5A
792977,$GNVTG,122.248,T,128.883,M,0.83198,N,1.54083,K,D*3F
792979,$GNGGA,082721.00,3158.66916367,N,12054.58213194,E,4,32,0.7,6.0176,M,8.7155,M,1.0,0*58
792983,$GNVTG,110.528,T,117.163,M,1.13744,N,2.10654,K,D*34
793275,$GNGGA,082721.10,3158.66916347,N,12054.58217363,E,4,32,0.7,6.0178,M,8.7156,M,1.1,0*59
793277,$GNVTG,97.141,T,103.777,M,1.35018,N,2.50053,K,D*08
793279,$GNGGA,082721.20,3158.66917001,N,12054.58222388,E,4,32,0.7,6.0389,M,8.7156,M,1.2,0*56
793281,$GNVTG,77.318,T,83.953,M,1.60077,N,2.96463,K,D*3D
793283,$GNGGA,082721.30,3158.66918317,N,12054.58228742,E,4,32,0.7,6.0426,M,8.7156,M,1.3,0*57
793284,$GNVTG,75.757,T,82.392,M,1.79724,N,3.32849,K,D*34
793577,$GNGGA,082721.40,3158.66920269,N,12054.58237510,E,4,32,0.7,6.0162,M,8.7156,M,0.4,0*5B
793579,$GNVTG,74.140,T,80.775,M,2.28745,N,4.23635,K,D*38
793581,$GNGGA,082721.50,3158.66922338,N,12054.58245740,E,4,32,0.7,6.0100,M,8.7156,M,0.5,0*5A
793582,$GNVTG,73.865,T,80.500,M,2.60969,N,4.83316,K,D*33
793584,$GNGGA,082721.60,3158.66923684,N,12054.58253144,E,4,32,0.7,6.0145,M,8.7156,M,0.6,0*5D
793586,$GNVTG,75.285,T,81.920,M,2.66414,N,4.93398,K,D*38
793882,$GNGGA,082721.70,3158.66924428,N,12054.58258886,E,4,32,0.7,6.0298,M,8.7156,M,0.7,0*51
793887,$GNVTG,77.462,T,84.098,M,2.20848,N,4.09011,K,D*3C
793889,$GNGGA,082721.80,3158.66924153,N,12054.58263114,E,4,32,0.7,6.0502,M,8.7156,M,0.8,0*56
793891,$GNVTG,87.060,T,93.695,M,1.44323,N,2.67286,K,D*3D
793893,$GNGGA,082721.90,3158.66923387,N,12054.58265909,E,4,32,0.7,6.0764,M,8.7156,M,0.9,0*5A
793895,$GNVTG,109.745,T,116.380,M,0.94432,N,1.74887,K,D*36
794182,$GNGGA,082722.00,3158.66922350,N,12054.58268844,E,4,32,0.7,6.0729,M,8.7156,M,1.0,0*5F
794187,$GNVTG,137.178,T,143.813,M,0.79382,N,1.47016,K,D*3D
794189,$GNGGA,082722.10,3158.66920917,N,12054.58270092,E,4,33,0.7,6.0548,M,8.7156,M,1.1,0*5A
794190,$GNVTG,156.551,T,163.186,M,0.68416,N,1.26706,K,D*39
794192,$GNGGA,082722.20,3158.66919749,N,12054.58271726,E,4,33,0.7,6.0385,M,8.7156,M,1.2,0*5B
794194,$GNVTG,159.321,T,165.956,M,0.61203,N,1.13348,K,D*37
794505,$GNGGA,082722.30,3158.66919032,N,12054.58273155,E,4,33,0.7,6.0221,M,8.7156,M,1.3,0*5F
794507,$GNVTG,149.092,T,155.728,M,0.45875,N,0.84961,K,D*3A
794512,$GNGGA,082722.40,3158.66918417,N,12054.58272811,E,4,33,0.7,6.0396,M,8.7156,M,0.4,0*59
794514,$GNVTG,123.050,T,129.685,M,0.31480,N,0.58301,K,D*3D
794516,$GNGGA,082722.50,3158.66918345,N,12054.58273439,E,4,33,0.7,6.0524,M,8.7156,M,0.5,0*51
794518,$GNVTG,79.225,T,85.860,M,0.25431,N,0.47099,K,D*32
794520,$GNGGA,082722.60,3158.66918526,N,12054.58273956,E,4,33,0.7,6.0445,M,8.7156,M,0.6,0*50
794521,$GNVTG,65.234,T,71.869,M,0.22062,N,0.40860,K,D*31
794808,$GNGGA,082722.70,3158.66918787,N,12054.58274484,E,4,33,0.7,6.0457,M,8.7156,M,0.7,0*5F
794813,$GNVTG,50.696,T,57.331,M,0.16460,N,0.30483,K,D*3E
794815,$GNGGA,082722.80,3158.66918961,N,12054.58274966,E,4,33,0.7,6.0452,M,8.7156,M,0.8,0*5D
794817,$GNVTG,57.182,T,63.817,M,0.15217,N,0.28182,K,D*3B
794819,$GNGGA,082722.90,3158.66919077,N,12054.58275490,E,4,33,0.7,6.0512,M,8.7156,M,0.9,0*52
794820,$GNVTG,66.355,T,72.990,M,0.14992,N,0.27765,K,D*38
795134,$GNGGA,082723.00,3158.66919124,N,12054.58275946,E,4,33,0.7,6.0522,M,8.7156,M,1.0,0*50
795139,$GNVTG,77.249,T,83.885,M,0.16303,N,0.30193,K,D*36
795141,$GNGGA,082723.10,3158.66919006,N,12054.58276209,E,4,34,0.7,6.0523,M,8.7156,M,1.1,0*54
795143,$GNVTG,86.410,T,93.045,M,0.14445,N,0.26752,K,D*3C
795145,$GNGGA,082723.20,3158.66918756,N,12054.58276363,E,4,34,0.7,6.0571,M,8.7156,M,1.2,0*5D
795147,$GNVTG,140.540,T,147.175,M,0.10226,N,0.18939,K,D*30
795440,$GNGGA,082723.30,3158.66918578,N,12054.58276515,E,4,34,0.7,6.0602,M,8.7156,M,1.3,0*53
795442,$GNVTG,154.122,T,160.757,M,0.10090,N,0.18687,K,D*33
795447,$GNGGA,082723.40,3158.66918395,N,12054.58277194,E,4,34,0.7,6.0675,M,8.7156,M,0.4,0*5B
795449,$GNVTG,122.627,T,129.262,M,0.15739,N,0.29148,K,D*39
795451,$GNGGA,082723.50,3158.66917981,N,12054.58278577,E,4,34,0.7,6.0748,M,8.7156,M,0.5,0*52
795452,$GNVTG,102.878,T,109.513,M,0.32950,N,0.61022,K,D*39
795744,$GNGGA,082723.60,3158.66918226,N,12054.58280750,E,4,34,0.7,6.0642,M,8.7156,M,0.6,0*50
795746,$GNVTG,90.884,T,97.519,M,0.55856,N,1.03445,K,D*3A
795748,$GNGGA,082723.70,3158.66918995,N,12054.58283892,E,4,34,0.7,6.0671,M,8.7156,M,0.7,0*51
795753,$GNVTG,78.609,T,85.244,M,0.92027,N,1.70434,K,D*3C
795755,$GNGGA,082723.80,3158.66920559,N,12054.58289242,E,4,34,0.7,6.0636,M,8.7156,M,0.8,0*58
795756,$GNVTG,72.606,T,79.241,M,1.61183,N,2.98511,K,D*3E
796052,$GNGGA,082723.90,3158.66922593,N,12054.58295367,E,4,33,0.7,6.0395,M,8.7156,M,0.9,0*5C
796053,$GNVTG,72.325,T,78.960,M,2.08134,N,3.85464,K,D*3D
796056,$GNGGA,082724.00,3158.66925433,N,12054.58301839,E,4,32,0.7,6.0343,M,8.7156,M,1.0,0*50
796060,$GNVTG,68.036,T,74.671,M,2.28275,N,4.22765,K,D*38
796062,$GNGGA,082724.10,3158.66927876,N,12054.58308423,E,4,32,0.7,6.0275,M,8.7156,M,1.1,0*55
796064,$GNVTG,65.112,T,71.747,M,2.36643,N,4.38263,K,D*35
796385,$GNGGA,082724.20,3158.66929373,N,12054.58314545,E,4,32,0.7,6.0429,M,8.7156,M,1.2,0*56
796387,$GNVTG,67.631,T,74.266,M,2.21808,N,4.10789,K,D*3E
796389,$GNGGA,082724.30,3158.66930149,N,12054.58319020,E,4,32,0.7,6.0696,M,8.7156,M,1.3,0*58
796390,$GNVTG,71.275,T,77.910,M,1.86596,N,3.45576,K,D*35
796393,$GNGGA,082724.40,3158.66930376,N,12054.58322248,E,4,32,0.7,6.0886,M,8.7156,M,0.4,0*5C
796395,$GNVTG,82.058,T,88.693,M,1.15934,N,2.14710,K,D*39
796681,$GNGGA,082724.50,3158.66930328,N,12054.58325495,E,4,32,0.7,6.0983,M,8.7156,M,0.5,0*52
796683,$GNVTG,110.794,T,117.429,M,0.82295,N,1.52410,K,D*3D
796685,$GNGGA,082724.60,3158.66929207,N,12054.58327495,E,4,32,0.7,6.0928,M,8.7156,M,0.6,0*55
796687,$GNVTG,138.478,T,145.113,M,0.74973,N,1.38850,K,D*33
796689,$GNGGA,082724.70,3158.66928108,N,12054.58328691,E,4,32,0.7,6.0780,M,8.7156,M,0.7,0*5D
796694,$GNVTG,148.221,T,154.856,M,0.64169,N,1.18842,K,D*35
796983,$GNGGA,082724.80,3158.66927090,N,12054.58330031,E,4,32,0.7,6.0642,M,8.7156,M,0.8,0*58
796985,$GNVTG,139.446,T,146.081,M,0.52095,N,0.96480,K,D*37
796987,$GNGGA,082724.90,3158.66926621,N,12054.58331075,E,4,32,0.7,6.0706,M,8.7156,M,0.9,0*55
796989,$GNVTG,107.972,T,114.607,M,0.39823,N,0.73752,K,D*30
796991,$GNGGA,082725.00,3158.66927007,N,12054.58331981,E,4,32,0.7,6.0812,M,8.7156,M,1.0,0*5E
796995,$GNVTG,73.145,T,79.780,M,0.39153,N,0.72511,K,D*30
797286,$GNGGA,082725.10,3158.66927322,N,12054.58332762,E,4,33,0.7,6.0814,M,8.7156,M,1.1,0*5D
797288,$GNVTG,61.353,T,67.988,M,0.38101,N,0.70564,K,D*39
797290,$GNGGA,082725.20,3158.66927573,N,12054.58333148,E,4,33,0.7,6.0786,M,8.7156,M,1.2,0*54
797291,$GNVTG,51.725,T,58.360,M,0.26314,N,0.48734,K,D*3A
797293,$GNGGA,082725.30,3158.66927594,N,12054.58333218,E,4,33,0.7,6.0835,M,8.7156,M,1.3,0*5C
797295,$GNVTG,41.547,T,48.182,M,0.10498,N,0.19443,K,D*33
797622,$GNGGA,082725.40,3158.66927576,N,12054.58333368,E,4,33,0.7,6.0881,M,8.7156,M,0.4,0*58
797624,$GNVTG,44.582,T,51.217,M,0.06829,N,0.12647,K,D*34
797626,$GNGGA,082725.50,3158.66927616,N,12054.58333635,E,4,33,0.7,6.0873,M,8.7156,M,0.5,0*5D
797627,$GNVTG,77.456,T,84.091,M,0.07052,N,0.13061,K,D*3E
797629,$GNGGA,082725.60,3158.66927374,N,12054.58334124,E,4,33,0.7,6.0871,M,8.7156,M,0.6,0*5E
797631,$GNVTG,103.610,T,110.245,M,0.13618,N,0.25220,K,D*34
797633,$GNGGA,082725.70,3158.66927021,N,12054.58334388,E,4,33,0.7,6.0986,M,8.7156,M,0.7,0*50
797638,$GNVTG,114.589,T,121.224,M,0.18618,N,0.34480,K,D*33
797928,$GNGGA,082725.80,3158.66926708,N,12054.58334629,E,4,33,0.7,6.0994,M,8.7156,M,0.8,0*50
797930,$GNVTG,121.052,T,127.687,M,0.18211,N,0.33728,K,D*36
797932,$GNGGA,082725.90,3158.66926350,N,12054.58334857,E,4,33,0.7,6.1013,M,8.7156,M,0.9,0*59
797933,$GNVTG,129.901,T,136.536,M,0.15965,N,0.29568,K,D*30
797935,$GNGGA,082726.00,3158.66926042,N,12054.58335015,E,4,33,0.7,6.0978,M,8.7156,M,1.0,0*51
797937,$GNVTG,147.636,T,154.271,M,0.12499,N,0.23147,K,D*39
798236,$GNGGA,082726.10,3158.66925914,N,12054.58334653,E,4,33,0.7,6.0941,M,8.7156,M,1.1,0*57
798238,$GNVTG,203.627,T,210.262,M,0.09080,N,0.16816,K,D*36
798240,$GNGGA,082726.20,3158.66925818,N,12054.58334239,E,4,33,0.7,6.0993,M,8.7156,M,1.2,0*5D
798241,$GNVTG,245.067,T,251.702,M,0.09552,N,0.17690,K,D*3B
798243,$GNGGA,082726.30,3158.66925868,N,12054.58334026,E,4,33,0.7,6.0987,M,8.7156,M,1.3,0*53
798245,$GNVTG,275.371,T,282.006,M,0.10990,N,0.20354,K,D*32
798540,$GNGGA,082726.40,3158.66926008,N,12054.58333751,E,4,33,0.7,6.0996,M,8.7156,M,0.4,0*5F
798542,$GNVTG,284.163,T,290.798,M,0.11483,N,0.21266,K,D*31
798544,$GNGGA,082726.50,3158.66925947,N,12054.58333847,E,4,33,0.7,6.0989,M,8.7156,M,0.5,0*58
798545,$GNVTG,274.730,T,281.365,M,0.02898,N,0.05366,K,D*3B
798548,$GNGGA,082726.60,3158.66926090,N,12054.58334393,E,4,33,0.7,6.0981,M,8.7156,M,0.6,0*55
798549,$GNVTG,103.823,T,110.458,M,0.10432,N,0.19320,K,D*37
798841,$GNGGA,082726.70,3158.66926129,N,12054.58333962,E,4,33,0.7,6.1020,M,8.7156,M,0.7,0*56
798846,$GNVTG,95.922,T,102.557,M,0.04946,N,0.09159,K,D*02
798848,$GNGGA,082726.80,3158.66925784,N,12054.58333575,E,4,33,0.7,6.0795,M,8.7156,M,0.8,0*56
798850,$GNVTG,220.238,T,226.873,M,0.10338,N,0.19146,K,D*39
799142,$GNGGA,082726.90,3158.66925702,N,12054.58333474,E,4,33,0.7,6.0825,M,8.7156,M,0.9,0*5C
799144,$GNVTG,240.591,T,247.226,M,0.13964,N,0.25861,K,D*35
799146,$GNGGA,082727.00,3158.66925924,N,12054.58333372,E,4,32,0.7,6.0670,M,8.7156,M,1.0,0*58
799151,$GNVTG,251.338,T,257.973,M,0.12457,N,0.23070,K,D*38
799153,$GNGGA,082727.10,3158.66926037,N,12054.58334215,E,4,33,0.7,6.0610,M,8.7156,M,1.1,0*50
799154,$GNVTG,82.381,T,89.016,M,0.10276,N,0.19031,K,D*36
799156,$GNGGA,082727.20,3158.66926164,N,12054.58335500,E,4,33,0.7,6.0542,M,8.7156,M,1.2,0*51
799158,$GNVTG,81.327,T,87.962,M,0.36608,N,0.67799,K,D*38
799445,$GNGGA,082727.30,3158.66926522,N,12054.58337532,E,4,33,0.7,6.0444,M,8.7156,M,1.3,0*53
799447,$GNVTG,84.037,T,90.672,M,0.60369,N,1.11804,K,D*3D
799452,$GNGGA,082727.40,3158.66926857,N,12054.58340846,E,4,32,0.7,6.0375,M,8.7156,M,0.4,0*57
799454,$GNVTG,83.009,T,89.644,M,0.79279,N,1.46825,K,D*33
799456,$GNGGA,082727.50,3158.66928032,N,12054.58345392,E,4,32,0.7,6.0294,M,8.7156,M,0.5,0*5B
799457,$GNVTG,78.512,T,85.147,M,1.19194,N,2.20748,K,D*30
799752,$GNGGA,082727.60,3158.66929199,N,12054.58350603,E,4,33,0.7,6.0386,M,8.7156,M,0.6,0*50
799754,$GNVTG,75.443,T,82.078,M,1.73218,N,3.20800,K,D*3B
799756,$GNGGA,082727.70,3158.66930584,N,12054.58357236,E,4,33,0.7,6.0276,M,8.7156,M,0.7,0*5B
799760,$GNVTG,73.905,T,80.540,M,2.15396,N,3.98914,K,D*3D
799762,$GNGGA,082727.80,3158.66932524,N,12054.58364579,E,4,31,0.7,6.0203,M,8.7156,M,0.8,0*5F
799764,$GNVTG,74.031,T,80.666,M,2.40215,N,4.44878,K,D*34
800073,$GNGGA,082727.90,3158.66934305,N,12054.58370083,E,4,30,0.7,6.0319,M,8.7156,M,0.9,0*52
800075,$GNVTG,72.075,T,78.710,M,2.24545,N,4.15858,K,D*33
800077,$GNGGA,082728.00,3158.66935435,N,12054.58374718,E,4,30,0.7,6.0550,M,8.7156,M,1.0,0*53
800079,$GNVTG,71.605,T,78.240,M,1.70156,N,3.15129,K,D*3D
800084,$GNGGA,082728.10,3158.66935450,N,12054.58377811,E,4,33,0.7,6.0951,M,8.7156,M,1.1,0*5B
800086,$GNVTG,78.093,T,84.728,M,1.11820,N,2.07092,K,D*39
800383,$GNGGA,082728.20,3158.66934888,N,12054.58380890,E,4,32,0.7,6.1004,M,8.7156,M,1.2,0*5B
800385,$GNVTG,103.334,T,109.969,M,0.82420,N,1.52642,K,D*3A
800387,$GNGGA,082728.30,3158.66933939,N,12054.58382949,E,4,31,0.7,6.1025,M,8.7156,M,1.3,0*50
800389,$GNVTG,134.643,T,141.278,M,0.76462,N,1.41607,K,D*32
800391,$GNGGA,082728.40,3158.66933124,N,12054.58384914,E,4,31,0.7,6.1051,M,8.7156,M,0.4,0*58
800395,$GNVTG,137.130,T,143.765,M,0.68129,N,1.26175,K,D*3F
800688,$GNGGA,082728.50,3158.66933058,N,12054.58386085,E,4,31,0.7,6.1094,M,8.7156,M,0.5,0*58
800690,$GNVTG,122.822,T,129.457,M,0.42547,N,0.78798,K,D*34
800692,$GNGGA,082728.60,3158.66933153,N,12054.58386989,E,4,31,0.7,6.1145,M,8.7156,M,0.6,0*5A
800694,$GNVTG,77.845,T,84.480,M,0.31228,N,0.57834,K,D*36
800696,$GNGGA,082728.70,3158.66933332,N,12054.58387844,E,4,31,0.7,6.1218,M,8.7156,M,0.7,0*55
800700,$GNVTG,59.906,T,66.541,M,0.31780,N,0.58856,K,D*30
800990,$GNGGA,082728.80,3158.66933480,N,12054.58388429,E,4,31,0.7,6.1227,M,8.7156,M,0.8,0*5F
800992,$GNVTG,59.535,T,66.170,M,0.26193,N,0.48510,K,D*36
800994,$GNGGA,082728.90,3158.66933319,N,12054.58388764,E,4,31,0.7,6.1258,M,8.7156,M,0.9,0*5A
800996,$GNVTG,77.915,T,84.550,M,0.17026,N,0.31533,K,D*3C
800998,$GNGGA,082729.00,3158.66933507,N,12054.58389392,E,4,31,0.7,6.1229,M,8.7156,M,1.0,0*59
800999,$GNVTG,99.037,T,105.672,M,0.14025,N,0.25974,K,D*04
801307,$GNGGA,082729.10,3158.66933628,N,12054.58389808,E,4,32,0.7,6.1231,M,8.7156,M,1.1,0*55
801309,$GNVTG,98.073,T,104.707,M,0.13604,N,0.25195,K,D*02
801311,$GNGGA,082729.20,3158.66934010,N,12054.58390818,E,4,32,0.7,6.1346,M,8.7156,M,1.2,0*57
801313,$GNVTG,72.074,T,78.709,M,0.17970,N,0.33280,K,D*3D
801315,$GNGGA,082729.30,3158.66934253,N,12054.58391085,E,4,32,0.7,6.1329,M,8.7156,M,1.3,0*56
801316,$GNVTG,58.713,T,65.348,M,0.18686,N,0.34606,K,D*3A
801318,$GNGGA,082729.40,3158.66934197,N,12054.58390588,E,4,32,0.7,6.1250,M,8.7156,M,0.4,0*5A
801323,$GNVTG,357.235,T,3.870,M,0.09758,N,0.18071,K,D*3D
801604,$GNGGA,082729.50,3158.66934127,N,12054.58390071,E,4,32,0.7,6.1133,M,8.7156,M,0.5,0*54
801606,$GNVTG,281.026,T,287.661,M,0.14859,N,0.27519,K,D*32
801608,$GNGGA,082729.60,3158.66933935,N,12054.58389995,E,4,32,0.7,6.1125,M,8.7156,M,0.6,0*54
801610,$GNVTG,259.391,T,266.026,M,0.15325,N,0.28382,K,D*38
801911,$GNGGA,082729.70,3158.66933634,N,12054.58389923,E,4,32,0.7,6.1110,M,8.7156,M,0.7,0*51
801916,$GNVTG,226.859,T,233.494,M,0.10992,N,0.20357,K,D*31
801919,$GNGGA,082729.80,3158.66933771,N,12054.58389972,E,4,32,0.7,6.1035,M,8.7156,M,0.8,0*53
801920,$GNVTG,110.662,T,117.297,M,0.05778,N,0.10701,K,D*3B
801922,$GNGGA,082729.90,3158.66933691,N,12054.58389999,E,4,32,0.7,6.1070,M,8.7156,M,0.9,0*58
801924,$GNVTG,92.218,T,98.853,M,0.08128,N,0.15054,K,D*31
801926,$GNGGA,082730.00,3158.66933498,N,12054.58390337,E,4,32,0.7,6.1117,M,8.7156,M,1.0,0*5C
801927,$GNVTG,93.193,T,99.828,M,0.12935,N,0.23956,K,D*3C
802215,$GNGGA,082730.10,3158.66933186,N,12054.58391282,E,4,33,0.7,6.1048,M,8.7156,M,1.1,0*52
802217,$GNVTG,110.337,T,116.972,M,0.19445,N,0.36012,K,D*3E
802219,$GNGGA,082730.20,3158.66932928,N,12054.58392482,E,4,33,0.7,6.0937,M,8.7156,M,1.2,0*5A
802221,$GNVTG,114.798,T,121.433,M,0.32254,N,0.59734,K,D*32
802223,$GNGGA,082730.30,3158.66932983,N,12054.58394479,E,4,32,0.7,6.0871,M,8.7156,M,1.3,0*5B
802224,$GNVTG,105.383,T,112.018,M,0.44760,N,0.82895,K,D*30
802523,$GNGGA,082730.40,3158.66933361,N,12054.58397399,E,4,32,0.7,6.0668,M,8.7157,M,1.4,0*51
802528,$GNVTG,94.329,T,100.964,M,0.64890,N,1.20176,K,D*07
802530,$GNGGA,082730.50,3158.66934177,N,12054.58401568,E,4,32,0.7,6.0477,M,8.7157,M,0.5,0*5E
802532,$GNVTG,83.722,T,90.357,M,1.10498,N,2.04643,K,D*3E
802534,$GNGGA,082730.60,3158.66935383,N,12054.58407738,E,4,32,0.7,6.0346,M,8.7157,M,0.6,0*52
802536,$GNVTG,80.756,T,87.391,M,1.88957,N,3.49948,K,D*31
802829,$GNGGA,082730.70,3158.66937127,N,12054.58415659,E,4,32,0.7,6.0431,M,8.7157,M,0.7,0*5E
802834,$GNVTG,76.493,T,83.128,M,2.68665,N,4.97568,K,D*3F
802836,$GNGGA,082730.80,3158.66939137,N,12054.58424310,E,4,32,0.7,6.0482,M,8.7157,M,0.8,0*53
802838,$GNVTG,74.533,T,81.168,M,3.01318,N,5.58041,K,D*3D
802840,$GNGGA,082730.90,3158.66940568,N,12054.58430676,E,4,31,0.7,6.0771,M,8.7157,M,0.9,0*5F
802841,$GNVTG,73.211,T,79.846,M,2.64339,N,4.89556,K,D*30
803157,$GNGGA,082731.00,3158.66941121,N,12054.58435377,E,4,31,0.7,6.0870,M,8.7157,M,1.0,0*58
803159,$GNVTG,72.634,T,79.269,M,1.74349,N,3.22895,K,D*34
803164,$GNGGA,082731.10,3158.66940598,N,12054.58438328,E,4,32,0.7,6.1046,M,8.7157,M,1.1,0*57
803166,$GNVTG,99.314,T,105.949,M,0.82234,N,1.52298,K,D*04
803168,$GNGGA,082731.20,3158.66939382,N,12054.58440505,E,4,32,0.7,6.1266,M,8.7157,M,1.2,0*52
803170,$GNVTG,137.000,T,143.635,M,0.74496,N,1.37966,K,D*3F
803464,$GNGGA,082731.30,3158.66937998,N,12054.58442334,E,4,32,0.7,6.1233,M,8.7157,M,1.3,0*5B
803466,$GNVTG,147.038,T,153.673,M,0.74397,N,1.37782,K,D*32
803468,$GNGGA,082731.40,3158.66936184,N,12054.58443610,E,4,32,0.7,6.1255,M,8.7157,M,0.4,0*5C
803473,$GNVTG,147.276,T,153.911,M,0.71945,N,1.33242,K,D*3C
803475,$GNGGA,082731.50,3158.66935374,N,12054.58444931,E,4,31,0.7,6.1289,M,8.7157,M,0.5,0*5B
803476,$GNVTG,139.786,T,146.420,M,0.61253,N,1.13441,K,D*3E
803771,$GNGGA,082731.60,3158.66935130,N,12054.58445686,E,4,31,0.7,6.1264,M,8.7157,M,0.6,0*58
803773,$GNVTG,126.880,T,133.514,M,0.41092,N,0.76103,K,D*31
803775,$GNGGA,082731.70,3158.66934713,N,12054.58446111,E,4,31,0.7,6.1307,M,8.7157,M,0.7,0*50
803780,$GNVTG,100.880,T,107.514,M,0.19327,N,0.35794,K,D*3D
803782,$GNGGA,082731.80,3158.66934771,N,12054.58446486,E,4,31,0.7,6.1341,M,8.7157,M,0.8,0*5D
803783,$GNVTG,70.959,T,77.594,M,0.12635,N,0.23401,K,D*35
804074,$GNGGA,082731.90,3158.66934965,N,12054.58446941,E,4,31,0.7,6.1321,M,8.7157,M,0.9,0*56
804076,$GNVTG,39.754,T,46.389,M,0.04965,N,0.09196,K,D*3D
804078,$GNGGA,082732.00,3158.66935291,N,12054.58446861,E,4,31,0.7,6.1385,M,8.7157,M,1.0,0*58
804079,$GNVTG,355.233,T,1.868,M,0.05613,N,0.10395,K,D*31
804084,$GNGGA,082732.10,3158.66935364,N,12054.58446875,E,4,31,0.7,6.1397,M,8.7157,M,1.1,0*55
804086,$GNVTG,8.012,T,14.647,M,0.04374,N,0.08100,K,D*0E
804408,$GNGGA,082732.20,3158.66935624,N,12054.58446896,E,4,31,0.7,6.1397,M,8.7157,M,1.2,0*59
804410,$GNVTG,9.628,T,16.263,M,0.03924,N,0.07267,K,D*05
804412,$GNGGA,082732.30,3158.66935526,N,12054.58447183,E,4,31,0.7,6.1386,M,8.7157,M,1.3,0*54
804414,$GNVTG,64.035,T,70.670,M,0.05033,N,0.09322,K,D*35
804416,$GNGGA,082732.40,3158.66935755,N,12054.58448127,E,4,31,0.7,6.1386,M,8.7157,M,0.4,0*52
804421,$GNVTG,105.352,T,111.987,M,0.11822,N,0.21894,K,D*31
804423,$GNGGA,082732.50,3158.66935470,N,12054.58449139,E,4,31,0.7,6.1378,M,8.7157,M,0.5,0*59
804424,$GNVTG,109.820,T,116.455,M,0.27114,N,0.50216,K,D*39
804709,$GNGGA,082732.60,3158.66935291,N,12054.58450983,E,4,31,0.7,6.1268,M,8.7157,M,0.6,0*51
804711,$GNVTG,105.483,T,112.118,M,0.46610,N,0.86321,K,D*32
804713,$GNGGA,082732.70,3158.66935741,N,12054.58453706,E,4,31,0.7,6.1134,M,8.7157,M,0.7,0*53
804718,$GNVTG,94.743,T,101.378,M,0.65670,N,1.21622,K,D*0F
804720,$GNGGA,082732.80,3158.66936712,N,12054.58457157,E,4,31,0.7,6.1059,M,8.7157,M,0.8,0*5A
804721,$GNVTG,83.413,T,90.048,M,0.86395,N,1.60003,K,D*35
805015,$GNGGA,082732.90,3158.66937468,N,12054.58461405,E,4,30,0.7,6.0867,M,8.7157,M,0.9,0*57
805017,$GNVTG,78.689,T,85.324,M,1.04700,N,1.93904,K,D*3C
805019,$GNGGA,082733.00,3158.66939639,N,12054.58467363,E,4,30,0.7,6.0764,M,8.7157,M,1.0,0*52
805020,$GNVTG,71.164,T,77.799,M,1.60809,N,2.97818,K,D*31
805026,$GNGGA,082733.10,3158.66943049,N,12054.58475764,E,4,30,0.7,6.0595,M,8.7157,M,1.1,0*52
805027,$GNVTG,65.901,T,72.536,M,2.76306,N,5.11719,K,D*3A
805323,$GNGGA,082733.20,3158.66945241,N,12054.58484235,E,4,30,0.7,6.0699,M,8.7157,M,1.2,0*5E
805325,$GNVTG,67.853,T,74.488,M,3.22910,N,5.98029,K,D*34
805327,$GNGGA,082733.30,3158.66945738,N,12054.58490575,E,4,30,0.7,6.1026,M,8.7157,M,1.3,0*50
805329,$GNVTG,74.926,T,81.561,M,2.69686,N,4.99458,K,D*35
805331,$GNGGA,082733.40,3158.66945848,N,12054.58496707,E,4,29,0.7,6.0707,M,8.7157,M,0.4,0*55
805335,$GNVTG,91.299,T,97.934,M,1.73960,N,3.22173,K,D*3E
805641,$GNGGA,082733.50,3158.66945820,N,12054.58500250,E,4,28,0.7,6.0815,M,8.7157,M,0.5,0*5F
805643,$GNVTG,117.033,T,123.668,M,0.89801,N,1.66312,K,D*3E
805645,$GNGGA,082733.60,3158.66945033,N,12054.58502631,E,4,29,0.7,6.0845,M,8.7157,M,0.6,0*50
805646,$GNVTG,151.493,T,158.128,M,0.57651,N,1.06770,K,D*33
805649,$GNGGA,082733.70,3158.66944436,N,12054.58504938,E,4,28,0.7,6.0683,M,8.7157,M,0.7,0*55
805650,$GNVTG,153.236,T,159.871,M,0.45793,N,0.84808,K,D*3B
805946,$GNGGA,082733.80,3158.66943266,N,12054.58506550,E,4,29,0.7,6.0646,M,8.7157,M,0.8,0*59
805948,$GNVTG,126.516,T,133.151,M,0.48850,N,0.90471,K,D*31
805950,$GNGGA,082733.90,3158.66942049,N,12054.58508057,E,4,29,0.7,6.0738,M,8.7157,M,0.9,0*53
805951,$GNVTG,117.139,T,123.774,M,0.62827,N,1.16355,K,D*3C
805953,$GNGGA,082734.00,3158.66941509,N,12054.58509799,E,4,28,0.8,6.0733,M,8.7157,M,1.0,0*56
805955,$GNVTG,113.720,T,120.356,M,0.68707,N,1.27246,K,D*37
806250,$GNGGA,082734.10,3158.66941548,N,12054.58510671,E,4,31,0.7,6.0772,M,8.7157,M,1.1,0*5E
806252,$GNVTG,106.484,T,113.119,M,0.51984,N,0.96274,K,D*32
806254,$GNGGA,082734.20,3158.66941788,N,12054.58511311,E,4,29,0.7,6.0852,M,8.7157,M,1.2,0*56
806255,$GNVTG,91.479,T,98.114,M,0.29104,N,0.53900,K,D*3E
806257,$GNGGA,082734.30,3158.66941716,N,12054.58511803,E,4,29,0.7,6.0921,M,8.7157,M,1.3,0*5C
806259,$GNVTG,52.125,T,58.760,M,0.14022,N,0.25969,K,D*31
806551,$GNGGA,082734.40,3158.66941723,N,12054.58512066,E,4,29,0.7,6.0924,M,8.7157,M,1.4,0*57
806556,$GNVTG,7.377,T,14.012,M,0.07901,N,0.14632,K,D*07
806558,$GNGGA,082734.50,3158.66941054,N,12054.58510685,E,4,29,0.7,6.1074,M,8.7157,M,0.5,0*55
806560,$GNVTG,30.034,T,36.669,M,0.01111,N,0.02058,K,D*3F
806562,$GNGGA,082734.60,3158.66941086,N,12054.58510565,E,4,29,0.7,6.1145,M,8.7157,M,0.6,0*54
806563,$GNVTG,141.004,T,147.639,M,0.03521,N,0.06520,K,D*32
806889,$GNGGA,082734.70,3158.66941075,N,12054.58510845,E,4,29,0.7,6.1211,M,8.7157,M,0.7,0*55
806891,$GNVTG,126.769,T,133.404,M,0.09423,N,0.17451,K,D*3E
806896,$GNGGA,082734.80,3158.66940985,N,12054.58511796,E,4,29,0.7,6.1194,M,8.7157,M,0.8,0*5C
806898,$GNVTG,109.153,T,115.788,M,0.21261,N,0.39375,K,D*38
806900,$GNGGA,082734.90,3158.66941261,N,12054.58513684,E,4,29,0.7,6.0921,M,8.7157,M,0.9,0*5B
806902,$GNVTG,96.268,T,102.903,M,0.35757,N,0.66222,K,D*03
807190,$GNGGA,082735.00,3158.66941576,N,12054.58515981,E,4,29,0.7,6.0781,M,8.7157,M,1.0,0*52
807192,$GNVTG,89.619,T,96.254,M,0.54492,N,1.00918,K,D*34
807194,$GNGGA,082735.10,3158.66941773,N,12054.58519101,E,4,29,0.7,6.0813,M,8.7157,M,1.1,0*5D
807198,$GNVTG,85.929,T,92.565,M,0.88261,N,1.63459,K,D*33
807201,$GNGGA,082735.20,3158.66942411,N,12054.58522711,E,4,29,0.7,6.0881,M,8.7157,M,1.2,0*5D
807202,$GNVTG,78.625,T,85.260,M,1.17168,N,2.16996,K,D*34
807497,$GNGGA,082735.30,3158.66944153,N,12054.58527396,E,4,28,0.7,6.0799,M,8.7157,M,1.3,0*51
807499,$GNVTG,74.057,T,80.692,M,1.42009,N,2.63000,K,D*35
807501,$GNGGA,082735.40,3158.66947229,N,12054.58534071,E,4,28,0.7,6.0487,M,8.7157,M,0.4,0*59
807506,$GNVTG,65.765,T,72.400,M,1.88167,N,3.48485,K,D*39
807508,$GNGGA,082735.50,3158.66950986,N,12054.58542162,E,4,27,0.8,6.0247,M,8.7158,M,0.5,0*56
807509,$GNVTG,63.888,T,70.523,M,2.48493,N,4.60210,K,D*37
807801,$GNGGA,082735.60,3158.66952296,N,12054.58549080,E,4,27,0.8,6.0331,M,8.7157,M,0.6,0*57
807803,$GNVTG,68.912,T,75.548,M,2.63113,N,4.87286,K,D*34
807805,$GNGGA,082735.70,3158.66951472,N,12054.58554681,E,4,27,0.8,6.0586,M,8.7157,M,0.7,0*59
807807,$GNVTG,82.234,T,88.869,M,2.18022,N,4.03777,K,D*3B
807812,$GNGGA,082735.80,3158.66950537,N,12054.58558858,E,4,27,0.8,6.0897,M,8.7158,M,0.8,0*5C
807814,$GNVTG,103.594,T,110.229,M,1.67382,N,3.09992,K,D*3A
807816,$GNGGA,082735.90,3158.66949725,N,12054.58561789,E,4,27,0.8,6.1141,M,8.7158,M,0.9,0*5F
807817,$GNVTG,118.824,T,125.459,M,1.15832,N,2.14522,K,D*3E
808107,$GNGGA,082736.00,3158.66948422,N,12054.58564492,E,4,27,0.8,6.0959,M,8.7158,M,1.0,0*54
808109,$GNVTG,132.892,T,139.527,M,0.74037,N,1.37116,K,D*34
808111,$GNGGA,082736.10,3158.66946970,N,12054.58566605,E,4,27,0.8,6.0796,M,8.7158,M,1.1,0*53
808116,$GNVTG,146.818,T,153.453,M,0.56834,N,1.05257,K,D*37
808118,$GNGGA,082736.20,3158.66945450,N,12054.58568746,E,4,27,0.8,6.0692,M,8.7158,M,1.2,0*52
808119,$GNVTG,141.641,T,148.276,M,0.62559,N,1.15859,K,D*3D
808414,$GNGGA,082736.30,3158.66945003,N,12054.58570461,E,4,27,0.8,6.0688,M,8.7158,M,1.3,0*54
808416,$GNVTG,122.658,T,129.293,M,0.60622,N,1.12272,K,D*35
808418,$GNGGA,082736.40,3158.66945649,N,12054.58571608,E,4,27,0.8,6.0869,M,8.7158,M,0.4,0*50
808423,$GNVTG,85.074,T,91.709,M,0.50234,N,0.93033,K,D*3A
808425,$GNGGA,082736.50,3158.66945905,N,12054.58572136,E,4,27,0.8,6.0930,M,8.7158,M,0.5,0*53
808427,$GNVTG,55.280,T,61.915,M,0.41841,N,0.77489,K,D*35
808717,$GNGGA,082736.60,3158.66946224,N,12054.58572824,E,4,27,0.8,6.0851,M,8.7158,M,0.6,0*54
808719,$GNVTG,31.766,T,38.401,M,0.29293,N,0.54251,K,D*37
808721,$GNGGA,082736.70,3158.66946251,N,12054.58573298,E,4,27,0.8,6.0864,M,8.7158,M,0.7,0*5C
808723,$GNVTG,35.850,T,42.485,M,0.02616,N,0.04845,K,D*32
808728,$GNGGA,082736.80,3158.66946334,N,12054.58573654,E,4,27,0.8,6.0877,M,8.7158,M,0.8,0*58
808730,$GNVTG,98.414,T,105.049,M,0.06654,N,0.12323,K,D*01
809019,$GNGGA,082736.90,3158.66946398,N,12054.58573757,E,4,27,0.8,6.0944,M,8.7158,M,0.9,0*5D
809021,$GNVTG,82.837,T,89.472,M,0.09869,N,0.18278,K,D*34
809023,$GNGGA,082737.00,3158.66946574,N,12054.58574029,E,4,27,0.8,6.1041,M,8.7158,M,1.0,0*5D
809025,$GNVTG,63.541,T,70.176,M,0.12440,N,0.23038,K,D*33
809027,$GNGGA,082737.10,3158.66946587,N,12054.58574559,E,4,29,0.6,6.1023,M,8.7158,M,1.1,0*57
809031,$GNVTG,65.855,T,72.490,M,0.14784,N,0.27381,K,D*3A
809324,$GNGGA,082737.20,3158.66946942,N,12054.58575060,E,4,29,0.6,6.1082,M,8.7158,M,1.2,0*57
809326,$GNVTG,64.907,T,71.542,M,0.18020,N,0.33373,K,D*3D
809328,$GNGGA,082737.30,3158.66947764,N,12054.58576161,E,4,29,0.6,6.1012,M,8.7158,M,1.3,0*56
809329,$GNVTG,55.301,T,61.936,M,0.25160,N,0.46596,K,D*39
809636,$GNGGA,082737.40,3158.66948985,N,12054.58577969,E,4,29,0.6,6.0915,M,8.7158,M,0.4,0*57
809639,$GNVTG,54.863,T,61.498,M,0.41166,N,0.76239,K,D*3B
809641,$GNGGA,082737.50,3158.66950173,N,12054.58580839,E,4,29,0.6,6.0881,M,8.7158,M,0.5,0*5F
809643,$GNVTG,61.510,T,68.145,M,0.82084,N,1.52019,K,D*3D
809645,$GNGGA,082737.60,3158.66951700,N,12054.58584693,E,4,29,0.6,6.0967,M,8.7158,M,0.6,0*5F
809646,$GNVTG,67.370,T,74.005,M,1.27641,N,2.36391,K,D*30
809648,$GNGGA,082737.70,3158.66953600,N,12054.58590413,E,4,28,0.7,6.0828,M,8.7158,M,0.7,0*59
809650,$GNVTG,71.407,T,78.043,M,1.79249,N,3.31969,K,D*32
809971,$GNGGA,082737.80,3158.66956251,N,12054.58597525,E,4,28,0.7,6.0791,M,8.7158,M,0.8,0*52
809973,$GNVTG,71.990,T,78.625,M,2.20459,N,4.08291,K,D*3E
809975,$GNGGA,082737.90,3158.66959135,N,12054.58606534,E,4,28,0.7,6.0663,M,8.7158,M,0.9,0*5B
809977,$GNVTG,67.559,T,74.194,M,2.91832,N,5.40472,K,D*3C
809979,$GNGGA,082738.00,3158.66962132,N,12054.58615638,E,4,27,0.8,6.0835,M,8.7158,M,1.0,0*5A
809980,$GNVTG,67.194,T,73.829,M,3.16328,N,5.85839,K,D*35
810275,$GNGGA,082738.10,3158.66962977,N,12054.58620970,E,4,28,0.7,6.1043,M,8.7158,M,1.1,0*5E
810280,$GNVTG,71.311,T,77.946,M,2.57335,N,4.76585,K,D*3E
810282,$GNGGA,082738.20,3158.66963052,N,12054.58625313,E,4,27,0.8,6.1191,M,8.7158,M,1.2,0*55
810283,$GNVTG,79.333,T,85.968,M,1.52645,N,2.82699,K,D*30
810285,$GNGGA,082738.30,3158.66962791,N,12054.58628492,E,4,27,0.8,6.1367,M,8.7158,M,1.3,0*54
810287,$GNVTG,107.332,T,113.967,M,0.81996,N,1.51857,K,D*37
810581,$GNGGA,082738.40,3158.66961887,N,12054.58630921,E,4,26,0.8,6.1520,M,8.7158,M,0.4,0*56
810586,$GNVTG,134.514,T,141.149,M,0.52107,N,0.96502,K,D*3F
810588,$GNGGA,082738.50,3158.66960424,N,12054.58632398,E,4,26,0.8,6.1578,M,8.7158,M,0.5,0*55
810590,$GNVTG,154.165,T,160.800,M,0.50988,N,0.94429,K,D*3B
810592,$GNGGA,082738.60,3158.66959354,N,12054.58632487,E,4,27,0.8,6.1526,M,8.7158,M,0.6,0*5C
810593,$GNVTG,174.119,T,180.754,M,0.41017,N,0.75963,K,D*31
810882,$GNGGA,082738.70,3158.66958629,N,12054.58633059,E,4,27,0.8,6.1411,M,8.7158,M,0.7,0*51
810884,$GNVTG,172.545,T,179.180,M,0.35727,N,0.66167,K,D*3A
810889,$GNGGA,082738.80,3158.66958101,N,12054.58633859,E,4,27,0.8,6.1248,M,8.7158,M,0.8,0*5E
810891,$GNVTG,161.743,T,168.378,M,0.30871,N,0.57174,K,D*30
810893,$GNGGA,082738.90,3158.66957725,N,12054.58634490,E,4,27,0.8,6.1265,M,8.7158,M,0.9,0*50
810894,$GNVTG,137.245,T,143.880,M,0.26028,N,0.48203,K,D*3B
811194,$GNGGA,082739.00,3158.66957359,N,12054.58635096,E,4,27,0.8,6.1247,M,8.7158,M,1.0,0*5C
811196,$GNVTG,118.742,T,125.377,M,0.25621,N,0.47449,K,D*3C
811198,$GNGGA,082739.10,3158.66957272,N,12054.58635635,E,4,28,0.6,6.1274,M,8.7158,M,1.1,0*5A
811203,$GNVTG,106.974,T,113.609,M,0.23060,N,0.42707,K,D*38
811205,$GNGGA,082739.20,3158.66957054,N,12054.58636055,E,4,28,0.6,6.1309,M,8.7158,M,1.2,0*54
811207,$GNVTG,105.993,T,112.628,M,0.19932,N,0.36913,K,D*3F
811501,$GNGGA,082739.30,3158.66956786,N,12054.58636375,E,4,28,0.6,6.1374,M,8.7158,M,1.3,0*56
811503,$GNVTG,107.915,T,114.550,M,0.16179,N,0.29963,K,D*38
811505,$GNGGA,082739.40,3158.66956329,N,12054.58636555,E,4,28,0.6,6.1645,M,8.7158,M,0.4,0*55
811509,$GNVTG,112.751,T,119.386,M,0.10202,N,0.18894,K,D*30
811512,$GNGGA,082739.50,3158.66956442,N,12054.58637235,E,4,28,0.6,6.1537,M,8.7158,M,0.5,0*59
811513,$GNVTG,111.658,T,118.293,M,0.12213,N,0.22618,K,D*3E
811515,$GNGGA,082739.60,3158.66956999,N,12054.58637958,E,4,28,0.6,6.1407,M,8.7158,M,0.6,0*50
811517,$GNVTG,88.592,T,95.227,M,0.13432,N,0.24877,K,D*34
811809,$GNGGA,082739.70,3158.66958294,N,12054.58639385,E,4,28,0.6,6.1205,M,8.7158,M,0.7,0*58
811811,$GNVTG,58.188,T,64.823,M,0.22869,N,0.42353,K,D*3B
811816,$GNGGA,082739.80,3158.66959916,N,12054.58641983,E,4,28,0.6,6.1084,M,8.7158,M,0.8,0*50
811818,$GNVTG,56.059,T,62.694,M,0.47878,N,0.88669,K,D*35
812114,$GNGGA,082739.90,3158.66960566,N,12054.58644206,E,4,27,0.7,6.1339,M,8.7158,M,0.9,0*59
812116,$GNVTG,61.079,T,67.714,M,0.73522,N,1.36163,K,D*33
812118,$GNGGA,082740.00,3158.66962245,N,12054.58648231,E,4,26,0.8,6.1260,M,8.7158,M,1.0,0*59
812119,$GNVTG,69.688,T,76.323,M,0.96232,N,1.78222,K,D*32
812121,$GNGGA,082740.10,3158.66964595,N,12054.58653576,E,4,27,0.7,6.1208,M,8.7158,M,1.1,0*5B
812126,$GNVTG,70.274,T,76.909,M,1.44929,N,2.68408,K,D*3C
812128,$GNGGA,082740.20,3158.66967830,N,12054.58660741,E,4,27,0.7,6.1076,M,8.7158,M,1.2,0*57
812130,$GNVTG,66.229,T,72.864,M,2.19003,N,4.05593,K,D*39
812423,$GNGGA,082740.30,3158.66971281,N,12054.58668812,E,4,26,0.8,6.0969,M,8.7158,M,1.3,0*59
812425,$GNVTG,65.675,T,72.310,M,2.70311,N,5.00615,K,D*39
812427,$GNGGA,082740.40,3158.66973071,N,12054.58674594,E,4,26,0.8,6.0992,M,8.7158,M,0.4,0*5D
812429,$GNVTG,62.396,T,69.031,M,2.71294,N,5.02437,K,D*31
812727,$GNGGA,082740.50,3158.66973427,N,12054.58678934,E,4,26,0.8,6.0993,M,8.7158,M,0.5,0*51
812729,$GNVTG,68.130,T,74.765,M,1.96260,N,3.63474,K,D*38
812731,$GNGGA,082740.60,3158.66972984,N,12054.58681870,E,4,24,0.8,6.1505,M,8.7158,M,0.6,0*53
812733,$GNVTG,82.324,T,88.959,M,1.12899,N,2.09088,K,D*33
812735,$GNGGA,082740.70,3158.66972577,N,12054.58684436,E,4,24,0.8,6.1904,M,8.7158,M,0.7,0*55
812736,$GNVTG,111.180,T,117.814,M,0.58245,N,1.07870,K,D*3D
812738,$GNGGA,082740.80,3158.66972322,N,12054.58686297,E,4,24,0.8,6.1769,M,8.7158,M,0.8,0*59
812743,$GNVTG,147.364,T,153.998,M,0.40488,N,0.74984,K,D*32
813031,$GNGGA,082740.90,3158.66971193,N,12054.58686780,E,4,25,0.8,6.1644,M,8.7158,M,0.9,0*5E
813032,$GNVTG,160.845,T,167.479,M,0.35537,N,0.65815,K,D*34
813035,$GNGGA,082741.00,3158.66969914,N,12054.58687159,E,4,25,0.8,6.1516,M,8.7158,M,1.0,0*57
813036,$GNVTG,162.075,T,168.710,M,0.38018,N,0.70409,K,D*3E
813038,$GNGGA,082741.10,3158.66969107,N,12054.58688111,E,4,26,0.8,6.1497,M,8.7158,M,1.1,0*55
813043,$GNVTG,154.506,T,161.141,M,0.42123,N,0.78011,K,D*30
813358,$GNGGA,082741.20,3158.66968534,N,12054.58688743,E,4,26,0.8,6.1575,M,8.7158,M,1.2,0*5C
813360,$GNVTG,143.311,T,149.946,M,0.43561,N,0.80676,K,D*30
813362,$GNGGA,082741.30,3158.66968159,N,12054.58689151,E,4,25,0.9,6.1722,M,8.7158,M,1.3,0*55
813364,$GNVTG,132.937,T,139.572,M,0.32857,N,0.60851,K,D*3F
813366,$GNGGA,082741.40,3158.66969530,N,12054.58688605,E,4,25,0.9,6.1385,M,8.7158,M,1.4,0*51
813368,$GNVTG,123.622,T,130.257,M,0.21969,N,0.40686,K,D*35
813667,$GNGGA,082741.50,3158.66969178,N,12054.58688948,E,4,25,0.9,6.1362,M,8.7158,M,0.5,0*57
813669,$GNVTG,131.420,T,138.055,M,0.13420,N,0.24855,K,D*3D
813671,$GNGGA,082741.60,3158.66968726,N,12054.58689181,E,4,25,0.9,6.1392,M,8.7158,M,0.6,0*58
813673,$GNVTG,139.546,T,146.180,M,0.11483,N,0.21267,K,D*31
813675,$GNGGA,082741.70,3158.66968259,N,12054.58689970,E,4,25,0.9,6.1375,M,8.7158,M,0.7,0*5A
813677,$GNVTG,137.846,T,144.481,M,0.14636,N,0.27105,K,D*3C
813973,$GNGGA,082741.80,3158.66967785,N,12054.58690489,E,4,25,0.9,6.1448,M,8.7158,M,0.8,0*5B
813975,$GNVTG,127.056,T,133.691,M,0.20529,N,0.38020,K,D*35
813977,$GNGGA,082741.90,3158.66967768,N,12054.58691375,E,4,25,0.9,6.1422,M,8.7158,M,0.9,0*51
813979,$GNVTG,121.832,T,128.467,M,0.21838,N,0.40445,K,D*3C
813981,$GNGGA,082742.00,3158.66967898,N,12054.58692199,E,4,25,0.9,6.1346,M,8.7158,M,1.0,0*55
813983,$GNVTG,108.630,T,115.265,M,0.19178,N,0.35518,K,D*3C
814277,$GNGGA,082742.10,3158.66968931,N,12054.58693661,E,4,26,0.8,6.1145,M,8.7158,M,1.1,0*5A
814282,$GNVTG,69.106,T,75.741,M,0.22967,N,0.42534,K,D*3C
814284,$GNGGA,082742.20,3158.66969608,N,12054.58696242,E,4,25,0.9,6.1009,M,8.7158,M,1.2,0*55
814285,$GNVTG,63.580,T,70.215,M,0.50241,N,0.93047,K,D*3A
814287,$GNGGA,082742.30,3158.66970690,N,12054.58699404,E,4,25,0.9,6.1037,M,8.7158,M,1.3,0*5A
814289,$GNVTG,70.025,T,76.660,M,0.85267,N,1.57915,K,D*39
814583,$GNGGA,082742.40,3158.66973448,N,12054.58705646,E,4,25,0.9,6.0825,M,8.7158,M,1.4,0*54
814585,$GNVTG,69.095,T,75.730,M,1.51185,N,2.79994,K,D*3C
814590,$GNGGA,082742.50,3158.66977481,N,12054.58712482,E,4,25,0.9,6.0471,M,8.7158,M,0.5,0*55
814592,$GNVTG,62.205,T,68.840,M,2.12729,N,3.93975,K,D*36
814594,$GNGGA,082742.60,3158.66982213,N,12054.58721439,E,4,25,0.9,6.0257,M,8.7158,M,0.6,0*50
814595,$GNVTG,58.690,T,65.326,M,3.08190,N,5.70767,K,D*39
814889,$GNGGA,082742.70,3158.66985455,N,12054.58730093,E,4,25,0.9,6.0419,M,8.7158,M,0.7,0*5B
814891,$GNVTG,62.028,T,68.663,M,3.47495,N,6.43561,K,D*30
814893,$GNGGA,082742.80,3158.66987507,N,12054.58735085,E,4,24,0.9,6.0716,M,8.7158,M,0.8,0*50
814897,$GNVTG,62.836,T,69.471,M,2.86041,N,5.29748,K,D*30
814900,$GNGGA,082742.90,3158.66987463,N,12054.58739227,E,4,25,0.9,6.1142,M,8.7158,M,0.9,0*52
814901,$GNVTG,69.660,T,76.295,M,1.44738,N,2.68054,K,D*38
815190,$GNGGA,082743.00,3158.66988120,N,12054.58741576,E,4,25,0.9,6.1398,M,8.7158,M,1.0,0*56
815192,$GNVTG,95.393,T,102.028,M,0.64354,N,1.19183,K,D*07
815194,$GNGGA,082743.10,3158.66988544,N,12054.58743852,E,4,25,0.9,6.1346,M,8.7158,M,1.1,0*5A
815198,$GNVTG,146.266,T,152.901,M,0.42091,N,0.77953,K,D*36
815200,$GNGGA,082743.20,3158.66988237,N,12054.58745732,E,4,25,0.9,6.1319,M,8.7158,M,1.2,0*5C
815202,$GNVTG,138.703,T,145.338,M,0.37396,N,0.69257,K,D*39
815496,$GNGGA,082743.30,3158.66988662,N,12054.58747005,E,4,25,0.9,6.1242,M,8.7158,M,1.3,0*56
815498,$GNVTG,108.099,T,114.734,M,0.44084,N,0.81644,K,D*36
815500,$GNGGA,082743.40,3158.66987330,N,12054.58747933,E,4,24,0.9,6.1478,M,8.7158,M,1.4,0*59
815502,$GNVTG,106.248,T,112.883,M,0.49727,N,0.92095,K,D*38
815507,$GNGGA,082743.50,3158.66986506,N,12054.58748884,E,4,25,0.9,6.1494,M,8.7158,M,0.5,0*5B
815508,$GNVTG,119.827,T,126.462,M,0.47772,N,0.88474,K,D*3F
815799,$GNGGA,082743.60,3158.66986075,N,12054.58749835,E,4,25,0.9,6.1449,M,8.7158,M,0.6,0*51
815801,$GNVTG,130.200,T,136.835,M,0.43965,N,0.81423,K,D*33
815803,$GNGGA,082743.70,3158.66985900,N,12054.58750684,E,4,25,0.9,6.1541,M,8.7158,M,0.7,0*5C
815804,$GNVTG,122.656,T,129.291,M,0.32240,N,0.59709,K,D*39
815806,$GNGGA,082743.80,3158.66985582,N,12054.58751131,E,4,25,0.9,6.1625,M,8.7158,M,0.8,0*53
815811,$GNVTG,100.328,T,106.963,M,0.18866,N,0.34941,K,D*31
816122,$GNGGA,082743.90,3158.66985326,N,12054.58751702,E,4,25,0.9,6.1626,M,8.7158,M,0.9,0*5E
816124,$GNVTG,90.835,T,97.470,M,0.15579,N,0.28853,K,D*39
816126,$GNGGA,082744.00,3158.66985137,N,12054.58752163,E,4,25,0.9,6.1575,M,8.7158,M,1.0,0*5D
816128,$GNVTG,107.299,T,113.934,M,0.16730,N,0.30983,K,D*33
816130,$GNGGA,082744.10,3158.66984499,N,12054.58752441,E,4,25,0.9,6.1712,M,8.7158,M,1.1,0*5B
816135,$GNVTG,131.459,T,138.094,M,0.20807,N,0.38535,K,D*31
816137,$GNGGA,082744.20,3158.66984330,N,12054.58752949,E,4,25,0.9,6.1588,M,8.7158,M,1.2,0*5B
816139,$GNVTG,142.609,T,149.244,M,0.23661,N,0.43820,K,D*33
816423,$GNGGA,082744.30,3158.66983584,N,12054.58753357,E,4,24,0.9,6.1231,M,8.7158,M,1.3,0*55
816425,$GNVTG,148.897,T,155.532,M,0.26361,N,0.48820,K,D*30
816427,$GNGGA,082744.40,3158.66983686,N,12054.58754159,E,4,24,0.9,6.1076,M,8.7158,M,0.4,0*5F
816428,$GNVTG,152.031,T,158.666,M,0.25856,N,0.47886,K,D*3F
816434,$GNGGA,082744.50,3158.66984240,N,12054.58755886,E,4,24,0.9,6.0886,M,8.7158,M,0.5,0*5A
816435,$GNVTG,132.704,T,139.339,M,0.21932,N,0.40619,K,D*38
816725,$GNGGA,082744.60,3158.66984423,N,12054.58758881,E,4,24,0.9,6.0722,M,8.7158,M,0.6,0*52
816727,$GNVTG,78.171,T,84.806,M,0.58189,N,1.07766,K,D*3E
816729,$GNGGA,082744.70,3158.66985398,N,12054.58762497,E,4,24,0.9,6.0918,M,8.7158,M,0.7,0*51
816731,$GNVTG,73.453,T,80.088,M,1.06872,N,1.97927,K,D*3F
816733,$GNGGA,082744.80,3158.66987486,N,12054.58767878,E,4,24,0.9,6.0806,M,8.7159,M,0.8,0*5C
816737,$GNVTG,73.129,T,79.764,M,1.54848,N,2.86779,K,D*3C
817027,$GNGGA,082744.90,3158.66991216,N,12054.58775876,E,4,23,0.9,6.0511,M,8.7159,M,0.9,0*55
817029,$GNVTG,68.473,T,75.108,M,2.16032,N,4.00090,K,D*34
817031,$GNGGA,082745.00,3158.66993945,N,12054.58784423,E,4,23,0.9,6.0606,M,8.7159,M,1.0,0*5D
817032,$GNVTG,68.101,T,74.736,M,2.53229,N,4.68979,K,D*37
817034,$GNGGA,082745.10,3158.66996683,N,12054.58792609,E,4,25,0.8,6.0515,M,8.7159,M,1.1,0*56
817039,$GNVTG,69.124,T,75.759,M,2.83259,N,5.24596,K,D*37
817330,$GNGGA,082745.20,3158.66996316,N,12054.58797943,E,4,23,0.9,6.0865,M,8.7159,M,1.2,0*56
817332,$GNVTG,74.130,T,80.765,M,2.43364,N,4.50710,K,D*36
817334,$GNGGA,082745.30,3158.66995704,N,12054.58799867,E,4,23,0.9,6.1155,M,8.7159,M,1.3,0*50
817335,$GNVTG,90.446,T,97.081,M,1.26525,N,2.34324,K,D*37
817337,$GNGGA,082745.40,3158.66994753,N,12054.58801814,E,4,22,0.9,6.1497,M,8.7159,M,0.4,0*52
817339,$GNVTG,124.437,T,131.072,M,0.52514,N,0.97257,K,D*30
817631,$GNGGA,082745.50,3158.66993505,N,12054.58803266,E,4,20,1.0,6.1679,M,8.7159,M,0.5,0*51
817633,$GNVTG,160.406,T,167.041,M,0.53896,N,0.99815,K,D*35
817635,$GNGGA,082745.60,3158.66991602,N,12054.58806368,E,4,20,1.0,6.1339,M,8.7159,M,0.6,0*5C
817637,$GNVTG,157.677,T,164.312,M,0.75211,N,1.39292,K,D*3C
817639,$GNGGA,082745.70,3158.66989455,N,12054.58808063,E,4,21,0.9,6.1195,M,8.7159,M,0.7,0*5E
817641,$GNVTG,153.461,T,160.096,M,0.79922,N,1.48015,K,D*3A
817954,$GNGGA,082745.80,3158.66988111,N,12054.58808416,E,4,22,0.9,6.1249,M,8.7159,M,0.8,0*5D
817957,$GNVTG,150.611,T,157.246,M,0.74607,N,1.38172,K,D*35
817959,$GNGGA,082745.90,3158.66987451,N,12054.58809095,E,4,21,1.0,6.1209,M,8.7159,M,0.9,0*52
817961,$GNVTG,144.379,T,151.014,M,0.52346,N,0.96945,K,D*35
817963,$GNGGA,082746.00,3158.66987642,N,12054.58808765,E,4,21,1.0,6.1207,M,8.7159,M,1.0,0*57
817964,$GNVTG,119.772,T,126.407,M,0.23173,N,0.42916,K,D*39
818251,$GNGGA,082746.10,3158.66987412,N,12054.58808755,E,4,23,0.9,6.1288,M,8.7159,M,1.1,0*5E
818256,$GNVTG,49.566,T,56.201,M,0.11400,N,0.21113,K,D*34
818258,$GNGGA,082746.20,3158.66987823,N,12054.58809328,E,4,23,0.9,6.1251,M,8.7159,M,1.2,0*5B
818259,$GNVTG,35.830,T,42.465,M,0.11880,N,0.22002,K,D*36
818262,$GNGGA,082746.30,3158.66989435,N,12054.58810775,E,4,23,0.9,6.1141,M,8.7159,M,1.3,0*58
818263,$GNVTG,43.036,T,49.671,M,0.11839,N,0.21925,K,D*38
818555,$GNGGA,082746.40,3158.66989136,N,12054.58810942,E,4,23,0.9,6.1104,M,8.7159,M,1.4,0*55
818557,$GNVTG,65.265,T,71.900,M,0.09783,N,0.18117,K,D*3E
818562,$GNGGA,082746.50,3158.66989027,N,12054.58811292,E,4,23,0.9,6.1131,M,8.7159,M,0.5,0*54
818564,$GNVTG,89.862,T,96.497,M,0.09041,N,0.16744,K,D*3C
818566,$GNGGA,082746.60,3158.66988957,N,12054.58811430,E,4,23,0.9,6.1177,M,8.7159,M,0.6,0*57
818567,$GNVTG,109.927,T,116.562,M,0.08910,N,0.16502,K,D*3B
818862,$GNGGA,082746.70,3158.66989277,N,12054.58811810,E,4,23,0.9,6.1160,M,8.7159,M,0.7,0*57
818864,$GNVTG,82.669,T,89.304,M,0.08805,N,0.16307,K,D*3B
818866,$GNGGA,082746.80,3158.66989460,N,12054.58812363,E,4,23,0.9,6.1123,M,8.7159,M,0.8,0*5C
818870,$GNVTG,77.672,T,84.307,M,0.10552,N,0.19543,K,D*3A
818872,$GNGGA,082746.90,3158.66989391,N,12054.58812863,E,4,23,0.9,6.1149,M,8.7159,M,0.9,0*52
818874,$GNVTG,82.295,T,88.930,M,0.12619,N,0.23371,K,D*3F
819192,$GNGGA,082747.00,3158.66989922,N,12054.58814140,E,4,23,0.9,6.1027,M,8.7159,M,1.0,0*57
819194,$GNVTG,84.404,T,91.039,M,0.16022,N,0.29673,K,D*38
819196,$GNGGA,082747.10,3158.66990703,N,12054.58815712,E,4,25,0.8,6.0834,M,8.7159,M,1.1,0*5E
819201,$GNVTG,71.346,T,77.981,M,0.26674,N,0.49400,K,D*37
819203,$GNGGA,082747.20,3158.66991835,N,12054.58818233,E,4,25,0.8,6.0838,M,8.7159,M,1.2,0*52
819205,$GNVTG,68.272,T,74.907,M,0.53203,N,0.98533,K,D*3F
819493,$GNGGA,082747.30,3158.66992413,N,12054.58819707,E,4,25,0.8,6.1033,M,8.7159,M,1.3,0*58
819495,$GNVTG,64.908,T,71.543,M,0.79106,N,1.46504,K,D*34
819497,$GNGGA,082747.40,3158.66993092,N,12054.58822820,E,4,24,0.9,6.1150,M,8.7159,M,0.4,0*53
819499,$GNVTG,71.385,T,78.020,M,1.04888,N,1.94252,K,D*39
819504,$GNGGA,082747.50,3158.66995327,N,12054.58827381,E,4,23,0.9,6.1185,M,8.7159,M,0.5,0*52
819505,$GNVTG,68.156,T,74.791,M,1.31201,N,2.42985,K,D*38
819796,$GNGGA,082747.60,3158.66998614,N,12054.58834178,E,4,23,0.9,6.0971,M,8.7159,M,0.6,0*5E
819798,$GNVTG,61.514,T,68.149,M,1.80915,N,3.35054,K,D*3D
819800,$GNGGA,082747.70,3158.67002784,N,12054.58842831,E,4,22,1.0,6.0758,M,8.7159,M,0.7,0*54
819802,$GNVTG,58.326,T,64.961,M,2.55045,N,4.72344,K,D*3F
819804,$GNGGA,082747.80,3158.67006486,N,12054.58850778,E,4,22,0.9,6.0600,M,8.7159,M,0.8,0*54
819808,$GNVTG,63.030,T,69.665,M,3.11027,N,5.76023,K,D*37
820097,$GNGGA,082747.90,3158.67008338,N,12054.58857693,E,4,22,0.9,6.0919,M,8.7159,M,0.9,0*5C
820099,$GNVTG,65.721,T,72.357,M,2.91138,N,5.39188,K,D*35
820101,$GNGGA,082748.00,3158.67009629,N,12054.58861269,E,4,22,0.9,6.1069,M,8.7159,M,1.0,0*5D
820102,$GNVTG,66.540,T,73.175,M,1.82219,N,3.37469,K,D*33
820104,$GNGGA,082748.10,3158.67009800,N,12054.58863253,E,4,22,0.9,6.1250,M,8.7159,M,1.1,0*5B
820106,$GNVTG,64.407,T,71.042,M,0.51245,N,0.94906,K,D*3C
820403,$GNGGA,082748.20,3158.67010017,N,12054.58864919,E,4,22,0.9,6.1312,M,8.7159,M,1.2,0*58
820405,$GNVTG,167.775,T,174.410,M,0.18310,N,0.33910,K,D*39
820407,$GNGGA,082748.30,3158.67009943,N,12054.58866509,E,4,22,0.9,6.1153,M,8.7159,M,1.3,0*50
820408,$GNVTG,178.187,T,184.822,M,0.47943,N,0.88790,K,D*3E
820410,$GNGGA,082748.40,3158.67007680,N,12054.58867401,E,4,22,0.9,6.1219,M,8.7159,M,1.4,0*5B
820412,$GNVTG,166.051,T,172.686,M,0.70035,N,1.29704,K,D*39
820705,$GNGGA,082748.50,3158.67005449,N,12054.58868498,E,4,22,0.9,6.1146,M,8.7159,M,0.5,0*59
820707,$GNVTG,157.888,T,164.523,M,0.86269,N,1.59770,K,D*3A
820709,$GNGGA,082748.60,3158.67003519,N,12054.58870520,E,4,20,1.0,6.0923,M,8.7159,M,0.6,0*50
820710,$GNVTG,156.554,T,163.189,M,0.90582,N,1.67758,K,D*36
820712,$GNGGA,082748.70,3158.67000878,N,12054.58870239,E,4,21,1.0,6.1139,M,8.7159,M,0.7,0*55
820714,$GNVTG,157.300,T,163.935,M,0.90111,N,1.66885,K,D*3F
820716,$GNGGA,082748.80,3158.66999470,N,12054.58870394,E,4,22,0.9,6.1120,M,8.7159,M,0.8,0*5C
820721,$GNVTG,152.800,T,159.435,M,0.62907,N,1.16503,K,D*33
821014,$GNGGA,082748.90,3158.66999273,N,12054.58871652,E,4,22,0.9,6.1193,M,8.7159,M,0.9,0*5F
821016,$GNVTG,134.981,T,141.616,M,0.36324,N,0.67272,K,D*3D
821018,$GNGGA,082749.00,3158.66998695,N,12054.58872409,E,4,22,0.9,6.1247,M,8.7159,M,1.0,0*57
821020,$GNVTG,102.400,T,109.035,M,0.24485,N,0.45346,K,D*3E
821022,$GNGGA,082749.10,3158.66998610,N,12054.58873036,E,4,24,0.8,6.1326,M,8.7159,M,1.1,0*52
821024,$GNVTG,80.257,T,86.892,M,0.23899,N,0.44262,K,D*32
821320,$GNGGA,082749.20,3158.66998521,N,12054.58873836,E,4,24,0.8,6.1302,M,8.7159,M,1.2,0*5D
821322,$GNVTG,84.240,T,90.875,M,0.23542,N,0.43600,K,D*32
821324,$GNGGA,082749.30,3158.66999065,N,12054.58874313,E,4,24,0.8,6.1356,M,8.7159,M,1.3,0*53
821325,$GNVTG,90.438,T,97.073,M,0.23073,N,0.42732,K,D*31
821327,$GNGGA,082749.40,3158.66999770,N,12054.58875509,E,4,24,0.8,6.1156,M,8.7159,M,0.4,0*5F
821329,$GNVTG,87.799,T,94.433,M,0.22609,N,0.41873,K,D*3F
821641,$GNGGA,082749.50,3158.67001107,N,12054.58877315,E,4,23,0.9,6.0931,M,8.7159,M,0.5,0*57
821646,$GNVTG,78.279,T,84.914,M,0.25966,N,0.48090,K,D*30
821648,$GNGGA,082749.60,3158.67001999,N,12054.58878939,E,4,22,0.9,6.1008,M,8.7159,M,0.6,0*50
821650,$GNVTG,66.385,T,73.020,M,0.37138,N,0.68780,K,D*3F
821652,$GNGGA,082749.70,3158.67002908,N,12054.58881327,E,4,23,0.9,6.1111,M,8.7159,M,0.7,0*50
821654,$GNVTG,66.990,T,73.625,M,0.50445,N,0.93423,K,D*32
821944,$GNGGA,082749.80,3158.67003970,N,12054.58885543,E,4,23,0.9,6.1088,M,8.7159,M,0.8,0*5F
821949,$GNVTG,72.024,T,78.659,M,0.75470,N,1.39770,K,D*34
821951,$GNGGA,082749.90,3158.67006087,N,12054.58891076,E,4,23,0.9,6.0903,M,8.7159,M,0.9,0*56
821953,$GNVTG,76.252,T,82.887,M,1.23356,N,2.28456,K,D*3E
821955,$GNGGA,082750.00,3158.67009547,N,12054.58900248,E,4,23,0.9,6.0662,M,8.7159,M,1.0,0*57
821956,$GNVTG,73.813,T,80.448,M,2.09484,N,3.87965,K,D*33
822250,$GNGGA,082750.10,3158.67011761,N,12054.58910005,E,4,25,0.8,6.0797,M,8.7159,M,1.1,0*5E
822252,$GNVTG,74.876,T,81.511,M,2.98379,N,5.52597,K,D*39
822257,$GNGGA,082750.20,3158.67013321,N,12054.58918095,E,4,23,0.9,6.1375,M,8.7159,M,1.2,0*53
822259,$GNVTG,73.861,T,80.495,M,3.15964,N,5.85165,K,D*35
822261,$GNGGA,082750.30,3158.67012660,N,12054.58922706,E,4,22,0.9,6.1540,M,8.7159,M,0.3,0*56
822262,$GNVTG,73.606,T,80.241,M,2.30004,N,4.25967,K,D*3D
822567,$GNGGA,082750.40,3158.67013208,N,12054.58925599,E,4,22,0.9,6.1734,M,8.7159,M,0.4,0*5F
822569,$GNVTG,71.974,T,78.609,M,1.07276,N,1.98674,K,D*34
822571,$GNGGA,082750.50,3158.67012294,N,12054.58927275,E,4,22,0.9,6.1969,M,8.7159,M,0.5,0*5A
822576,$GNVTG,83.410,T,90.045,M,0.55310,N,1.02435,K,D*3D
822578,$GNGGA,082750.60,3158.67010531,N,12054.58928531,E,4,22,0.9,6.1978,M,8.7159,M,0.6,0*58
822579,$GNVTG,132.288,T,138.923,M,0.38712,N,0.71694,K,D*3A
822874,$GNGGA,082750.70,3158.67008314,N,12054.58929160,E,4,22,0.9,6.1889,M,8.7159,M,0.7,0*5E
822876,$GNVTG,161.952,T,168.587,M,0.55372,N,1.02549,K,D*38
822878,$GNGGA,082750.80,3158.67005971,N,12054.58931009,E,4,22,0.9,6.1667,M,8.7159,M,0.8,0*53
822883,$GNVTG,170.269,T,176.904,M,0.87954,N,1.62891,K,D*3C
822885,$GNGGA,082750.90,3158.67003923,N,12054.58932591,E,4,22,0.9,6.1857,M,8.7159,M,0.9,0*58
822887,$GNVTG,161.004,T,167.638,M,0.87441,N,1.61941,K,D*33
823175,$GNGGA,082751.00,3158.67003246,N,12054.58933844,E,4,22,0.9,6.1899,M,8.7159,M,1.0,0*56
823177,$GNVTG,144.164,T,150.799,M,0.69576,N,1.28855,K,D*31
823179,$GNGGA,082751.10,3158.67002941,N,12054.58935234,E,4,23,0.9,6.2055,M,8.7159,M,1.1,0*5A
823180,$GNVTG,125.845,T,132.479,M,0.55122,N,1.02086,K,D*31
823185,$GNGGA,082751.20,3158.67004819,N,12054.58935703,E,4,23,0.9,6.1758,M,8.7159,M,1.2,0*58
823187,$GNVTG,122.874,T,129.508,M,0.45325,N,0.83942,K,D*34
823479,$GNGGA,082751.30,3158.67004836,N,12054.58936610,E,4,22,0.9,6.1794,M,8.7159,M,1.3,0*54
823481,$GNVTG,126.090,T,132.725,M,0.25372,N,0.46990,K,D*37
823483,$GNGGA,082751.40,3158.67004814,N,12054.58937192,E,4,22,0.9,6.1844,M,8.7159,M,0.4,0*5B
823485,$GNVTG,132.638,T,139.273,M,0.15877,N,0.29405,K,D*3E
823487,$GNGGA,082751.50,3158.67004881,N,12054.58937766,E,4,22,0.9,6.1846,M,8.7159,M,0.5,0*58
823491,$GNVTG,130.259,T,136.894,M,0.15809,N,0.29278,K,D*36
823792,$GNGGA,082751.60,3158.67004978,N,12054.58938582,E,4,22,0.9,6.1792,M,8.7159,M,0.6,0*5E
823794,$GNVTG,126.206,T,132.840,M,0.18563,N,0.34379,K,D*36
823796,$GNGGA,082751.70,3158.67005002,N,12054.58939591,E,4,22,0.9,6.1717,M,8.7159,M,0.7,0*55
823798,$GNVTG,117.240,T,123.874,M,0.19112,N,0.35395,K,D*31
823800,$GNGGA,082751.80,3158.67005146,N,12054.58940963,E,4,22,0.9,6.1583,M,8.7159,M,0.8,0*54
823804,$GNVTG,104.058,T,110.692,M,0.22647,N,0.41942,K,D*32
824099,$GNGGA,082751.90,3158.67005549,N,12054.58943232,E,4,22,0.9,6.1513,M,8.7159,M,0.9,0*5A
824101,$GNVTG,95.718,T,102.353,M,0.34498,N,0.63890,K,D*0A
824103,$GNGGA,082752.00,3158.67006107,N,12054.58946941,E,4,22,0.9,6.1255,M,8.7160,M,1.0,0*50
824105,$GNVTG,92.480,T,99.115,M,0.68745,N,1.27315,K,D*31
824107,$GNGGA,082752.10,3158.67006779,N,12054.58952104,E,4,24,0.9,6.1214,M,8.7160,M,1.1,0*50
824108,$GNVTG,88.501,T,95.136,M,1.45842,N,2.70099,K,D*3F
824404,$GNGGA,082752.20,3158.67008418,N,12054.58959708,E,4,23,1.0,6.0963,M,8.7160,M,1.2,0*5E
824406,$GNVTG,87.615,T,94.250,M,2.07500,N,3.84291,K,D*3A
824408,$GNGGA,082752.30,3158.67011613,N,12054.58968112,E,4,23,1.0,6.0870,M,8.7160,M,1.3,0*53
824409,$GNVTG,78.161,T,84.797,M,2.71793,N,5.03361,K,D*3F
