sys_ms,nmea_ms,nmea
97536,42589800,$GNGGA,114949.80,3158.67007714,N,12054.57838907,E,1,20,0.8,0.4240,M,8.7153,M,,*4C
97537,42589800,$GNVTG,72.239,T,78.890,M,0.52743,N,0.97680,K,A*39
97540,42589900,$GNGGA,114949.90,3158.67007419,N,12054.57840487,E,1,20,0.8,0.4047,M,8.7153,M,,*4C
97541,42589900,$GNVTG,78.173,T,84.824,M,0.32192,N,0.59620,K,A*36
97543,42589900,,114950.00,3158.67006870,N,12054.57841855,E,1,20,0.8,0.3847,M,8.7153,M,,*42
97546,42589900,$GNVTG,92.657,T,99.308,M,0.19872,N,0.36803,K,$GNGGA,114950.10,3158.67000237,N,12054.57838799,E,1,21,0.8,0.2976,M,8.7153,M,,*4E
97550,42589900,$GNVTG,135.577,T,142.229,M,0.20650,N,0.38243,K,A*3E
97552,42590200,$GNGGA,114950.20,3158.66996801,N,12054.57836853,E,1,21,0.8,0.2876,M,8.7153,M,,*43
97554,42590200,$GNVTG,164.474,T,171.125,M,0.32386,N,0.59978,K,A*3E
97556,42590300,$GNGGA,114950.30,3158.66992571,N,12054.57834128,E,1,21,0.8,0.2978,M,8.7153,M,,*44
97558,42590300,$GNVTG,182.457,T,189.108,M,0.55084,N,1.02015,K,A*32
97560,42590400,$GNGGA,114950.40,3158.66988749,N,12054.57830716,E,1,21,0.8,0.2798,M,8.7153,M,,*4E
97565,42590400,$GNVTG,192.572,T,199.223,M,0.81583,N,1.51092,K,A*3C
97567,42590500,$GNGGA,114950.50,3158.66984991,N,12054.57827095,E,1,21,0.8,0.3020,M,8.7153,M,,*47
97568,42590500,$GNVTG,201.686,T,208.337,M,1.02005,N,1.88913,K,A*37
97570,42590600,$GNGGA,114950.60,3158.66982720,N,12054.57825009,E,1,21,0.8,0.3127,M,8.7153,M,,*47
97572,42590600,$GNVTG,221.800,T,228.451,M,1.33152,N,2.46597,K,A*30
97574,42590700,$GNGGA,114950.70,3158.66980673,N,12054.57822214,E,1,21,0.8,0.3167,M,8.7153,M,,*4E
97579,42590700,$GNVTG,235.005,T,241.656,M,1.11203,N,2.05947,K,A*33
97581,42590800,$GNGGA,114950.80,3158.66979442,N,12054.57820410,E,1,21,0.8,0.3319,M,8.7153,M,,*4C
97582,42590800,$GNVTG,246.632,T,253.283,M,0.85243,N,1.57871,K,A*32
97585,42590900,$GNGGA,114950.90,3158.66978795,N,12054.57818356,E,1,21,0.8,0.3196,M,8.7153,M,,*4E
97586,42590900,$GNVTG,265.943,T,272.594,M,0.54957,N,1.01780,K,A*38
97588,42591000,$GNGGA,114951.00,3158.66978741,N,12054.57816436,E,1,21,0.8,0.3194,M,8.7153,M,,*42
97593,42591000,$GNVTG,268.001,T,274.652,M,0.47066,N,0.87166,K,A*3D
97595,42591100,$GNGGA,114951.10,3158.66991812,N,12054.57829458,E,1,20,0.9,0.3828,M,8.7153,M,,*47
97597,42591100,$GNVTG,267.352,T,274.003,M,0.44243,N,0.81939,K,A*37
97599,42591200,$GNGGA,114951.20,3158.66992106,N,12054.57828308,E,1,20,0.9,0.3734,M,8.7153,M,,*4A
97600,42591200,$GNVTG,259.511,T,266.162,M,0.44043,N,0.81567,K,A*3B
97602,42591300,$GNGGA,114951.30,3158.66991995,N,12054.57827610,E,1,20,0.9,0.3789,M,8.7153,M,,*4F
97604,42591300,$GNVTG,249.541,T,256.192,M,0.34148,N,0.63242,K,A*32
97609,42591400,$GNGGA,114951.40,3158.66992263,N,12054.57826723,E,1,20,0.9,0.3729,M,8.7153,M,,*43
97611,42591400,$GNVTG,247.021,T,253.672,M,0.27552,N,0.51026,K,A*3F
97613,42591500,$GNGGA,114951.50,3158.66992128,N,12054.57826124,E,1,20,0.9,0.3773,M,8.7153,M,,*40
97614,42591500,$GNVTG,242.362,T,249.013,M,0.21587,N,0.39979,K,A*37
97616,42591600,$GNGGA,114951.60,3158.66991511,N,12054.57826498,E,1,20,0.9,0.3958,M,8.7153,M,,*4B
97618,42591600,$GNVTG,217.821,T,224.471,M,0.16062,N,0.29746,K,A*39
97623,42591700,$GNGGA,114951.70,3158.66990284,N,12054.57826750,E,1,20,0.9,0.4021,M,8.7153,M,,*47
97625,42591700,$GNVTG,179.500,T,186.151,M,0.17985,N,0.33308,K,A*34
97842,42591800,$GNGGA,114951.80,3158.66989381,N,12054.57827321,E,1,20,0.9,0.3999,M,8.7153,M,,*4A
97844,42591800,$GNVTG,162.277,T,168.928,M,0.26910,N,0.49837,K,A*3B
97846,42591900,$GNGGA,114951.90,3158.66988645,N,12054.57828286,E,1,20,0.9,0.3845,M,8.7153,M,,*44
97848,42591900,$GNVTG,155.304,T,161.955,M,0.31335,N,0.58032,K,A*3F
98151,42592000,$GNGGA,114952.00,3158.66988352,N,12054.57828483,E,1,20,0.9,0.3917,M,8.7153,M,,*48
98157,42592000,$GNVTG,152.644,T,159.295,M,0.31425,N,0.58199,K,A*33
98159,42592100,$GNGGA,114952.10,3158.66979445,N,12054.57822969,E,1,20,0.9,0.4634,M,8.7153,M,,*4C
98161,42592100,$GNVTG,149.714,T,156.365,M,0.21295,N,0.39438,K,A*39
98163,42592200,$GNGGA,114952.20,3158.66979332,N,12054.57823167,E,1,20,0.9,0.4511,M,8.7153,M,,*4B
98165,42592200,$GNVTG,168.785,T,175.435,M,0.11196,N,0.20735,K,A*34
98455,42592300,$GNGGA,114952.30,3158.66978852,N,12054.57823238,E,1,20,0.9,0.4605,M,8.7153,M,,*49
98457,42592300,$GNVTG,181.585,T,188.235,M,0.09335,N,0.17289,K,A*31
98459,42592400,$GNGGA,114952.40,3158.66978491,N,12054.57822911,E,1,20,0.9,0.4612,M,8.7153,M,,*4A
98460,42592400,$GNVTG,195.088,T,201.738,M,0.10440,N,0.19334,K,A*32
98462,42592500,$GNGGA,114952.50,3158.66977999,N,12054.57821733,E,1,20,0.9,0.4640,M,8.7153,M,,*4B
98464,42592500,$GNVTG,229.991,T,236.642,M,0.17948,N,0.33239,K,A*39
98795,42592600,$GNGGA,114952.60,3158.66978470,N,12054.57820168,E,1,20,0.9,0.4482,M,8.7153,M,,*48
98801,42592600,$GNVTG,253.020,T,259.671,M,0.28400,N,0.52596,K,A*36
98803,42592700,$GNGGA,114952.70,3158.66979792,N,12054.57817420,E,1,20,0.9,0.4368,M,8.7153,M,,*49
98805,42592700,$GNVTG,282.870,T,289.521,M,0.55487,N,1.02762,K,A*34
98807,42592800,$GNGGA,114952.80,3158.66982166,N,12054.57813491,E,1,20,0.9,0.4161,M,8.7153,M,,*4A
98809,42592800,$GNVTG,301.794,T,308.445,M,1.15705,N,2.14287,K,A*36
98811,42592900,$GNGGA,114952.90,3158.66986681,N,12054.57807702,E,1,20,0.9,0.4164,M,8.7153,M,,*48
98812,42592900,$GNVTG,311.764,T,318.415,M,2.21324,N,4.09893,K,A*3A
99100,42593000,$GNGGA,114953.00,3158.66993390,N,12054.57802540,E,1,20,0.9,0.4047,M,8.7153,M,,*40
99102,42593000,$GNVTG,322.291,T,328.942,M,3.05306,N,5.65426,K,A*37
99104,42593100,$GNGGA,114953.10,3158.67000511,N,12054.57776610,E,1,22,0.8,0.5680,M,8.7153,M,,*49
99106,42593100,$GNVTG,332.947,T,339.597,M,3.40332,N,6.30295,K,A*39
99108,42593200,$GNGGA,114953.20,3158.67008117,N,12054.57777313,E,1,22,0.8,0.5648,M,8.7153,M,,*43
99109,42593200,$GNVTG,353.228,T,359.879,M,3.14014,N,5.81554,K,A*32
99432,42593300,$GNGGA,114953.30,3158.67014863,N,12054.57779559,E,1,22,0.8,0.5579,M,8.7153,M,,*42
99438,42593300,$GNVTG,15.542,T,22.193,M,2.90093,N,5.37253,K,A*35
99440,42593400,$GNGGA,114953.40,3158.67020593,N,12054.57782574,E,1,22,0.8,0.5411,M,8.7153,M,,*44
99442,42593400,$GNVTG,30.624,T,37.275,M,2.53361,N,4.69225,K,A*34
99444,42593500,$GNGGA,114953.50,3158.67026257,N,12054.57787115,E,1,22,0.8,0.4703,M,8.7153,M,,*4B
99449,42593500,$GNVTG,37.810,T,44.461,M,2.34379,N,4.34069,K,A*37
99739,42593600,$GNGGA,114953.60,3158.67030230,N,12054.57793457,E,1,22,0.8,0.4551,M,8.7153,M,,*4D
99741,42593600,$GNVTG,55.289,T,61.939,M,2.13809,N,3.95973,K,A*39
99743,42593700,$GNGGA,114953.70,3158.67030823,N,12054.57801801,E,1,22,0.8,0.4146,M,8.7153,M,,*4D
99745,42593700,$GNVTG,66.396,T,73.047,M,2.08370,N,3.85901,K,A*3E
99747,42593800,$GNGGA,114953.80,3158.67029803,N,12054.57809979,E,1,22,0.8,0.4345,M,8.7153,M,,*4F
99751,42593800,$GNVTG,79.431,T,86.082,M,2.14312,N,3.96907,K,A*34
100046,42593900,$GNGGA,114953.90,3158.67026997,N,12054.57817964,E,1,22,0.8,0.3862,M,8.7153,M,,*47
100052,42593900,$GNVTG,94.492,T,101.143,M,2.20730,N,4.08791,K,A*0E
100054,42594000,$GNGGA,114954.00,3158.67020587,N,12054.57821716,E,1,22,0.8,0.3717,M,8.7153,M,,*41
100056,42594000,$GNVTG,108.484,T,115.135,M,2.17174,N,4.02205,K,A*39
100058,42594100,$GNGGA,114954.10,3158.67023260,N,12054.57787472,E,1,22,0.8,0.6949,M,8.7153,M,,*4F
100060,42594100,$GNVTG,122.549,T,129.199,M,1.93486,N,3.58337,K,A*37
100353,42594200,$GNGGA,114954.20,3158.67022174,N,12054.57786075,E,1,22,0.8,0.6741,M,8.7153,M,,*4F
100355,42594200,$GNVTG,131.100,T,137.750,M,1.31361,N,2.43280,K,A*30
100357,42594300,$GNGGA,114954.30,3158.67027910,N,12054.57785714,E,1,22,0.8,0.6364,M,8.7153,M,,*41
100359,42594300,$GNVTG,130.422,T,137.072,M,0.27226,N,0.50423,K,A*38
100361,42594400,$GNGGA,114954.40,3158.67038266,N,12054.57782610,E,1,22,0.8,0.6326,M,8.7153,M,,*46
100362,42594400,$GNVTG,341.719,T,348.370,M,1.47207,N,2.72627,K,A*3C
100654,42594500,$GNGGA,114954.50,3158.67050136,N,12054.57777026,E,1,22,0.8,0.6607,M,8.7153,M,,*40
100660,42594500,$GNVTG,339.347,T,345.997,M,3.00814,N,5.57108,K,A*31
100662,42594600,$GNGGA,114954.60,3158.67060211,N,12054.57765933,E,1,22,0.8,0.7032,M,8.7153,M,,*49
100663,42594600,$GNVTG,333.466,T,340.116,M,4.06340,N,7.52542,K,A*3D
100665,42594700,$GNGGA,114954.70,3158.67067004,N,12054.57752872,E,1,22,0.8,0.7432,M,8.7153,M,,*4D
100667,42594700,$GNVTG,326.797,T,333.447,M,4.40784,N,8.16333,K,A*30
100960,42594800,$GNGGA,114954.80,3158.67068839,N,12054.57740428,E,1,22,0.8,0.7902,M,8.7153,M,,*45
100962,42594800,$GNVTG,316.435,T,323.085,M,4.07286,N,7.54294,K,A*32
100964,42594900,$GNGGA,114954.90,3158.67069445,N,12054.57731008,E,1,22,0.8,0.8122,M,8.7153,M,,*47
100966,42594900,$GNVTG,303.911,T,310.561,M,3.39261,N,6.28311,K,A*37
100968,42595000,$GNGGA,114955.00,3158.67070348,N,12054.57725217,E,1,22,0.8,0.8465,M,8.7153,M,,*42
100969,42595000,$GNVTG,293.187,T,299.836,M,2.62408,N,4.85980,K,A*36
101267,42595100,$GNGGA,114955.10,3158.67071037,N,12054.57720454,E,1,20,0.9,0.8604,M,8.7153,M,,*4B
101273,42595100,$GNVTG,288.539,T,295.189,M,1.99110,N,3.68751,K,A*31
101275,42595200,$GNGGA,114955.20,3158.67072079,N,12054.57716491,E,1,20,0.9,0.8882,M,8.7153,M,,*4D
101277,42595200,$GNVTG,288.719,T,295.369,M,1.54197,N,2.85574,K,A*34
101279,42595300,$GNGGA,114955.30,3158.67072700,N,12054.57711115,E,1,20,0.9,0.8779,M,8.7153,M,,*40
101281,42595300,$GNVTG,294.034,T,300.684,M,1.17182,N,2.17022,K,A*34
101286,42595400,$GNGGA,114955.40,3158.67072117,N,12054.57705910,E,1,20,0.9,0.8695,M,8.7152,M,,*4D
101287,42595400,$GNVTG,291.711,T,298.361,M,1.39948,N,2.59183,K,A*3D
101575,42595500,$GNGGA,114955.50,3158.67070557,N,12054.57699914,E,1,20,0.9,0.8545,M,8.7152,M,,*40
101577,42595500,$GNVTG,269.963,T,276.612,M,1.82653,N,3.38273,K,A*3F
101579,42595600,$GNGGA,114955.60,3158.67066608,N,12054.57694471,E,1,20,0.9,0.8489,M,8.7152,M,,*4F
101581,42595600,$GNVTG,252.088,T,258.738,M,2.00868,N,3.72008,K,A*31
101586,42595700,$GNGGA,114955.70,3158.67061576,N,12054.57691967,E,1,20,0.9,0.8684,M,8.7152,M,,*43
101587,42595700,$GNVTG,232.691,T,239.341,M,2.01340,N,3.72881,K,A*3D
101881,42595800,$GNGGA,114955.80,3158.67054866,N,12054.57692784,E,1,20,0.9,0.8556,M,8.7152,M,,*4A
101887,42595800,$GNVTG,207.790,T,214.440,M,1.99430,N,3.69345,K,A*39
101889,42595900,$GNGGA,114955.90,3158.67048531,N,12054.57695477,E,1,20,0.9,0.8477,M,8.7152,M,,*43
101891,42595900,$GNVTG,184.458,T,191.108,M,2.12767,N,3.94044,K,A*30
101893,42596000,$GNGGA,114956.00,3158.67042594,N,12054.57700236,E,1,20,0.9,0.8661,M,8.7152,M,,*47
101898,42596000,$GNVTG,144.917,T,151.567,M,2.81153,N,5.20695,K,A*33
102185,42596100,$GNGGA,114956.10,3158.67089820,N,12054.57784600,E,1,22,0.8,0.7901,M,8.7153,M,,*4A
102187,42596100,$GNVTG,139.929,T,146.579,M,2.74394,N,5.08178,K,A*30
102189,42596200,$GNGGA,114956.20,3158.67084069,N,12054.57788275,E,1,22,0.8,0.7510,M,8.7153,M,,*47
102191,42596200,$GNVTG,143.108,T,149.758,M,2.42686,N,4.49455,K,A*35
102193,42596300,$GNGGA,114956.30,3158.67078483,N,12054.57792113,E,1,22,0.8,0.7411,M,8.7153,M,,*4D
102197,42596300,$GNVTG,147.850,T,154.500,M,2.19987,N,4.07415,K,A*38
102509,42596400,$GNGGA,114956.40,3158.67073844,N,12054.57795883,E,1,22,0.8,0.7589,M,8.7153,M,,*41
102515,42596400,$GNVTG,149.830,T,156.480,M,2.00920,N,3.72103,K,A*39
102517,42596500,$GNGGA,114956.50,3158.67068689,N,12054.57797788,E,1,22,0.8,0.7588,M,8.7153,M,,*42
102519,42596500,$GNVTG,157.358,T,164.008,M,1.84529,N,3.41748,K,A*35
102521,42596600,$GNGGA,114956.60,3158.67063149,N,12054.57799196,E,1,22,0.8,0.7470,M,8.7153,M,,*40
102526,42596600,$GNVTG,166.673,T,173.323,M,1.80490,N,3.34267,K,A*3A
102814,42596700,$GNGGA,114956.70,3158.67057024,N,12054.57800087,E,1,22,0.8,0.7201,M,8.7153,M,,*42
102816,42596700,$GNVTG,176.509,T,183.159,M,1.99977,N,3.70358,K,A*34
102818,42596800,$GNGGA,114956.80,3158.67050128,N,12054.57802607,E,1,22,0.8,0.6726,M,8.7153,M,,*4A
102820,42596800,$GNVTG,174.747,T,181.397,M,2.25465,N,4.17561,K,A*3C
102822,42596900,$GNGGA,114956.90,3158.67042341,N,12054.57806228,E,1,22,0.8,0.6609,M,8.7153,M,,*44
102827,42596900,$GNVTG,163.428,T,170.078,M,2.95606,N,5.47463,K,A*37
103121,42597000,$GNGGA,114957.00,3158.67035354,N,12054.57811113,E,1,22,0.8,0.6770,M,8.7153,M,,*4A
103128,42597000,$GNVTG,151.212,T,157.862,M,3.23278,N,5.98711,K,A*3A
103130,42597100,$GNGGA,114957.10,3158.67031051,N,12054.57831985,E,1,23,0.8,0.3843,M,8.7153,M,,*47
103131,42597100,$GNVTG,143.948,T,150.599,M,3.26264,N,6.04241,K,A*3D
103133,42597200,$GNGGA,114957.20,3158.67024636,N,12054.57837757,E,1,23,0.8,0.3765,M,8.7153,M,,*4B
103138,42597200,$GNVTG,140.339,T,146.990,M,3.15990,N,5.85213,K,A*3D
103429,42597300,$GNGGA,114957.30,3158.67019171,N,12054.57841162,E,1,23,0.8,0.3827,M,8.7153,M,,*48
103431,42597300,$GNVTG,142.976,T,149.627,M,2.61269,N,4.83870,K,A*35
103433,42597400,$GNGGA,114957.40,3158.67012951,N,12054.57841293,E,1,23,0.8,0.4033,M,8.7153,M,,*49
103435,42597400,$GNVTG,164.607,T,171.258,M,2.05812,N,3.81163,K,A*35
103437,42597500,$GNGGA,114957.50,3158.67006590,N,12054.57839825,E,1,23,0.8,0.4353,M,8.7153,M,,*41
103470,42597500,$GNVTG,179.701,T,186.352,M,2.04586,N,3.78893,K,A*3C
103730,42597600,$GNGGA,114957.60,3158.66999557,N,12054.57838098,E,1,23,0.8,0.4336,M,8.7153,M,,*4B
104335,42597600,$GNVTG,199.093,T,205.744,M,2.50359,N,4.63664,K,A*3B
104339,42597700,$GNGGA,114957.70,3158.66992501,N,12054.57838341,E,1,23,0.8,0.3675,M,8.7153,M,,*40
104341,42597700,$GNVTG,196.957,T,203.608,M,2.66502,N,4.93561,K,A*3E
104343,42597800,$GNGGA,114957.80,3158.66985051,N,12054.57841397,E,1,23,0.8,0.3260,M,8.7153,M,,*4C
104346,42597800,$GNVTG,186.188,T,192.839,M,2.66796,N,4.94106,K,A*3F
104348,42597900,$GNGGA,114957.90,3158.66977734,N,12054.57848130,E,1,23,0.8,0.3671,M,8.7154,M,,*41
104349,42597900,$GNVTG,165.656,T,172.307,M,2.77239,N,5.13446,K,A*31
104351,42598000,$GNGGA,114958.00,3158.66971690,N,12054.57858084,E,1,23,0.8,0.4089,M,8.7154,M,,*47
104353,42598000,$GNVTG,146.795,T,153.445,M,3.16711,N,5.86549,K,A*37
104355,42598100,$GNGGA,114958.10,3158.66940335,N,12054.57863543,E,1,22,0.8,0.3901,M,8.7154,M,,*47
104360,42598100,$GNVTG,134.659,T,141.310,M,3.49957,N,6.48121,K,A*3A
104362,42598200,$GNGGA,114958.20,3158.66936262,N,12054.57872595,E,1,22,0.8,0.3795,M,8.7154,M,,*4E
104364,42598200,$GNVTG,128.926,T,135.577,M,3.52563,N,6.52947,K,A*36
104366,42598300,$GNGGA,114958.30,3158.66932439,N,12054.57879040,E,1,22,0.8,0.3645,M,8.7154,M,,*49
104367,42598300,$GNVTG,128.643,T,135.294,M,3.25572,N,6.02959,K,A*3A
104369,42598400,$GNGGA,114958.40,3158.66928043,N,12054.57884104,E,1,22,0.8,0.3461,M,8.7154,M,,*4B
104371,42598400,$GNVTG,132.299,T,138.951,M,2.81195,N,5.20773,K,A*3A
104376,42598500,$GNGGA,114958.50,3158.66923215,N,12054.57887749,E,1,22,0.8,0.3734,M,8.7154,M,,*4F
104378,42598500,$GNVTG,138.791,T,145.442,M,2.42303,N,4.48745,K,A*30
104690,42598600,$GNGGA,114958.60,3158.66918089,N,12054.57891087,E,1,22,0.8,0.3757,M,8.7154,M,,*44
104692,42598600,$GNVTG,147.048,T,153.699,M,2.23970,N,4.14792,K,A*32
104694,42598700,$GNGGA,114958.70,3158.66911805,N,12054.57896189,E,1,22,0.8,0.3827,M,8.7154,M,,*40
104696,42598700,$GNVTG,148.989,T,155.640,M,2.30889,N,4.27607,K,A*33
104701,42598800,$GNGGA,114958.80,3158.66907559,N,12054.57904076,E,1,22,0.8,0.3450,M,8.7154,M,,*4B
104703,42598800,$GNVTG,141.083,T,147.734,M,2.71289,N,5.02427,K,A*31
104993,42598900,$GNGGA,114958.90,3158.66904137,N,12054.57913849,E,1,22,0.8,0.3446,M,8.7154,M,,*40
104999,42598900,$GNVTG,133.098,T,139.749,M,2.94395,N,5.45220,K,A*38
105001,42599000,$GNGGA,114959.00,3158.66903459,N,12054.57924924,E,1,22,0.8,0.3567,M,8.7154,M,,*4E
105004,42599000,$GNVTG,121.637,T,128.288,M,3.16566,N,5.86280,K,A*34
105006,42599100,$GNGGA,114959.10,3158.66853317,N,12054.57891337,E,1,24,0.7,0.8759,M,8.7154,M,,*4C
105008,42599100,$GNVTG,108.468,T,115.117,M,3.22913,N,5.98035,K,A*36
105295,42599200,$GNGGA,114959.20,3158.66854572,N,12054.57900348,E,1,24,0.7,0.8967,M,8.7154,M,,*4F
105297,42599200,$GNVTG,99.037,T,105.686,M,3.12152,N,5.78106,K,A*0E
105299,42599300,$GNGGA,114959.30,3158.66854608,N,12054.57907552,E,1,24,0.7,0.8790,M,8.7154,M,,*4C
105303,42599300,$GNVTG,94.557,T,101.207,M,2.81214,N,5.20809,K,A*08
105305,42599400,$GNGGA,114959.40,3158.66853702,N,12054.57914524,E,1,24,0.7,0.8409,M,8.7154,M,,*47
105307,42599400,$GNVTG,93.919,T,100.568,M,2.50480,N,4.63889,K,A*0F
105603,42599500,$GNGGA,114959.50,3158.66852651,N,12054.57921741,E,1,24,0.7,0.8271,M,8.7154,M,,*4E
105607,42599500,$GNVTG,96.552,T,103.202,M,2.30040,N,4.26034,K,A*00
105609,42599600,$GNGGA,114959.60,3158.66850867,N,12054.57928185,E,1,24,0.7,0.8125,M,8.7154,M,,*41
105612,42599600,$GNVTG,101.280,T,107.930,M,2.18893,N,4.05389,K,A*31
105614,42599700,$GNGGA,114959.70,3158.66846190,N,12054.57932635,E,1,24,0.7,0.8077,M,8.7154,M,,*47
105616,42599700,$GNVTG,107.412,T,114.062,M,2.13295,N,3.95023,K,A*3C
105936,42599800,$GNGGA,114959.80,3158.66843662,N,12054.57938912,E,1,24,0.7,0.7138,M,8.7154,M,,*42
105938,42599800,$GNVTG,112.553,T,119.203,M,2.13343,N,3.95110,K,A*3F
105940,42599900,$GNGGA,114959.90,3158.66842563,N,12054.57948056,E,1,24,0.7,0.7090,M,8.7154,M,,*4D
105945,42599900,$GNVTG,110.045,T,116.695,M,2.20386,N,4.08155,K,A*30
105947,42600000,$GNGGA,115000.00,3158.66844223,N,12054.57959064,E,1,24,0.7,0.7091,M,8.7154,M,,*45
105948,42600000,$GNVTG,85.102,T,91.752,M,3.26896,N,6.05412,K,A*3F
106236,42600100,$GNGGA,115000.10,3158.66828010,N,12054.57955178,E,1,24,0.7,1.0510,M,8.7154,M,,*46
106242,42600100,$GNVTG,76.364,T,83.013,M,3.77892,N,6.99856,K,A*39
106244,42600200,$GNGGA,115000.20,3158.66832726,N,12054.57963717,E,1,24,0.7,1.0529,M,8.7154,M,,*4C
106247,42600200,$GNVTG,70.211,T,76.860,M,3.82788,N,7.08922,K,A*3F
106249,42600300,$GNGGA,115000.30,3158.66836162,N,12054.57972671,E,1,24,0.7,1.0367,M,8.7154,M,,*42
106251,42600300,$GNVTG,66.662,T,73.311,M,3.54752,N,6.57002,K,A*3C
106539,42600400,$GNGGA,115000.40,3158.66834887,N,12054.57979766,E,1,24,0.7,1.0412,M,8.7154,M,,*4C
106540,42600400,$GNVTG,69.561,T,76.211,M,2.90153,N,5.37363,K,A*38
106543,42600500,$GNGGA,115000.50,3158.66831263,N,12054.57987240,E,1,24,0.7,1.0348,M,8.7155,M,,*41
106547,42600500,$GNVTG,83.611,T,90.260,M,2.33489,N,4.32422,K,A*3B
106549,42600600,$GNGGA,115000.60,3158.66825010,N,12054.57990776,E,1,24,0.7,1.0447,M,8.7155,M,,*4F
106551,42600600,$GNVTG,111.514,T,118.163,M,2.13895,N,3.96134,K,A*3E
106842,42600700,$GNGGA,115000.70,3158.66819605,N,12054.57993277,E,1,24,0.7,1.0512,M,8.7155,M,,*45
106848,42600700,$GNVTG,132.008,T,138.657,M,2.14853,N,3.97907,K,A*31
106850,42600800,$GNGGA,115000.80,3158.66815221,N,12054.57996119,E,1,24,0.7,1.0620,M,8.7155,M,,*48
106852,42600800,$GNVTG,139.308,T,145.957,M,2.05584,N,3.80742,K,A*32
106854,42600900,$GNGGA,115000.90,3158.66814833,N,12054.58002160,E,1,24,0.7,0.9654,M,8.7155,M,,*4F
106858,42600900,$GNVTG,134.866,T,141.515,M,1.89617,N,3.51170,K,A*37
107157,42601000,$GNGGA,115001.00,3158.66814649,N,12054.58014096,E,1,24,0.7,0.9388,M,8.7155,M,,*4F
107159,42601000,$GNVTG,114.136,T,120.785,M,2.04167,N,3.78116,K,A*38
107161,42601100,$GNGGA,115001.10,3158.66814453,N,12054.58035320,E,1,23,0.7,1.1110,M,8.7155,M,,*47
107163,42601100,$GNVTG,87.475,T,94.124,M,3.06244,N,5.67164,K,A*3E
107165,42601200,$GNGGA,115001.20,3158.66822076,N,12054.58049154,E,1,23,0.7,1.1405,M,8.7155,M,,*49
107169,42601200,$GNVTG,70.868,T,77.517,M,4.03747,N,7.47740,K,A*3B
107464,42601300,$GNGGA,115001.30,3158.66829595,N,12054.58057128,E,1,23,0.7,1.1472,M,8.7155,M,,*4F
107470,42601300,$GNVTG,61.598,T,68.247,M,4.25184,N,7.87440,K,A*37
107472,42601400,$GNGGA,115001.40,3158.66832618,N,12054.58063600,E,1,23,0.7,1.1305,M,8.7155,M,,*49
107474,42601400,$GNVTG,56.856,T,63.505,M,3.66109,N,6.78034,K,A*35
107476,42601500,$GNGGA,115001.50,3158.66830104,N,12054.58071878,E,1,23,0.7,1.1111,M,8.7155,M,,*45
107480,42601500,$GNVTG,62.469,T,69.118,M,2.77746,N,5.14386,K,A*3F
107482,42601600,$GNGGA,115001.60,3158.66823312,N,12054.58080420,E,1,23,0.7,1.0978,M,8.7155,M,,*48
107484,42601600,$GNVTG,92.996,T,99.645,M,2.19985,N,4.07412,K,A*3D
107772,42601700,$GNGGA,115001.70,3158.66813639,N,12054.58084278,E,1,23,0.7,1.1291,M,8.7155,M,,*44
107774,42601700,$GNVTG,133.165,T,139.814,M,2.70873,N,5.01657,K,A*31
107776,42601800,$GNGGA,115001.80,3158.66807063,N,12054.58084788,E,1,23,0.7,1.1244,M,8.7155,M,,*45
107781,42601800,$GNVTG,146.371,T,153.020,M,2.97629,N,5.51209,K,A*35
108074,42601900,$GNGGA,115001.90,3158.66805155,N,12054.58085954,E,1,23,0.7,1.0408,M,8.7155,M,,*43
108080,42601900,$GNVTG,149.182,T,155.831,M,2.51125,N,4.65084,K,A*3A
108082,42602000,$GNGGA,115002.00,3158.66805095,N,12054.58095602,E,1,23,0.7,1.0210,M,8.7155,M,,*46
108084,42602000,$GNVTG,137.323,T,143.972,M,1.96771,N,3.64420,K,A*38
108085,42602100,$GNGGA,115002.10,3158.66763497,N,12054.58117847,E,1,22,0.8,2.5855,M,8.7155,M,,*49
108090,42602100,$GNVTG,97.456,T,104.101,M,2.21577,N,4.10361,K,A*04
108092,42602200,$GNGGA,115002.20,3158.66769095,N,12054.58132758,E,1,22,0.8,2.6241,M,8.7155,M,,*4C
108094,42602200,$GNVTG,72.577,T,79.222,M,3.47371,N,6.43332,K,A*37
108396,42602300,$GNGGA,115002.30,3158.66776621,N,12054.58143693,E,1,22,0.8,2.6557,M,8.7155,M,,*4A
108398,42602300,$GNVTG,63.971,T,70.616,M,4.17774,N,7.73718,K,A*3A
108400,42602400,$GNGGA,115002.40,3158.66781511,N,12054.58152527,E,1,22,0.8,2.6706,M,8.7155,M,,*4F
108405,42602400,$GNVTG,60.306,T,66.950,M,4.13493,N,7.65790,K,A*30
108407,42602500,$GNGGA,115002.50,3158.66782566,N,12054.58160514,E,1,22,0.8,2.6543,M,8.7155,M,,*4F
108408,42602500,$GNVTG,62.038,T,68.683,M,3.45712,N,6.40258,K,A*3A
108702,42602600,$GNGGA,115002.60,3158.66782495,N,12054.58168554,E,1,22,0.8,2.6290,M,8.7156,M,,*47
108708,42602600,$GNVTG,69.883,T,76.528,M,2.75694,N,5.10585,K,A*38
108710,42602700,$GNGGA,115002.70,3158.66778857,N,12054.58174260,E,1,22,0.8,2.6599,M,8.7156,M,,*42
108713,42602700,$GNVTG,85.462,T,92.106,M,2.29962,N,4.25889,K,A*32
108715,42602800,$GNGGA,115002.80,3158.66774498,N,12054.58180615,E,1,22,0.8,2.6809,M,8.7156,M,,*47
108717,42602800,$GNVTG,100.852,T,107.497,M,2.20491,N,4.08349,K,A*31
109047,42602900,$GNGGA,115002.90,3158.66770737,N,12054.58184704,E,1,22,0.8,2.6387,M,8.7156,M,,*4C
109049,42602900,$GNVTG,110.401,T,117.046,M,2.17352,N,4.02536,K,A*3B
109051,42603000,$GNGGA,115003.00,3158.66770791,N,12054.58192195,E,1,22,0.8,2.5738,M,8.7156,M,,*42
109056,42603000,$GNVTG,110.185,T,116.830,M,2.15195,N,3.98541,K,A*35
109058,42603100,$GNGGA,115003.10,3158.66789910,N,12054.58196344,E,1,23,0.7,0.8940,M,8.7156,M,,*48
109060,42603100,$GNVTG,100.196,T,106.846,M,2.21085,N,4.09449,K,A*37
109348,42603200,$GNGGA,115003.20,3158.66793243,N,12054.58207066,E,1,23,0.7,0.9791,M,8.7156,M,,*46
109354,42603200,$GNVTG,82.778,T,89.428,M,2.50536,N,4.63992,K,A*34
109356,42603300,$GNGGA,115003.30,3158.66799072,N,12054.58217174,E,1,23,0.7,1.0333,M,8.7156,M,,*4A
109359,42603300,$GNVTG,69.186,T,75.835,M,2.92736,N,5.42148,K,A*34
109361,42603400,$GNGGA,115003.40,3158.66802211,N,12054.58225821,E,1,23,0.7,1.0364,M,8.7156,M,,*4D
109363,42603400,$GNVTG,65.518,T,72.167,M,3.13564,N,5.80721,K,A*38
109655,42603500,$GNGGA,115003.50,3158.66805239,N,12054.58234366,E,1,23,0.7,1.0072,M,8.7156,M,,*4D
109656,42603500,$GNVTG,66.546,T,73.196,M,3.05974,N,5.66664,K,A*3D
109659,42603600,$GNGGA,115003.60,3158.66808317,N,12054.58240377,E,1,23,0.7,0.9882,M,8.7156,M,,*42
109663,42603600,$GNVTG,67.220,T,73.870,M,2.77401,N,5.13746,K,A*32
109665,42603700,$GNGGA,115003.70,3158.66810507,N,12054.58243057,E,1,23,0.7,1.0245,M,8.7156,M,,*46
109667,42603700,$GNVTG,65.284,T,71.933,M,2.41120,N,4.46554,K,A*39
109956,42603800,$GNGGA,115003.80,3158.66813746,N,12054.58248472,E,1,23,0.7,1.0491,M,8.7156,M,,*4A
109962,42603800,$GNVTG,62.651,T,69.300,M,2.09671,N,3.88311,K,A*3C
109964,42603900,$GNGGA,115003.90,3158.66813988,N,12054.58255606,E,1,23,0.7,1.0259,M,8.7156,M,,*48
109967,42603900,$GNVTG,65.566,T,72.216,M,1.96762,N,3.64404,K,A*37
109969,42604000,$GNGGA,115004.00,3158.66813813,N,12054.58266802,E,1,23,0.7,0.9674,M,8.7156,M,,*4C
109971,42604000,$GNVTG,75.510,T,82.159,M,2.11613,N,3.91908,K,A*30
110264,42604100,$GNGGA,115004.10,3158.66815088,N,12054.58276067,E,1,22,0.8,0.9279,M,8.7156,M,,*4C
110266,42604100,$GNVTG,82.041,T,88.690,M,2.47187,N,4.57790,K,A*3A
110268,42604200,$GNGGA,115004.20,3158.66816920,N,12054.58284586,E,1,22,0.8,0.9290,M,8.7156,M,,*47
110273,42604200,$GNVTG,83.049,T,89.698,M,3.04028,N,5.63060,K,A*36
110275,42604300,$GNGGA,115004.30,3158.66818522,N,12054.58290660,E,1,22,0.8,0.9818,M,8.7156,M,,*42
110276,42604300,$GNVTG,79.394,T,86.043,M,2.81564,N,5.21456,K,A*39
110564,42604400,$GNGGA,115004.40,3158.66820791,N,12054.58297030,E,1,22,0.8,1.0021,M,8.7156,M,,*4A
110570,42604400,$GNVTG,74.818,T,81.467,M,2.55271,N,4.72761,K,A*34
110572,42604500,$GNGGA,115004.50,3158.66822625,N,12054.58303294,E,1,22,0.8,1.0032,M,8.7156,M,,*45
110575,42604500,$GNVTG,71.319,T,77.968,M,2.25647,N,4.17898,K,A*3C
110577,42604600,$GNGGA,115004.60,3158.66824028,N,12054.58309177,E,1,22,0.8,0.9616,M,8.7156,M,,*47
110578,42604600,$GNVTG,71.411,T,78.060,M,2.04331,N,3.78421,K,A*3A
110877,42604700,$GNGGA,115004.70,3158.66825452,N,12054.58316103,E,1,22,0.8,0.9524,M,8.7156,M,,*41
110878,42604700,$GNVTG,75.120,T,81.770,M,1.93404,N,3.58185,K,A*3C
110880,42604800,$GNGGA,115004.80,3158.66825861,N,12054.58322094,E,1,22,0.8,0.9680,M,8.7156,M,,*47
110885,42604800,$GNVTG,79.073,T,85.722,M,1.92237,N,3.56023,K,A*30
110887,42604900,$GNGGA,115004.90,3158.66825794,N,12054.58326627,E,1,22,0.8,0.9616,M,8.7156,M,,*46
110889,42604900,$GNVTG,82.961,T,89.610,M,1.90505,N,3.52816,K,A*3C
110891,42605000,$GNGGA,115005.00,3158.66826435,N,12054.58332804,E,1,22,0.8,0.9724,M,8.7156,M,,*4F
110892,42605000,$GNVTG,84.466,T,91.115,M,1.87473,N,3.47200,K,A*34
111178,42605100,$GNGGA,115005.10,3158.66905462,N,12054.58362855,E,1,23,0.7,-1.8529,M,8.7156,M,,*61
111185,42605100,$GNVTG,84.773,T,91.430,M,1.80089,N,3.33525,K,A*34
111187,42605200,$GNGGA,115005.20,3158.66906414,N,12054.58367703,E,1,23,0.7,-1.8537,M,8.7156,M,,*66
111189,42605200,$GNVTG,83.649,T,90.306,M,1.70585,N,3.15923,K,A*30
111191,42605300,$GNGGA,115005.30,3158.66908670,N,12054.58372767,E,1,23,0.7,-1.8518,M,8.7156,M,,*62
111193,42605300,$GNVTG,80.478,T,87.135,M,1.61481,N,2.99064,K,A*3D
111484,42605400,$GNGGA,115005.40,3158.66911092,N,12054.58377179,E,1,23,0.7,-1.8399,M,8.7156,M,,*64
111486,42605400,$GNVTG,75.400,T,82.057,M,1.53505,N,2.84291,K,A*30
111490,42605500,$GNGGA,115005.50,3158.66911236,N,12054.58379321,E,1,23,0.7,-1.8013,M,8.7156,M,,*69
111492,42605500,$GNVTG,72.504,T,79.161,M,1.44547,N,2.67700,K,A*32
111494,42605600,$GNGGA,115005.60,3158.66911164,N,12054.58382297,E,1,23,0.7,-1.8082,M,8.7156,M,,*6E
111496,42605600,$GNVTG,73.436,T,80.093,M,1.34905,N,2.49844,K,A*37
111787,42605700,$GNGGA,115005.70,3158.66913065,N,12054.58387428,E,1,23,0.7,-1.8057,M,8.7156,M,,*62
111793,42605700,$GNVTG,88.646,T,95.303,M,1.09562,N,2.02908,K,A*3D
111795,42605800,$GNGGA,115005.80,3158.66914580,N,12054.58392245,E,1,23,0.7,-1.8088,M,8.7156,M,,*6F
111798,42605800,$GNVTG,91.059,T,97.716,M,1.11018,N,2.05605,K,A*3B
111800,42605900,$GNGGA,115005.90,3158.66916785,N,12054.58397640,E,1,23,0.7,-1.8148,M,8.7157,M,,*63
111802,42605900,$GNVTG,87.825,T,94.482,M,1.13050,N,2.09369,K,A*3F
112123,42606000,$GNGGA,115006.00,3158.66918034,N,12054.58402150,E,1,23,0.7,-1.8086,M,8.7157,M,,*64
112125,42606000,$GNVTG,82.040,T,88.697,M,1.21231,N,2.24519,K,A*30
112127,42606100,$GNGGA,115006.10,3158.66937292,N,12054.58400899,E,1,20,0.8,-1.2796,M,8.7157,M,,*68
112132,42606100,$GNVTG,78.045,T,84.700,M,1.28255,N,2.37529,K,A*39
112134,42606200,$GNGGA,115006.20,3158.66937961,N,12054.58404858,E,1,20,0.8,-1.2695,M,8.7157,M,,*67
112136,42606200,$GNVTG,75.011,T,81.667,M,1.31186,N,2.42956,K,A*33
112424,42606300,$GNGGA,115006.30,3158.66937824,N,12054.58408277,E,1,20,0.8,-1.2841,M,8.7157,M,,*6A
112430,42606300,$GNVTG,80.050,T,86.706,M,1.19180,N,2.20721,K,A*3B
112432,42606400,$GNGGA,115006.40,3158.66938351,N,12054.58413372,E,1,20,0.8,-1.2963,M,8.7157,M,,*64
112435,42606400,$GNVTG,85.800,T,92.456,M,1.12053,N,2.07523,K,A*31
112437,42606500,$GNGGA,115006.50,3158.66938832,N,12054.58418116,E,1,20,0.8,-1.3097,M,8.7157,M,,*63
112439,42606500,$GNVTG,93.901,T,100.557,M,1.14077,N,2.11271,K,A*0B
112728,42606600,$GNGGA,115006.60,3158.66938436,N,12054.58423656,E,1,20,0.8,-1.3181,M,8.7157,M,,*65
112730,42606600,$GNVTG,97.354,T,104.010,M,1.19753,N,2.21783,K,A*00
112732,42606700,$GNGGA,115006.70,3158.66938262,N,12054.58428537,E,1,20,0.8,-1.3180,M,8.7157,M,,*6D
112737,42606700,$GNVTG,96.745,T,103.400,M,1.27778,N,2.36646,K,A*0D
112739,42606800,$GNGGA,115006.80,3158.66938281,N,12054.58432562,E,1,20,0.8,-1.2962,M,8.7157,M,,*61
112740,42606800,$GNVTG,95.154,T,101.809,M,1.30583,N,2.41840,K,A*07
113033,42606900,$GNGGA,115006.90,3158.66939210,N,12054.58435743,E,1,20,0.8,-1.2990,M,8.7157,M,,*62
113035,42606900,$GNVTG,91.769,T,98.425,M,1.25009,N,2.31517,K,A*33
113037,42607000,$GNGGA,115007.00,3158.66940587,N,12054.58439514,E,1,20,0.8,-1.2900,M,8.7157,M,,*68
113042,42607000,$GNVTG,87.135,T,93.791,M,1.15346,N,2.13622,K,A*32
113044,42607100,$GNGGA,115007.10,3158.66926580,N,12054.58430263,E,1,18,0.9,-1.6747,M,8.7157,M,,*63
113045,42607100,$GNVTG,80.565,T,87.222,M,1.10876,N,2.05343,K,A*34
113427,42607200,$GNGGA,115007.20,3158.66928131,N,12054.58434239,E,1,18,0.9,-1.6661,M,8.7157,M,,*6E
113429,42607200,$GNVTG,77.459,T,84.115,M,1.06050,N,1.96405,K,A*31
113431,42607300,$GNGGA,115007.30,3158.66929561,N,12054.58439498,E,1,18,0.9,-1.6518,M,8.7157,M,,*62
113436,42607300,$GNVTG,75.839,T,82.496,M,1.05075,N,1.94598,K,A*32
113438,42607400,$GNGGA,115007.40,3158.66929931,N,12054.58442450,E,1,18,0.9,-1.6168,M,8.7157,M,,*67
113440,42607400,$GNVTG,75.910,T,82.566,M,1.05914,N,1.96153,K,A*39
113442,42607500,$GNGGA,115007.50,3158.66931863,N,12054.58444542,E,1,18,0.9,-1.6031,M,8.7157,M,,*60
113444,42607500,$GNVTG,71.645,T,78.301,M,0.93410,N,1.72995,K,A*3F
113736,42607600,$GNGGA,115007.60,3158.66934568,N,12054.58445480,E,1,18,0.9,-1.5759,M,8.7157,M,,*64
113744,42607600,$GNVTG,53.239,T,59.895,M,0.56240,N,1.04156,K,A*39
113746,42607700,$GNGGA,115007.70,3158.66935663,N,12054.58444289,E,1,18,0.9,-1.6023,M,8.7157,M,,*6B
113747,42607700,$GNVTG,38.346,T,45.003,M,0.38222,N,0.70787,K,A*33
113749,42607800,$GNGGA,115007.80,3158.66933464,N,12054.58445207,E,1,18,0.9,-1.5773,M,8.7157,M,,*61
113751,42607800,$GNVTG,335.473,T,342.129,M,0.09807,N,0.18162,K,A*3D
114036,42607900,$GNGGA,115007.90,3158.66934008,N,12054.58448362,E,1,18,0.9,-1.6264,M,8.7157,M,,*66
114038,42607900,$GNVTG,42.384,T,49.040,M,0.07675,N,0.14214,K,A*3C
114043,42608000,$GNGGA,115008.00,3158.66933209,N,12054.58453415,E,1,18,0.9,-1.6219,M,8.7157,M,,*63
114045,42608000,$GNVTG,78.302,T,84.958,M,0.21507,N,0.39830,K,A*3B
114047,42608100,$GNGGA,115008.10,3158.66907722,N,12054.58437637,E,1,21,0.9,-1.6768,M,8.7157,M,,*60
114049,42608100,$GNVTG,81.703,T,88.360,M,0.42616,N,0.78924,K,A*32
114341,42608200,$GNGGA,115008.20,3158.66907684,N,12054.58443253,E,1,21,0.9,-1.6622,M,8.7157,M,,*64
114349,42608200,$GNVTG,79.493,T,86.149,M,0.65604,N,1.21498,K,A*39
114351,42608300,$GNGGA,115008.30,3158.66907173,N,12054.58448462,E,1,20,0.8,-1.6396,M,8.7157,M,,*6F
114353,42608300,$GNVTG,78.051,T,84.707,M,0.87008,N,1.61139,K,A*30
114355,42608400,$GNGGA,115008.40,3158.66908212,N,12054.58454584,E,1,20,0.8,-1.6415,M,8.7157,M,,*6B
114356,42608400,$GNVTG,77.516,T,84.173,M,1.01212,N,1.87445,K,A*3C
114641,42608500,$GNGGA,115008.50,3158.66908561,N,12054.58459516,E,1,20,0.8,-1.6803,M,8.7157,M,,*64
114643,42608500,$GNVTG,77.560,T,84.217,M,1.06124,N,1.96542,K,A*3B
114646,42608600,$GNGGA,115008.60,3158.66909534,N,12054.58465087,E,1,21,0.9,-1.6966,M,8.7157,M,,*66
114648,42608600,$GNVTG,77.066,T,83.723,M,1.10345,N,2.04359,K,A*3B
114650,42608700,$GNGGA,115008.70,3158.66912068,N,12054.58473542,E,1,21,0.9,-1.7054,M,8.7157,M,,*63
114651,42608700,$GNVTG,75.316,T,81.973,M,1.20912,N,2.23930,K,A*3F
114944,42608800,$GNGGA,115008.80,3158.66913366,N,12054.58481187,E,1,21,0.9,-1.6839,M,8.7157,M,,*62
114951,42608800,$GNVTG,71.674,T,78.331,M,1.36661,N,2.53096,K,A*3E
114953,42608900,$GNGGA,115008.90,3158.66914359,N,12054.58488144,E,1,21,0.9,-1.6749,M,8.7157,M,,*66
114955,42608900,$GNVTG,71.477,T,78.134,M,1.53383,N,2.84065,K,A*34
114957,42609000,$GNGGA,115009.00,3158.66913680,N,12054.58495506,E,1,21,0.9,-1.6319,M,8.7157,M,,*67
114958,42609000,$GNVTG,74.861,T,81.517,M,1.69822,N,3.14510,K,A*3F
115252,42609100,$GNGGA,115009.10,3158.66910769,N,12054.58464186,E,1,22,0.8,-1.6448,M,8.7157,M,,*60
115254,42609100,$GNVTG,80.103,T,86.760,M,1.83334,N,3.39534,K,A*3D
115259,42609200,$GNGGA,115009.20,3158.66910405,N,12054.58472672,E,1,22,0.8,-1.6515,M,8.7157,M,,*68
115260,42609200,$GNVTG,84.734,T,91.390,M,1.93037,N,3.57505,K,A*3D
115262,42609300,$GNGGA,115009.30,3158.66909860,N,12054.58481192,E,1,22,0.8,-1.6947,M,8.7157,M,,*60
115264,42609300,$GNVTG,87.304,T,93.960,M,1.99931,N,3.70273,K,A*38
115553,42609400,$GNGGA,115009.40,3158.66910300,N,12054.58489432,E,1,22,0.8,-1.6966,M,8.7157,M,,*66
115565,42609400,$GNVTG,86.898,T,93.555,M,2.06965,N,3.83299,K,A*31
115567,42609500,$GNGGA,115009.50,3158.66910168,N,12054.58496935,E,1,22,0.8,-1.6481,M,8.7157,M,,*6B
115568,42609500,$GNVTG,84.976,T,91.633,M,2.09226,N,3.87486,K,A*3C
115570,42609600,$GNGGA,115009.60,3158.66910878,N,12054.58503260,E,1,22,0.8,-1.6429,M,8.7157,M,,*64
115572,42609600,$GNVTG,83.035,T,89.692,M,2.04472,N,3.78683,K,A*3A
115860,42609700,$GNGGA,115009.70,3158.66912100,N,12054.58508411,E,1,22,0.8,-1.6532,M,8.7157,M,,*61
115862,42609700,$GNVTG,80.718,T,87.374,M,1.92552,N,3.56606,K,A*3C
115867,42609800,$GNGGA,115009.80,3158.66913521,N,12054.58514106,E,1,22,0.8,-1.6578,M,8.7157,M,,*68
115869,42609800,$GNVTG,77.776,T,84.433,M,1.80085,N,3.33517,K,A*37
115870,42609900,$GNGGA,115009.90,3158.66915610,N,12054.58520026,E,1,22,0.8,-1.6818,M,8.7157,M,,*61
115872,42609900,$GNVTG,74.409,T,81.066,M,1.70630,N,3.16007,K,A*3A
116165,42610000,$GNGGA,115010.00,3158.66917604,N,12054.58526406,E,1,22,0.8,-1.6845,M,8.7157,M,,*6F
116172,42610000,$GNVTG,71.564,T,78.221,M,1.70332,N,3.15454,K,A*34
116174,42610100,$GNGGA,115010.10,3158.66922732,N,12054.58510116,E,1,21,0.8,-1.5606,M,8.7157,M,,*64
116176,42610100,$GNVTG,69.842,T,76.499,M,1.72777,N,3.19983,K,A*33
116178,42610200,$GNGGA,115010.20,3158.66923759,N,12054.58515953,E,1,21,0.8,-1.5547,M,8.7157,M,,*61
116180,42610200,$GNVTG,71.140,T,77.796,M,1.72706,N,3.19851,K,A*34
116182,42610300,$GNGGA,115010.30,3158.66924189,N,12054.58521867,E,1,21,0.8,-1.5574,M,8.7157,M,,*6D
116183,42610300,$GNVTG,73.871,T,80.528,M,1.72477,N,3.19428,K,A*35
116468,42610400,$GNGGA,115010.40,3158.66925039,N,12054.58528470,E,1,21,0.8,-1.6129,M,8.7157,M,,*6D
116470,42610400,$GNVTG,77.435,T,84.092,M,1.73742,N,3.21771,K,A*3D
116472,42610500,$GNGGA,115010.50,3158.66925741,N,12054.58537109,E,1,20,0.8,-1.6479,M,8.7158,M,,*6F
116474,42610500,$GNVTG,79.600,T,86.257,M,1.81847,N,3.36781,K,A*30
116772,42610600,$GNGGA,115010.60,3158.66926839,N,12054.58546734,E,1,20,0.8,-1.6598,M,8.7158,M,,*6F
116778,42610600,$GNVTG,79.655,T,86.312,M,2.00135,N,3.70650,K,A*39
116780,42610700,$GNGGA,115010.70,3158.66927443,N,12054.58555762,E,1,20,0.8,-1.6094,M,8.7158,M,,*66
116783,42610700,$GNVTG,79.223,T,85.880,M,2.19649,N,4.06791,K,A*31
116785,42610800,$GNGGA,115010.80,3158.66928389,N,12054.58563777,E,1,20,0.8,-1.5808,M,8.7158,M,,*68
116787,42610800,$GNVTG,77.158,T,83.814,M,2.30004,N,4.25968,K,A*36
116789,42610900,$GNGGA,115010.90,3158.66929902,N,12054.58570952,E,1,20,0.8,-1.5761,M,8.7158,M,,*6A
116790,42610900,$GNVTG,76.357,T,83.014,M,2.29065,N,4.24229,K,A*32
117074,42611000,$GNGGA,115011.00,3158.66932153,N,12054.58578619,E,1,20,0.8,-1.6045,M,8.7158,M,,*6E
117079,42611000,$GNVTG,75.727,T,82.383,M,2.25009,N,4.16717,K,A*31
117081,42611100,$GNGGA,115011.10,3158.66933950,N,12054.58594692,E,1,23,0.7,-1.4340,M,8.7158,M,,*6C
117083,42611100,$GNVTG,74.432,T,81.088,M,2.25254,N,4.17170,K,A*30
117085,42611200,$GNGGA,115011.20,3158.66937177,N,12054.58601979,E,1,23,0.7,-1.4455,M,8.7158,M,,*60
117086,42611200,$GNVTG,72.773,T,79.429,M,2.27925,N,4.22116,K,A*31
117379,42611300,$GNGGA,115011.30,3158.66938207,N,12054.58608086,E,1,23,0.7,-1.4217,M,8.7158,M,,*6A
117386,42611300,$GNVTG,72.329,T,78.985,M,2.25721,N,4.18035,K,A*31
117388,42611400,$GNGGA,115011.40,3158.66937369,N,12054.58614280,E,1,23,0.7,-1.3687,M,8.7158,M,,*68
117390,42611400,$GNVTG,74.303,T,80.959,M,2.15791,N,3.99645,K,A*3E
117392,42611500,$GNGGA,115011.50,3158.66937465,N,12054.58620880,E,1,23,0.7,-1.3954,M,8.7158,M,,*6E
117394,42611500,$GNVTG,77.817,T,84.473,M,2.07304,N,3.83927,K,A*39
117686,42611600,$GNGGA,115011.60,3158.66937492,N,12054.58628660,E,1,23,0.7,-1.4184,M,8.7158,M,,*6F
117688,42611600,$GNVTG,81.501,T,88.157,M,2.08260,N,3.85697,K,A*3B
117690,42611700,$GNGGA,115011.70,3158.66937881,N,12054.58637337,E,1,23,0.7,-1.4152,M,8.7158,M,,*62
117691,42611700,$GNVTG,87.384,T,94.040,M,2.46477,N,4.56475,K,A*31
117693,42611800,$GNGGA,115011.80,3158.66939769,N,12054.58644201,E,1,23,0.7,-1.4302,M,8.7158,M,,*6D
117695,42611800,$GNVTG,83.204,T,89.860,M,2.52890,N,4.68352,K,A*35
117990,42611900,$GNGGA,115011.90,3158.66940418,N,12054.58652118,E,1,23,0.7,-1.4134,M,8.7158,M,,*6C
117992,42611900,$GNVTG,80.744,T,87.400,M,2.52452,N,4.67542,K,A*39
117994,42612000,$GNGGA,115012.00,3158.66940815,N,12054.58659491,E,1,23,0.7,-1.3939,M,8.7158,M,,*6A
117996,42612000,$GNVTG,79.970,T,86.626,M,2.46824,N,4.57117,K,A*3E
117998,42612100,$GNGGA,115012.10,3158.66935866,N,12054.58688521,E,1,25,0.7,-1.3014,M,8.7158,M,,*6B
117999,42612100,$GNVTG,81.048,T,87.704,M,2.40594,N,4.45579,K,A*34
118297,42612200,$GNGGA,115012.20,3158.66937799,N,12054.58696313,E,1,25,0.7,-1.3217,M,8.7158,M,,*6C
118302,42612200,$GNVTG,81.216,T,87.872,M,2.38667,N,4.42011,K,A*3F
118304,42612300,$GNGGA,115012.30,3158.66940330,N,12054.58704477,E,1,25,0.7,-1.3189,M,8.7158,M,,*61
118306,42612300,$GNVTG,79.008,T,85.664,M,2.41269,N,4.46831,K,A*34
118308,42612400,$GNGGA,115012.40,3158.66941772,N,12054.58710749,E,1,25,0.7,-1.2836,M,8.7158,M,,*62
118309,42612400,$GNVTG,76.913,T,83.568,M,2.36783,N,4.38521,K,A*35
118604,42612500,$GNGGA,115012.50,3158.66941718,N,12054.58717235,E,1,25,0.7,-1.2593,M,8.7158,M,,*64
118611,42612500,$GNVTG,77.351,T,84.006,M,2.25560,N,4.17737,K,A*37
118613,42612600,$GNGGA,115012.60,3158.66941488,N,12054.58724874,E,1,25,0.7,-1.2666,M,8.7159,M,,*6A
118615,42612600,$GNVTG,80.933,T,87.589,M,2.19956,N,4.07359,K,A*3B
118617,42612700,$GNGGA,115012.70,3158.66941769,N,12054.58733023,E,1,25,0.7,-1.3033,M,8.7159,M,,*6C
118619,42612700,$GNVTG,85.488,T,92.144,M,2.20388,N,4.08159,K,A*3C
118909,42612800,$GNGGA,115012.80,3158.66942515,N,12054.58741647,E,1,25,0.7,-1.3373,M,8.7159,M,,*6F
118911,42612800,$GNVTG,87.088,T,93.743,M,2.27938,N,4.22142,K,A*3E
118916,42612900,$GNGGA,115012.90,3158.66942562,N,12054.58751081,E,1,25,0.7,-1.3013,M,8.7159,M,,*66
118918,42612900,$GNVTG,84.673,T,91.328,M,2.51704,N,4.66156,K,A*31
118920,42613000,$GNGGA,115013.00,3158.66943627,N,12054.58758550,E,1,25,0.7,-1.2915,M,8.7159,M,,*63
118921,42613000,$GNVTG,82.265,T,88.921,M,2.53084,N,4.68712,K,A*3A
119215,42613100,$GNGGA,115013.10,3158.66928542,N,12054.58783841,E,1,24,0.7,-0.9259,M,8.7159,M,,*6C
119223,42613100,$GNVTG,80.198,T,86.852,M,2.43095,N,4.50211,K,A*3E
119225,42613200,$GNGGA,115013.20,3158.66929340,N,12054.58788799,E,1,24,0.7,-0.9169,M,8.7159,M,,*6B
119227,42613200,$GNVTG,79.505,T,86.159,M,2.21093,N,4.09464,K,A*30
119229,42613300,$GNGGA,115013.30,3158.66930048,N,12054.58793777,E,1,24,0.7,-0.9131,M,8.7159,M,,*6E
119230,42613300,$GNVTG,80.021,T,86.676,M,1.61186,N,2.98517,K,A*36
119518,42613400,$GNGGA,115013.40,3158.66931967,N,12054.58798351,E,1,24,0.7,-0.9445,M,8.7159,M,,*61
119520,42613400,$GNVTG,78.196,T,84.851,M,1.42697,N,2.64276,K,A*30
119525,42613500,$GNGGA,115013.50,3158.66933750,N,12054.58802812,E,1,24,0.7,-0.9475,M,8.7159,M,,*6B
119527,42613500,$GNVTG,75.607,T,82.262,M,1.36212,N,2.52265,K,A*33
119529,42613600,$GNGGA,115013.60,3158.66935067,N,12054.58805926,E,1,24,0.7,-0.9265,M,8.7159,M,,*6B
119530,42613600,$GNVTG,73.757,T,80.411,M,1.31109,N,2.42814,K,A*32
119821,42613700,$GNGGA,115013.70,3158.66935869,N,12054.58809682,E,1,24,0.7,-0.8978,M,8.7159,M,,*67
119828,42613700,$GNVTG,72.688,T,79.343,M,1.26605,N,2.34472,K,A*36
119830,42613800,$GNGGA,115013.80,3158.66937843,N,12054.58813320,E,1,24,0.7,-0.9171,M,8.7159,M,,*64
119832,42613800,$GNVTG,70.856,T,77.511,M,1.26754,N,2.34748,K,A*39
119834,42613900,$GNGGA,115013.90,3158.66939374,N,12054.58818523,E,1,24,0.7,-0.9341,M,8.7159,M,,*6B
119836,42613900,$GNVTG,70.290,T,76.945,M,1.34256,N,2.48643,K,A*30
120124,42614000,$GNGGA,115014.00,3158.66939839,N,12054.58825554,E,1,24,0.7,-0.9435,M,8.7159,M,,*6D
120126,42614000,$GNVTG,72.865,T,79.519,M,1.49316,N,2.76533,K,A*3E
120131,42614100,$GNGGA,115014.10,3158.66939857,N,12054.58834021,E,1,17,1.1,-0.9692,M,8.7159,M,,*6B
120133,42614100,$GNVTG,78.047,T,84.701,M,1.70408,N,3.15596,K,A*3C
120135,42614200,$GNGGA,115014.20,3158.66940909,N,12054.58843385,E,1,17,1.1,-0.9959,M,8.7159,M,,*69
120137,42614200,$GNVTG,80.087,T,86.742,M,2.01922,N,3.73960,K,A*37
120431,42614300,$GNGGA,115014.30,3158.66940301,N,12054.58853442,E,1,17,1.1,-0.9376,M,8.7159,M,,*60
120438,42614300,$GNVTG,81.508,T,88.163,M,2.23886,N,4.14636,K,A*3A
120440,42614400,$GNGGA,115014.40,3158.66940101,N,12054.58861534,E,1,17,1.1,-0.9234,M,8.7159,M,,*63
120442,42614400,$GNVTG,82.259,T,88.914,M,2.34475,N,4.34247,K,A*34
120444,42614500,$GNGGA,115014.50,3158.66940459,N,12054.58867570,E,1,17,1.1,-0.9001,M,8.7159,M,,*68
120445,42614500,$GNVTG,81.969,T,88.624,M,2.17323,N,4.02483,K,A*3D
120736,42614600,$GNGGA,115014.60,3158.66940400,N,12054.58872770,E,1,17,1.1,-0.8876,M,8.7159,M,,*68
120738,42614600,$GNVTG,81.257,T,87.912,M,1.62424,N,3.00809,K,A*34
120743,42614700,$GNGGA,115014.70,3158.66941927,N,12054.58878985,E,1,17,1.1,-0.8866,M,8.7159,M,,*6F
120744,42614700,$GNVTG,79.047,T,85.701,M,1.47851,N,2.73820,K,A*39
120746,42614800,$GNGGA,115014.80,3158.66943914,N,12054.58884539,E,1,17,1.1,-0.9039,M,8.7159,M,,*69
120748,42614800,$GNVTG,74.994,T,81.648,M,1.49622,N,2.77100,K,A*30
121036,42614900,$GNGGA,115014.90,3158.66947110,N,12054.58890918,E,1,17,1.1,-0.9044,M,8.7159,M,,*60
121038,42614900,$GNVTG,65.497,T,72.152,M,1.91937,N,3.55467,K,A*35
121046,42615000,$GNGGA,115015.00,3158.66947857,N,12054.58895061,E,1,17,1.1,-0.8728,M,8.7159,M,,*6C
121047,42615000,$GNVTG,65.471,T,72.125,M,1.88324,N,3.48776,K,A*32
121049,42615100,$GNGGA,115015.10,3158.66949067,N,12054.58899987,E,1,18,1.0,-0.8607,M,8.7159,M,,*67
121051,42615100,$GNVTG,66.648,T,73.302,M,1.78645,N,3.30851,K,A*37
121339,42615200,$GNGGA,115015.20,3158.66950002,N,12054.58905556,E,1,18,1.0,-0.8786,M,8.7160,M,,*69
121341,42615200,$GNVTG,68.220,T,74.875,M,1.72713,N,3.19864,K,A*3A
121347,42615300,$GNGGA,115015.30,3158.66951217,N,12054.58912295,E,1,18,1.0,-0.9083,M,8.7159,M,,*68
121348,42615300,$GNVTG,70.452,T,77.107,M,1.76289,N,3.26487,K,A*30
121350,42615400,$GNGGA,115015.40,3158.66951269,N,12054.58919926,E,1,18,1.0,-0.9322,M,8.7159,M,,*66
121352,42615400,$GNVTG,73.928,T,80.582,M,1.86073,N,3.44606,K,A*35
121641,42615500,$GNGGA,115015.50,3158.66951298,N,12054.58929067,E,1,18,1.0,-0.9426,M,8.7159,M,,*65
121647,42615500,$GNVTG,77.911,T,84.566,M,2.03029,N,3.76009,K,A*3C
121649,42615600,$GNGGA,115015.60,3158.66951921,N,12054.58938739,E,1,18,1.0,-0.9709,M,8.7159,M,,*6D
121652,42615600,$GNVTG,79.800,T,86.455,M,2.23395,N,4.13728,K,A*36
121654,42615700,$GNGGA,115015.70,3158.66952078,N,12054.58947794,E,1,18,1.0,-0.8877,M,8.7160,M,,*68
121656,42615700,$GNVTG,79.547,T,86.201,M,2.34898,N,4.35032,K,A*37
121948,42615800,$GNGGA,115015.80,3158.66952739,N,12054.58954727,E,1,18,1.0,-0.8600,M,8.7160,M,,*61
121950,42615800,$GNVTG,79.273,T,85.927,M,2.32061,N,4.29778,K,A*37
121952,42615900,$GNGGA,115015.90,3158.66953519,N,12054.58960403,E,1,18,1.0,-0.8596,M,8.7160,M,,*6F
121956,42615900,$GNVTG,78.597,T,85.251,M,2.16223,N,4.00445,K,A*35
121958,42616000,$GNGGA,115016.00,3158.66955348,N,12054.58965681,E,1,18,1.0,-0.8723,M,8.7160,M,,*60
121960,42616000,$GNVTG,76.961,T,83.615,M,1.95031,N,3.61197,K,A*3F
122253,42616100,$GNGGA,115016.10,3158.66957539,N,12054.58971395,E,1,16,1.3,-0.8797,M,8.7160,M,,*64
122259,42616100,$GNVTG,74.862,T,81.517,M,1.83745,N,3.40296,K,A*3E
122261,42616200,$GNGGA,115016.20,3158.66959902,N,12054.58977751,E,1,16,1.3,-0.8600,M,8.7160,M,,*68
122264,42616200,$GNVTG,71.444,T,78.098,M,1.86211,N,3.44862,K,A*33
122266,42616300,$GNGGA,115016.30,3158.66961920,N,12054.58983715,E,1,16,1.3,-0.8467,M,8.7160,M,,*6A
122268,42616300,$GNVTG,64.162,T,70.816,M,1.99484,N,3.69445,K,A*32
122558,42616400,$GNGGA,115016.40,3158.66963370,N,12054.58989197,E,1,16,1.3,-0.8411,M,8.7160,M,,*67
122559,42616400,$GNVTG,63.466,T,70.120,M,2.03647,N,3.77154,K,A*3F
122562,42616500,$GNGGA,115016.50,3158.66964791,N,12054.58995221,E,1,16,1.3,-0.8589,M,8.7160,M,,*69
122566,42616500,$GNVTG,66.349,T,73.003,M,2.01810,N,3.73753,K,A*38
122568,42616600,$GNGGA,115016.60,3158.66965405,N,12054.59002099,E,1,16,1.3,-0.8762,M,8.7160,M,,*65
122570,42616600,$GNVTG,72.223,T,78.878,M,2.02095,N,3.74281,K,A*34
122860,42616700,$GNGGA,115016.70,3158.66965803,N,12054.59011446,E,1,16,1.3,-0.8827,M,8.7160,M,,*64
122866,42616700,$GNVTG,78.171,T,84.826,M,2.15831,N,3.99719,K,A*35
122868,42616800,$GNGGA,115016.80,3158.66968931,N,12054.59023792,E,1,16,1.3,-0.9478,M,8.7160,M,,*6A
122871,42616800,$GNVTG,77.823,T,84.478,M,2.60319,N,4.82110,K,A*32
122873,42616900,$GNGGA,115016.90,3158.66971069,N,12054.59039508,E,1,16,1.3,-0.9822,M,8.7160,M,,*6E
122874,42616900,$GNVTG,76.016,T,82.670,M,3.28463,N,6.08313,K,A*37
123161,42617000,$GNGGA,115017.00,3158.66972344,N,12054.59053047,E,1,16,1.3,-1.0152,M,8.7160,M,,*6D
123163,42617000,$GNVTG,76.721,T,83.375,M,3.65986,N,6.77806,K,A*3D
123165,42617100,$GNGGA,115017.10,3158.66973303,N,12054.59060352,E,1,22,0.9,-0.8559,M,8.7160,M,,*63
123169,42617100,$GNVTG,77.684,T,84.338,M,3.43843,N,6.36797,K,A*32
123171,42617200,$GNGGA,115017.20,3158.66972429,N,12054.59063003,E,1,22,0.9,-0.8178,M,8.7160,M,,*6D
123173,42617200,$GNVTG,80.518,T,87.172,M,2.52349,N,4.67351,K,A*3B
123467,42617300,$GNGGA,115017.30,3158.66972456,N,12054.59067213,E,1,22,0.9,-0.7734,M,8.7160,M,,*62
123473,42617300,$GNVTG,86.660,T,93.314,M,1.62135,N,3.00273,K,A*38
123475,42617400,$GNGGA,115017.40,3158.66975325,N,12054.59071571,E,1,22,0.9,-0.8723,M,8.7160,M,,*6C
123478,42617400,$GNVTG,88.124,T,94.778,M,1.29943,N,2.40654,K,A*3A
123480,42617500,$GNGGA,115017.50,3158.66977765,N,12054.59078259,E,1,22,0.9,-0.9028,M,8.7160,M,,*66
123482,42617500,$GNVTG,84.007,T,90.661,M,1.38894,N,2.57232,K,A*32
123484,42617600,$GNGGA,115017.60,3158.66979350,N,12054.59083598,E,1,22,0.9,-0.8841,M,8.7160,M,,*61
123485,42617600,$GNVTG,76.523,T,83.178,M,1.70351,N,3.15491,K,A*37
123769,42617700,$GNGGA,115017.70,3158.66980345,N,12054.59089610,E,1,22,0.9,-0.8508,M,8.7160,M,,*6B
123774,42617700,$GNVTG,74.326,T,80.980,M,1.83278,N,3.39431,K,A*38
123776,42617800,$GNGGA,115017.80,3158.66981685,N,12054.59099292,E,1,22,0.9,-0.8296,M,8.7160,M,,*63
123778,42617800,$GNVTG,74.578,T,81.232,M,2.00728,N,3.71748,K,A*3F
123780,42617900,$GNGGA,115017.90,3158.66984202,N,12054.59112022,E,1,22,0.9,-0.8733,M,8.7160,M,,*6D
123781,42617900,$GNVTG,76.119,T,82.773,M,2.42737,N,4.49549,K,A*3A
124070,42618000,$GNGGA,115018.00,3158.66984629,N,12054.59128269,E,1,22,0.9,-0.8468,M,8.7160,M,,*6F
124076,42618000,$GNVTG,78.010,T,84.664,M,3.19205,N,5.91168,K,A*35
124078,42618100,$GNGGA,115018.10,3158.66980828,N,12054.59156671,E,1,17,1.1,0.1220,M,8.7161,M,,*41
124080,42618100,$GNVTG,79.143,T,85.795,M,3.66638,N,6.79013,K,A*37
124374,42618200,$GNGGA,115018.20,3158.66980350,N,12054.59166161,E,1,17,1.1,0.1240,M,8.7161,M,,*45
124376,42618200,$GNVTG,80.800,T,87.451,M,3.56145,N,6.59580,K,A*35
124378,42618300,$GNGGA,115018.30,3158.66979140,N,12054.59172114,E,1,17,1.1,0.1643,M,8.7161,M,,*41
124383,42618300,$GNVTG,82.057,T,88.708,M,3.01285,N,5.57979,K,A*37
124385,42618400,$GNGGA,115018.40,3158.66979113,N,12054.59174557,E,1,17,1.1,0.1960,M,8.7161,M,,*4B
124386,42618400,$GNVTG,81.728,T,88.380,M,2.07275,N,3.83873,K,A*33
124388,42618500,$GNGGA,115018.50,3158.66979410,N,12054.59177331,E,1,17,1.1,0.2113,M,8.7161,M,,*46
124390,42618500,$GNVTG,81.238,T,87.889,M,1.26560,N,2.34390,K,A*32
124679,42618600,$GNGGA,115018.60,3158.66979940,N,12054.59181228,E,1,17,1.1,0.2100,M,8.7161,M,,*4F
124687,42618600,$GNVTG,80.634,T,87.285,M,0.91984,N,1.70354,K,A*3D
124689,42618700,$GNGGA,115018.70,3158.66981042,N,12054.59186528,E,1,17,1.1,0.1936,M,8.7161,M,,*4C
124690,42618700,$GNVTG,77.897,T,84.548,M,0.94352,N,1.74739,K,A*38
124692,42618800,$GNGGA,115018.80,3158.66982802,N,12054.59192237,E,1,17,1.1,0.1923,M,8.7161,M,,*44
124694,42618800,$GNVTG,73.159,T,79.811,M,1.27846,N,2.36770,K,A*3B
124979,42618900,$GNGGA,115018.90,3158.66984390,N,12054.59197917,E,1,17,1.1,0.2047,M,8.7161,M,,*47
124981,42618900,$GNVTG,70.261,T,76.912,M,1.49684,N,2.77215,K,A*36
124986,42619000,$GNGGA,115019.00,3158.66985944,N,12054.59203386,E,1,17,1.1,0.2026,M,8.7161,M,,*46
124988,42619000,$GNVTG,69.198,T,75.850,M,1.55667,N,2.88296,K,A*34
124990,42619100,$GNGGA,115019.10,3158.66980572,N,12054.59209660,E,1,16,1.3,0.7194,M,8.7161,M,,*42
124992,42619100,$GNVTG,68.766,T,75.416,M,1.59732,N,2.95824,K,A*3E
125286,42619200,$GNGGA,115019.20,3158.66981657,N,12054.59218631,E,1,16,1.3,0.7103,M,8.7161,M,,*4E
125293,42619200,$GNVTG,69.960,T,76.610,M,1.77383,N,3.28513,K,A*3C
125295,42619300,$GNGGA,115019.30,3158.66983850,N,12054.59231595,E,1,16,1.3,0.6910,M,8.7161,M,,*49
125297,42619300,$GNVTG,72.998,T,79.648,M,2.32756,N,4.31065,K,A*36
125299,42619400,$GNGGA,115019.40,3158.66985746,N,12054.59247486,E,1,16,1.3,0.6923,M,8.7161,M,,*42
125300,42619400,$GNVTG,74.632,T,81.282,M,3.16513,N,5.86183,K,A*3A
125593,42619500,$GNGGA,115019.50,3158.66985492,N,12054.59262126,E,1,16,1.3,0.7341,M,8.7161,M,,*4E
125594,42619500,$GNVTG,80.800,T,87.450,M,4.05269,N,7.50558,K,A*35
125600,42619600,$GNGGA,115019.60,3158.66984957,N,12054.59270808,E,1,16,1.3,0.7623,M,8.7162,M,,*4C
125601,42619600,$GNVTG,84.199,T,90.849,M,3.74009,N,6.92666,K,A*3E
125603,42619700,$GNGGA,115019.70,3158.66985793,N,12054.59275322,E,1,16,1.3,0.7742,M,8.7162,M,,*4A
125605,42619700,$GNVTG,84.016,T,90.666,M,2.00106,N,3.70597,K,A*33
125899,42619800,$GNGGA,115019.80,3158.66987252,N,12054.59280518,E,1,16,1.3,0.7567,M,8.7162,M,,*4F
125905,42619800,$GNVTG,73.992,T,80.642,M,0.88046,N,1.63060,K,A*33
125907,42619900,$GNGGA,115019.90,3158.66988069,N,12054.59285689,E,1,16,1.3,0.7530,M,8.7162,M,,*47
125910,42619900,$GNVTG,68.375,T,75.025,M,0.86282,N,1.59794,K,A*36
125912,42620000,$GNGGA,115020.00,3158.66988910,N,12054.59290948,E,1,16,1.3,0.7267,M,8.7162,M,,*40
125914,42620000,$GNVTG,71.215,T,77.865,M,1.18016,N,2.18566,K,A*37
126203,42620100,$GNGGA,115020.10,3158.66977103,N,12054.59235212,E,1,16,1.3,0.9978,M,8.7161,M,,*48
126205,42620100,$GNVTG,71.647,T,78.296,M,1.41758,N,2.62536,K,A*34
126207,42620200,$GNGGA,115020.20,3158.66978430,N,12054.59238026,E,1,16,1.3,0.9986,M,8.7161,M,,*48
126212,42620200,$GNVTG,69.523,T,76.172,M,1.37455,N,2.54566,K,A*34
126214,42620300,$GNGGA,115020.30,3158.66979602,N,12054.59240568,E,1,16,1.3,1.0046,M,8.7161,M,,*46
126215,42620300,$GNVTG,66.765,T,73.414,M,1.12422,N,2.08206,K,A*34
126509,42620400,$GNGGA,115020.40,3158.66979606,N,12054.59245005,E,1,16,1.3,1.0311,M,8.7161,M,,*4F
126515,42620400,$GNVTG,71.888,T,78.537,M,0.99571,N,1.84405,K,A*32
126517,42620500,$GNGGA,115020.50,3158.66980537,N,12054.59251320,E,1,16,1.3,1.0010,M,8.7161,M,,*4A
126520,42620500,$GNVTG,83.335,T,89.984,M,1.35500,N,2.50945,K,A*3A
126522,42620600,$GNGGA,115020.60,3158.66981000,N,12054.59259973,E,1,16,1.3,0.9978,M,8.7161,M,,*42
126524,42620600,$GNVTG,87.426,T,94.076,M,2.20300,N,4.07996,K,A*38
126814,42620700,$GNGGA,115020.70,3158.66983964,N,12054.59271716,E,1,16,1.3,0.9418,M,8.7162,M,,*45
126816,42620700,$GNVTG,78.741,T,85.391,M,2.77772,N,5.14434,K,A*35
126818,42620800,$GNGGA,115020.80,3158.66985726,N,12054.59288304,E,1,16,1.3,0.9767,M,8.7162,M,,*4E
126822,42620800,$GNVTG,75.182,T,81.832,M,3.99565,N,7.39994,K,A*38
126824,42620900,$GNGGA,115020.90,3158.66986569,N,12054.59302291,E,1,16,1.3,0.9880,M,8.7162,M,,*4D
126826,42620900,$GNVTG,77.865,T,84.515,M,4.64749,N,8.60714,K,A*3B
127120,42621000,$GNGGA,115021.00,3158.66986934,N,12054.59310949,E,1,16,1.3,1.0226,M,8.7162,M,,*42
127126,42621000,$GNVTG,77.114,T,83.763,M,4.04418,N,7.48981,K,A*36
127128,42621100,$GNGGA,115021.10,3158.66982526,N,12054.59300138,E,1,16,1.3,1.2399,M,8.7162,M,,*40
127131,42621100,$GNVTG,80.173,T,86.821,M,1.68178,N,3.11466,K,A*33
127133,42621200,$GNGGA,115021.20,3158.66984712,N,12054.59298887,E,1,16,1.3,1.2406,M,8.7162,M,,*4C
127135,42621200,$GNVTG,313.363,T,320.012,M,0.82293,N,1.52407,K,A*3F
127424,42621300,$GNGGA,115021.30,3158.66986331,N,12054.59296220,E,1,16,1.3,1.2320,M,8.7162,M,,*40
127426,42621300,$GNVTG,289.982,T,296.631,M,1.30050,N,2.40852,K,A*3A
127428,42621400,$GNGGA,115021.40,3158.66986141,N,12054.59293972,E,1,16,1.3,1.2695,M,8.7162,M,,*40
127433,42621400,$GNVTG,279.475,T,286.123,M,1.23210,N,2.28184,K,A*3D
127434,42621500,$GNGGA,115021.50,3158.66985581,N,12054.59293961,E,1,16,1.3,1.3082,M,8.7162,M,,*49
127436,42621500,$GNVTG,230.687,T,237.335,M,0.42932,N,0.79511,K,A*33
127730,42621600,$GNGGA,115021.60,3158.66985790,N,12054.59296486,E,1,16,1.3,1.3435,M,8.7162,M,,*41
127736,42621600,$GNVTG,111.594,T,118.243,M,0.95643,N,1.77130,K,A*37
127738,42621700,$GNGGA,115021.70,3158.66987800,N,12054.59299396,E,1,16,1.3,1.3480,M,8.7162,M,,*43
127741,42621700,$GNVTG,90.208,T,96.856,M,1.23009,N,2.27813,K,A*3E
127743,42621800,$GNGGA,115021.80,3158.66989066,N,12054.59302311,E,1,16,1.3,1.3266,M,8.7162,M,,*48
127745,42621800,$GNVTG,78.255,T,84.903,M,1.35940,N,2.51760,K,A*3B
128033,42621900,$GNGGA,115021.90,3158.66990968,N,12054.59305952,E,1,16,1.3,1.3199,M,8.7162,M,,*4F
128035,42621900,$GNVTG,73.537,T,80.186,M,1.25061,N,2.31613,K,A*3A
128037,42622000,$GNGGA,115022.00,3158.66993268,N,12054.59308953,E,1,16,1.3,1.3070,M,8.7162,M,,*47
128041,42622000,$GNVTG,70.239,T,76.887,M,1.23557,N,2.28827,K,A*36
128043,42622100,$GNGGA,115022.10,3158.66987087,N,12054.59362117,E,1,16,1.3,1.5797,M,8.7162,M,,*4C
128045,42622100,$GNVTG,65.625,T,72.273,M,1.11309,N,2.06144,K,A*32
128338,42622200,$GNGGA,115022.20,3158.66990111,N,12054.59363490,E,1,16,1.3,1.6136,M,8.7162,M,,*42
128344,42622200,$GNVTG,58.796,T,65.444,M,0.93396,N,1.72969,K,A*3B
128346,42622300,$GNGGA,115022.30,3158.66992784,N,12054.59362663,E,1,16,1.3,1.5799,M,8.7162,M,,*44
128349,42622300,$GNVTG,50.733,T,57.381,M,0.68972,N,1.27737,K,A*32
128351,42622400,$GNGGA,115022.40,3158.66995690,N,12054.59360849,E,1,16,1.3,1.6127,M,8.7162,M,,*44
128352,42622400,$GNVTG,38.884,T,45.532,M,0.44122,N,0.81715,K,A*3C
128645,42622500,$GNGGA,115022.50,3158.66995973,N,12054.59357232,E,1,16,1.3,1.6018,M,8.7162,M,,*48
128647,42622500,$GNVTG,15.749,T,22.397,M,0.24090,N,0.44615,K,A*33
128649,42622600,$GNGGA,115022.60,3158.66995308,N,12054.59355321,E,1,16,1.3,1.5484,M,8.7162,M,,*4E
128654,42622600,$GNVTG,321.609,T,328.257,M,0.14290,N,0.26464,K,A*37
128656,42622700,$GNGGA,115022.70,3158.66998899,N,12054.59350749,E,1,16,1.3,1.5746,M,8.7162,M,,*43
128657,42622700,$GNVTG,265.999,T,272.647,M,0.20649,N,0.38241,K,A*32
128947,42622800,$GNGGA,115022.80,3158.67002806,N,12054.59347475,E,1,16,1.3,1.6190,M,8.7162,M,,*45
128953,42622800,$GNVTG,241.446,T,248.094,M,0.31741,N,0.58784,K,A*39
128955,42622900,$GNGGA,115022.90,3158.67003286,N,12054.59345043,E,1,16,1.3,1.5619,M,8.7162,M,,*41
128957,42622900,$GNVTG,228.351,T,234.998,M,0.42363,N,0.78456,K,A*37
128959,42623000,$GNGGA,115023.00,3158.67005210,N,12054.59343240,E,1,16,1.3,1.5385,M,8.7162,M,,*47
128964,42623000,$GNVTG,219.768,T,226.416,M,0.49426,N,0.91538,K,A*30
129254,42623100,$GNGGA,115023.10,3158.66985817,N,12054.59358717,E,1,19,1.1,1.6857,M,8.7162,M,,*4C
129255,42623100,$GNVTG,210.123,T,216.771,M,0.50108,N,0.92799,K,A*3A
129258,42623200,$GNGGA,115023.20,3158.66986900,N,12054.59357653,E,1,19,1.1,1.6839,M,8.7162,M,,*4D
129259,42623200,$GNVTG,201.178,T,207.826,M,0.50482,N,0.93493,K,A*36
129261,42623300,$GNGGA,115023.30,3158.66986820,N,12054.59355733,E,1,19,1.1,1.6841,M,8.7162,M,,*45
129266,42623300,$GNVTG,196.553,T,203.200,M,0.57228,N,1.05986,K,A*3A
129557,42623400,$GNGGA,115023.40,3158.66987764,N,12054.59354969,E,1,19,1.1,1.6743,M,8.7162,M,,*41
129563,42623400,$GNVTG,191.816,T,198.463,M,0.59926,N,1.10983,K,A*39
129565,42623500,$GNGGA,115023.50,3158.66991122,N,12054.59354665,E,1,19,1.1,1.6753,M,8.7162,M,,*41
129567,42623500,$GNVTG,189.592,T,196.240,M,0.57713,N,1.06884,K,A*3F
129569,42623600,$GNGGA,115023.60,3158.66995679,N,12054.59352231,E,1,19,1.1,1.6770,M,8.7162,M,,*4D
129574,42623600,$GNVTG,188.994,T,195.641,M,0.52689,N,0.97581,K,A*34
129864,42623700,$GNGGA,115023.70,3158.66995710,N,12054.59350661,E,1,19,1.1,1.6651,M,8.7162,M,,*43
129866,42623700,$GNVTG,194.001,T,200.649,M,0.47521,N,0.88010,K,A*3D
129868,42623800,$GNGGA,115023.80,3158.66994876,N,12054.59348367,E,1,19,1.1,1.6725,M,8.7162,M,,*4A
129870,42623800,$GNVTG,203.314,T,209.962,M,0.46813,N,0.86698,K,A*3D
129872,42623900,$GNGGA,115023.90,3158.66994287,N,12054.59346083,E,1,19,1.1,1.6681,M,8.7162,M,,*47
129876,42623900,$GNVTG,212.207,T,218.855,M,0.52604,N,0.97423,K,A*34
130167,42624000,$GNGGA,115024.00,3158.66994217,N,12054.59343455,E,1,19,1.1,1.6702,M,8.7162,M,,*40
130173,42624000,$GNVTG,218.465,T,225.113,M,0.62923,N,1.16533,K,A*38
130175,42624100,$GNGGA,115024.10,3158.66993157,N,12054.59340349,E,1,16,1.3,1.6713,M,8.7162,M,,*45
130177,42624100,$GNVTG,223.421,T,230.069,M,0.73672,N,1.36441,K,A*35
130179,42624200,$GNGGA,115024.20,3158.66991968,N,12054.59337625,E,1,16,1.3,1.6701,M,8.7162,M,,*4C
130183,42624200,$GNVTG,226.457,T,233.105,M,0.80618,N,1.49305,K,A*36
130185,42624300,$GNGGA,115024.30,3158.66990242,N,12054.59334145,E,1,16,1.3,1.7022,M,8.7162,M,,*4A
130187,42624300,$GNVTG,227.156,T,233.804,M,0.86724,N,1.60613,K,A*3A
130481,42624400,$GNGGA,115024.40,3158.66989452,N,12054.59332187,E,1,16,1.3,1.7216,M,8.7162,M,,*4F
130483,42624400,$GNVTG,226.468,T,233.115,M,0.85361,N,1.58088,K,A*33
130485,42624500,$GNGGA,115024.50,3158.66989850,N,12054.59330938,E,1,16,1.3,1.6940,M,8.7162,M,,*47
130490,42624500,$GNVTG,224.398,T,231.045,M,0.77115,N,1.42816,K,A*37
130492,42624600,$GNGGA,115024.60,3158.66989602,N,12054.59330224,E,1,16,1.3,1.7088,M,8.7162,M,,*47
130494,42624600,$GNVTG,217.771,T,224.418,M,0.43057,N,0.79742,K,A*3B
130785,42624700,$GNGGA,115024.70,3158.66990020,N,12054.59330414,E,1,16,1.3,1.7062,M,8.7162,M,,*49
130792,42624700,$GNVTG,199.652,T,206.300,M,0.20137,N,0.37294,K,A*36
130794,42624800,$GNGGA,115024.80,3158.66990090,N,12054.59330591,E,1,16,1.3,1.7066,M,8.7162,M,,*45
130797,42624800,$GNVTG,168.754,T,175.402,M,0.13380,N,0.24780,K,A*31
130799,42624900,$GNGGA,115024.90,3158.66991548,N,12054.59330044,E,1,16,1.3,1.7156,M,8.7162,M,,*4A
130801,42624900,$GNVTG,156.140,T,162.787,M,0.13978,N,0.25887,K,A*33
131086,42625000,$GNGGA,115025.00,3158.66991263,N,12054.59330307,E,1,16,1.3,1.7124,M,8.7162,M,,*4D
131088,42625000,$GNVTG,167.294,T,173.942,M,0.13409,N,0.24834,K,A*3E
131090,42625100,$GNGGA,115025.10,3158.66974275,N,12054.59315243,E,1,16,1.3,1.8379,M,8.7162,M,,*43
131095,42625100,$GNVTG,178.607,T,185.254,M,0.13864,N,0.25675,K,A*36
131097,42625200,$GNGGA,115025.20,3158.66974601,N,12054.59314572,E,1,16,1.3,1.8278,M,8.7162,M,,*43
131098,42625200,$GNVTG,192.418,T,199.065,M,0.13386,N,0.24791,K,A*3E
131388,42625300,$GNGGA,115025.30,3158.66974757,N,12054.59314029,E,1,16,1.3,1.8199,M,8.7162,M,,*47
131394,42625300,$GNVTG,208.503,T,215.150,M,0.13630,N,0.25243,K,A*36
131396,42625400,$GNGGA,115025.40,3158.66974405,N,12054.59312954,E,1,16,1.3,1.8128,M,8.7162,M,,*4B
131399,42625400,$GNVTG,221.377,T,228.024,M,0.17155,N,0.31771,K,A*35
131401,42625500,$GNGGA,115025.50,3158.66974499,N,12054.59312653,E,1,16,1.3,1.8148,M,8.7162,M,,*41
131403,42625500,$GNVTG,222.076,T,228.723,M,0.19589,N,0.36278,K,A*34
131694,42625600,$GNGGA,115025.60,3158.66974827,N,12054.59312083,E,1,16,1.3,1.8080,M,8.7162,M,,*45
131696,42625600,$GNVTG,222.687,T,229.334,M,0.19579,N,0.36260,K,A*39
131698,42625700,$GNGGA,115025.70,3158.66975442,N,12054.59311953,E,1,16,1.3,1.8126,M,8.7162,M,,*40
131703,42625700,$GNVTG,226.834,T,233.481,M,0.16306,N,0.30199,K,A*3B
131705,42625800,$GNGGA,115025.80,3158.66976406,N,12054.59312495,E,1,16,1.3,1.7955,M,8.7162,M,,*4B
131706,42625800,$GNVTG,159.396,T,166.043,M,0.05742,N,0.10635,K,A*3F
132001,42625900,$GNGGA,115025.90,3158.66978750,N,12054.59312745,E,1,16,1.3,1.7967,M,8.7162,M,,*4B
132007,42625900,$GNVTG,76.135,T,82.782,M,0.13039,N,0.24148,K,A*3F
132009,42626000,$GNGGA,115026.00,3158.66982830,N,12054.59313122,E,1,16,1.3,1.7644,M,8.7162,M,,*45
132012,42626000,$GNVTG,55.427,T,62.074,M,0.23260,N,0.43078,K,A*36
132014,42626100,$GNGGA,115026.10,3158.66983053,N,12054.59313531,E,1,16,1.3,1.7532,M,8.7162,M,,*4C
