sys_ms,nmea_ms,nmea
265851,29612200,$GNGGA,081332.20,3158.57447998,N,12052.63237495,E,76,27,173,17,88,36,278,23,1*79
265908,29612400,$GNGGA,081332.40,3158.57447442,N,12052.63236975,E,5,11,1.9,26.6565,M,8.6097,M,1.4,0*6B
265911,29612500,$GNGGA,081332.50,3158.57448242,N,12052.63236714,E,5,10,2.0,26.6738,M,8.6097,M,1.5,0*6,251,30,60,30,236,34,59,,,29,1*44
265953,29612600,$GNGGA,081332.60,3158.57448342,N,12052.63236458,E,5,10,2.0,26.6628,M,8.6097,M,0.6,0*61
265955,29612600,$GNVTG,136.001,T,142.575,M,0.21696,N,0.40182,K,D*38
265957,29612800,$GNGGA,081332.80,3158.57448171,N,12052.63236604,E,5,10,2.0,26.6541,M,8.6097,M,0.8,0*64
265958,29612800,$GNVTG,136.827,T,143.401,M,0.21537,N,0.39887,K,D*3D
266011,29613100,$GNGGA,081333.10,3158.57448085,N,12052.63236312,E,5,10,2.0,26.6662,M,8.6097,M,1.1,0*6E
266012,29613100,$GNVTG,135.703,T,142.277,M,0.23375,N,0.43291,K,D*33
266054,29617500,$GNGGA,081337.50,3158.57447913,N,12052.63239964,E,4,15,1.1,26.2634,M,8.6097,M,0.5,0*67
266055,29617500,$GNVTG,147.614,T,154.189,M,0.19490,N,0.36095,K,D*35
266465,29617600,$GNGGA,081337.60,3158.57447909,N,12052.63239955,E,4,15,1.1,26.2727,M,8.6097,M,0.6,0*6D
266468,29617700,$GNGGA,081337.70,3158.57447538,N,12052.63240260,E,4,15,1.1,26.2689,M,8.6097,M,0.7,0*65
266469,29617700,$GNVTG,153.902,T,160.477,M,0.14199,N,0.26297,K,D*3B
266512,29617800,$GNGGA,081337.80,3158.57447562,N,12052.63240358,E,4,15,1.1,26.2704,M,8.6097,M,0.8,0*64
266514,29617900,$GNGGA,081337.90,3158.57447658,N,12052.63240295,E,4,15,1.1,26.2778,M,8.6097,M,0.9,0*65
266516,29617900,$GNVTG,176.605,T,183.179,M,0.10004,N,0.18527,K,D*32
266790,29618000,$GNGGA,081338.00,3158.57447667,N,12052.63240348,E,4,15,1.1,26.2727,M,8.6097,M,1.0,0*6C
266791,29618000,$GNVTG,191.130,T,197.704,M,0.08229,N,0.15241,K,D*3D
267086,29618200,$GNGGA,081338.20,3158.57447993,N,12052.63239504,E,4,15,1.1,26.2612,M,8.6097,M,1.2,0*6F
267087,29618200,$GNVTG,262.381,T,268.956,M,0.08692,N,0.16097,K,D*3E
267384,29618300,$GNGGA,081338.30,3158.57448114,N,12052.63239341,E,4,15,1.1,26.2692,M,8.6097,M,1.3,0*68
267386,29618300,$GNVTG,265.220,T,271.795,M,0.10518,N,0.19479,K,D*39
267388,29618400,$GNGGA,081338.40,3158.57447963,N,12052.63239637,E,4,15,1.1,26.2769,M,8.6097,M,1.4,0*6E
267390,29618400,$GNVTG,267.624,T,274.198,M,0.10966,N,0.20310,K,D*32
267432,29618500,$GNGGA,081338.50,3158.57448054,N,12052.63239992,E,4,15,1.1,26.2766,M,8.6097,M,0.5,0*62
267434,29618600,$GNGGA,081338.60,3158.57448079,N,12052.63239567,E,4,15,1.1,26.2699,M,8.6097,M,0.6,0*6A
267436,29618600,$GNVTG,281.391,T,287.966,M,0.13920,N,0.25779,K,D*3B
267718,29618700,$GNGGA,081338.70,3158.57447831,N,12052.63239640,E,4,15,1.1,26.2656,M,8.6097,M,0.7,0*64
267720,29618700,$GNVTG,279.267,T,285.842,M,0.15083,N,0.27933,K,D*35
267722,29618900,$GNGGA,081338.90,3158.57448071,N,12052.63239749,E,4,15,1.1,26.2761,M,8.6097,M,0.9,0*6A
267724,29618900,$GNVTG,278.844,T,285.419,M,0.15149,N,0.28056,K,D*3F
268011,29619000,$GNGGA,081339.00,3158.57447839,N,12052.63239886,E,4,15,1.1,26.2763,M,8.6097,M,1.0,0*6F
268013,29619000,$GNVTG,280.101,T,286.676,M,0.15881,N,0.29412,K,D*30
268300,29619100,$GNGGA,081339.10,3158.57447881,N,12052.63239841,E,4,17,1.0,26.2797,M,8.6097,M,1.1,0*6F
268302,29619100,$GNVTG,280.836,T,287.411,M,0.16847,N,0.31200,K,D*3A
268356,29619300,$GNGGA,081339.30,3158.57448083,N,12052.63239378,E,4,17,1.0,26.2761,M,8.6097,M,1.3,0*62
268357,29619300,$GNVTG,282.061,T,288.635,M,0.18611,N,0.34467,K,D*38
268637,29619300,$GNVTG,282.579,T,289.154,M,0.19156,N,0.35477,K,D*30
269566,29620400,$GNGGA,081340.40,3158.57447397,N,12052.63240626,E,4,20,0.8,26.2601,M,8.6097,M,1.4,0*6F
269567,29620400,$GNVTG,286.021,T,292.596,M,0.24047,N,0.44536,K,D*31
269569,29620500,$GNGGA,081340.50,3158.57447343,29,88,36,278,23,3*4D
269848,29620700,$GNGGA,081340.70,3158.57447345,N,12052.63240658,E,4,20,0.8,26.2676,M,8.6097,M,0.7,0*68
269850,29620700,$GNVTG,288.983,T,295.558,M,0.24385,N,0.45161,K,D*31
270129,29620900,$GNGGA,081340.90,3158.57447262,N,12052.63240880,E,4,18,0.9,26.2693,M,8.6097,M,0.9,0*66
270131,29620900,$GNVTG,289.710,T,296.285,M,0.24991,N,0.46284,K,D*34
270179,29621000,$GNGGA,081341.00,3158.57447173,N,12052.63240875,E,4,18,0.9,26.2622,M,8.6097,M,1.0,0*65
270182,29621100,$GNGGA,081341.10,3158.57447561,N,12052.63240480,E,4,18,0.9,26.2697,M,8.6097,M,1.1,0*6A
270183,29621100,$GNVTG,289.667,T,296.242,M,0.26280,N,0.48671,K,D*37
270463,29621200,$GNGGA,081341.20,3158.57447535,N,12052.63240844,E,4,18,0.9,26.2705,M,8.6097,M,1.2,0*65
270465,29621200,$GNVTG,289.005,T,295.580,M,0.26686,N,0.49422,K,D*38
270467,29621300,$GNGGA,081341.30,3158.57447687,N,12052.63240382,E,4,18,0.9,26.2750,M,8.6097,M,1.3,0*6E
270469,29621300,$GNVTG,287.852,T,294.427,M,0.26708,N,0.49463,K,D*33
270471,29621400,$GNGGA,081341.40,3158.57447825,N,12052.63240221,E,4,18,0.9,26.2826,M,8.6097,M,1.4,0*6E
270472,29621400,$GNVTG,286.813,T,293.388,M,0.26734,N,0.49512,K,D*3A
270474,29621600,$GNGGA,081341.60,3158.57447781,N,12052.63240424,E,4,18,0.9,26.2896,M,8.6097,M,0.6,0*66
270476,29621600,$GNVTG,287.607,T,294.181,M,0.26136,N,0.48404,K,D*3F
270769,29621800,$GNGGA,081341.80,3158.57447670,N,12052.63240256,E,4,18,0.9,26.2858,M,8.6097,M,0.8,0*68
270771,29621800,$GNVTG,289.517,T,296.092,M,0.24946,N,0.46199,K,D*30
271062,29622000,$GNGGA,081342.00,3158.57447732,N,12052.63240565,E,4,18,0.9,26.2894,M,8.6097,M,1.0,0*6A
271063,29622000,$GNVTG,294.691,T,301.265,M,0.22481,N,0.41636,K,D*31
271066,29622300,$GNGGA,081342.30,3158.57447317,N,12052.63240553,E,4,19,0.9,26.2624,M,8.6097,M,1.3,0*68
271067,29622300,$GNVTG,297.778,T,304.353,M,0.20716,N,0.38366,K,D*34
271108,29622400,$GNGGA,081342.40,3158.57447278,N,12052.63240723,E,4,19,0.9,26.2618,M,8.6097,M,1.4,0*6A
271340,29622400,$GNVTG,298.702,T,305.277,M,0.20667,N,0.38276,K,D*37
271342,29622500,$GNGGA,081342.50,3158.57447207,N,12052.63240834,E,4,19,0.9,26.2642,M,8.6097,M,0.5,0*65
271344,29622500,$GNVTG,299.251,T,305.826,M,0.20145,N,0.37309,K,D*3A
271396,29622700,$GNGGA,081342.70,3158.57446969,N,12052.63240969,E,4,19,0.9,26.2709,M,8.6097,M,0.7,0*60
271398,29622700,$GNVTG,298.600,T,305.175,M,0.19575,N,0.36253,K,D*36
271400,29622800,$GNGGA,081342.80,3158.57447172,N,12052.63240907,E,4,19,0.9,26.2655,M,8.6097,M,0.8,0*63
271401,29622800,$GNVTG,297.026,T,303.600,M,0.19094,N,0.35361,K,D*31
271677,29622900,$GNGGA,081342.90,3158.57447097,N,12052.63240832,E,4,18,0.9,26.2679,M,8.6097,M,0.9,0*61
271679,29622900,$GNVTG,295.643,T,302.218,M,0.18518,N,0.34295,K,D*31
271960,29623000,$GNGGA,081343.00,3158.57447092,N,12052.63240849,E,4,18,0.9,26.2775,M,8.6097,M,1.0,0*65
271962,29623000,$GNVTG,293.201,T,299.775,M,0.17731,N,0.32837,K,D*3A
272260,29623200,$GNGGA,081343.20,3158.57447105,N,12052.63240705,E,4,19,0.9,26.2748,M,8.6097,M,1.2,0*62
272262,29623200,$GNVTG,296.589,T,303.164,M,0.17266,N,0.31977,K,D*3D
272264,29623300,$GNGGA,081343.30,3158.57447821,N,12052.63239565,E,4,19,0.9,26.2637,M,8.6097,M,1.3,0*6E
272266,29623300,$GNVTG,300.372,T,306.947,M,0.16550,N,0.30650,K,D*35
272268,29623500,$GNGGA,081343.50,3158.57447965,N,12052.63239533,E,4,19,0.9,26.2702,M,8.6097,M,0.5,0*6A
272269,29623500,$GNVTG,315.448,T,322.023,M,0.16254,N,0.30102,K,D*31
272310,29623600,$GNGGA,081343.60,3158.57448086,N,12052.63239401,E,4,19,0.9,26.2684,M,8.6097,M,0.6,0*6E
272312,29623700,$GNGGA,081343.70,3158.57447994,N,12052.63239263,E,4,19,0.9,26.2794,M,8.6097,M,0.7,0*69
272314,29623700,$GNVTG,322.073,T,328.648,M,0.17059,N,0.31594,K,D*3C
272580,29623800,$GNGGA,081343.80,3158.57448038,N,12052.63239442,E,4,18,0.9,26.2708,M,8.6097,M,0.8,0*68
272582,29623800,$GNVTG,321.552,T,328.126,M,0.15760,N,0.29187,K,D*36
272584,29623900,$GNGGA,081343.90,3158.57448336,N,12052.63239054,E,4,18,0.9,26.2790,M,8.6097,M,0.9,0*67
272585,29623900,$GNVTG,327.720,T,334.295,M,0.10630,N,0.19686,K,D*35
272868,29624200,$GNGGA,081344.20,3158.57448094,N,12052.63239475,E,4,18,0.9,26.2764,M,8.6097,M,1.2,0*66
272870,29624200,$GNVTG,327.816,T,334.391,M,0.09221,N,0.17078,K,D*3F
273156,29624300,$GNGGA,081344.30,3158.57447805,N,12052.63239929,E,4,18,0.9,26.2685,M,8.6097,M,1.3,0*63
273159,29624400,$GNGGA,081344.40,3158.57447849,N,12052.63240041,E,4,18,0.9,26.2583,M,8.6097,M,1.4,0*67
273160,29624400,$GNVTG,324.314,T,330.889,M,0.10489,N,0.19425,K,D*3D
273456,29624600,$GNGGA,081344.60,3158.57447920,N,12052.63239811,E,4,18,0.9,26.2585,M,8.6097,M,0.6,0*6D
273466,29624700,$GNGGA,081344.70,3158.57448025,N,12052.63239757,E,4,18,0.9,26.2492,M,8.6097,M,0.7,0*64
273468,29624700,$GNVTG,329.963,T,336.538,M,0.11105,N,0.20567,K,D*36
273470,29624900,$GNGGA,081344.90,3158.57447738,N,12052.63239904,E,4,18,0.9,26.2683,M,8.6097,M,0.9,0*6A
273471,29624900,$GNVTG,317.552,T,324.127,M,0.11531,N,0.21356,K,D*3A
274419,29625800,$GNGGA,081345.80,3158.57449114,N,12052.63238594,E,4,19,0.8,26.2731,M,8.6097,M,0.8,0*61
274422,29626000,$GNGGA,081346.00,3158.57449502,N,12052.63237921,E,4,18,0.9,26.2798,M,8.6097,M,1.0,0*6E
274676,29626000,$GNVTG,307.509,T,314.084,M,0.12204,N,0.22602,K,$GLGSV,1,1,03,78,32,321,21,76,27,173,27,88,36,278,21,3*4B
274726,29626400,$GNGGA,081346.40,3158.57448057,N,12052.63240083,E,4,19,0.8,26.2853,M,8.6097,M,1.4,0*63
274727,29626400,$GNVTG,305.860,T,312.435,M,0.09427,N,0.17458,K,D*35
275008,29626600,$GNGGA,081346.60,3158.57447728,N,12052.63240171,E,4,19,0.8,26.2855,M,8.6097,M,0.6,0*68
275010,29626700,$GNGGA,081346.70,3158.57447839,N,12052.63240330,E,4,19,0.8,26.2822,M,8.6097,M,0.7,0*60
275012,29626700,$GNVTG,303.851,T,310.426,M,0.08773,N,0.16248,K,D*34
275053,29626900,$GNGGA,081346.90,3158.57447907,N,12052.63240327,E,4,19,0.8,26.2855,M,8.6097,M,0.9,0*6A
275054,29626900,$GNVTG,301.957,T,308.532,M,0.08894,N,0.16472,K,D*35
275335,29627100,$GNGGA,081347.10,3158.57447844,N,12052.63240539,E,4,18,0.8,26.2875,M,8.6097,M,1.1,0*66
275337,29627100,$GNVTG,302.345,T,308.919,M,0.08981,N,0.16634,K,D*3F
275622,29627200,$GNGGA,081347.20,3158.57447625,N,12052.63240320,E,4,18,0.8,26.2898,M,8.6097,M,1.2,0*62
275624,29627200,$GNVTG,303.623,T,310.197,M,0.09190,N,0.17019,K,D*3D
275923,29627400,$GNGGA,081347.40,3158.57447684,N,12052.63240520,E,4,18,0.8,26.2742,M,8.6097,M,1.4,0*67
275924,29627400,$GNVTG,305.307,T,311.882,M,0.09031,N,0.16725,K,D*37
275966,29627600,$GNGGA,081347.60,3158.57447695,N,12052.63240528,E,4,18,0.8,26.2931,M,8.6097,M,0.6,0*64
275967,29627600,$GNVTG,308.223,T,314.797,M,0.07933,N,0.14691,K,D*3A
276243,29627700,$GNGGA,081347.70,3158.57447524,N,12052.63240703,E,4,18,0.8,26.2877,M,8.6097,M,0.7,0*65
276245,29627800,$GNGGA,081347.80,3158.57447599,N,12052.63241241,E,4,18,0.8,26.2787,M,8.6097,M,0.8,0*61
276247,29627800,$GNVTG,311.061,T,317.636,M,0.07087,N,0.13125,K,D*36
276531,29628100,$GNGGA,081348.10,3158.57447411,N,12052.63241168,E,4,18,0.8,26.2855,M,8.6097,M,1.1,0*66
276533,29628100,$GNVTG,317.158,T,323.732,M,0.05838,N,0.10813,K,D*38
276806,29628100,$GNVTG,325.501,T,332.076,M,0.04700,N,0.08705,K,D*32
277439,29629000,$GNGGA,081349.00,3158.57447767,N,12052.63240419,E,4,18,0.8,26,19,02,32,231,31,05,13,251,36,60,30,236,35,01,44,140,28,1*75
277731,29629200,$GNGGA,081349.20,3158.57447480,N,12052.63240649,E,4,20,0.7,26.3024,M,8.6097,M,1.2,0*61
277733,29629300,$GNGGA,081349.30,3158.57447638,N,12052.63240463,E,4,20,0.7,26.2736,M,8.6097,M,1.3,0*6F
277735,29629300,$GNVTG,92.437,T,99.012,M,0.05768,N,0.10682,K,D*31
277775,29629500,$GNGGA,081349.50,3158.57448010,N,12052.63240413,E,4,20,0.7,26.2774,M,8.6097,M,0.5,0*6C
277776,29629500,$GNVTG,99.910,T,106.484,M,0.05824,N,0.10787,K,D*0D
278061,29629600,$GNGGA,081349.60,3158.57448071,N,12052.63240210,E,4,20,0.7,26.2730,M,8.6097,M,0.6,0*6E
278062,29629600,$GNVTG,102.673,T,109.248,M,0.05285,N,0.09788,K,D*3B
278356,29629700,$GNGGA,081349.70,3158.57447947,N,12052.63240359,E,4,20,0.7,26.2806,M,8.6097,M,0.7,0*6B
278358,29629900,$GNGGA,081349.90,3158.57447624,N,12052.63240697,E,4,19,0.8,26.2900,M,8.6097,M,0.9,0*64
278360,29629900,$GNVTG,119.688,T,126.263,M,0.06973,N,0.12915,K,D*30
278634,29630000,$GNGGA,081350.00,3158.57447616,N,12052.63240832,E,4,19,0.8,26.2930,M,8.6097,M,1.0,0*6E
278636,29630100,$GNGGA,081350.10,3158.57447725,N,12052.63240657,E,4,19,0.8,26.2856,M,8.6097,M,1.1,0*63
278638,29630100,$GNVTG,134.197,T,140.771,M,0.08526,N,0.15789,K,D*3E
278684,29630200,$GNGGA,081350.20,3158.57447660,N,12052.63240756,E,4,19,0.8,26.2816,M,8.6097,M,1.2,0*67
278687,29630300,$GNGGA,081350.30,3158.57447930,N,12052.63239776,E,4,19,0.8,26.2564,M,8.6097,M,1.3,0*69
278689,29630400,$GNGGA,081350.40,3158.57447939,N,12052.63239817,E,4,19,0.8,26.2567,M,8.6097,M,1.4,0*6B
278691,29630400,$GNVTG,131.902,T,138.477,M,0.06577,N,0.12181,K,D*36
278970,29630500,$GNGGA,081350.50,3158.57448144,N,12052.63239859,E,4,19,0.8,26.2601,M,8.6097,M,0.5,0*6E
278972,29630600,$GNGGA,081350.60,3158.57448162,N,12052.63239604,E,4,19,0.8,26.2583,M,8.6097,M,0.6,0*65
278974,29630600,$GNVTG,132.695,T,139.270,M,0.07559,N,0.14000,K,D*37
279254,29630700,$GNGGA,081350.70,3158.57448100,N,12052.63239738,E,4,19,0.8,26.2586,M,8.6097,M,0.7,0*6A
279257,29630800,$GNGGA,081350.80,3158.57448045,N,12052.63239749,E,4,19,0.8,26.2739,M,8.6097,M,0.8,0*6A
279258,29630800,$GNVTG,139.331,T,145.906,M,0.08368,N,0.15497,K,D*36
279561,29631100,$GNGGA,081351.10,3158.57448121,N,12052.63239347,E,4,20,0.8,26.2665,M,8.6097,M,1.1,0*61
279562,29631100,$GNVTG,148.577,T,155.152,M,0.09875,N,0.18289,K,D*3E
279564,29631300,$GNGGA,081351.30,3158.57448949,N,12052.63239262,E,4,19,0.8,26.2405,M,8.6097,M,1.3,0*6F
279566,29631300,$GNVTG,141.097,T,147.671,M,0.09002,N,0.16672,K,D*3F
279606,29631500,$GNGGA,081351.50,3158.57448130,N,12052.63239222,E,4,19,0.8,26.2610,M,8.6097,M,0.5,0*6A
279608,29631500,$GNVTG,129.788,T,136.363,M,0.09733,N,0.18025,K,D*37
279892,29631500,$GNVTG,121.737,T,128.311,M,0.10883,N,0.20156,K,D*33
280764,29632700,$GNGGA,081352.70,3158.5736,278,19,3*71
280842,29632900,$GNGGA,081352.90,3158.57448447,N,12052.63239481,E,4,19,0.8,26.2577,M,8.6097,M,0.9,0*61
280843,29632900,$GNVTG,106.101,T,112.675,M,0.16586,N,0.30717,K,D*37
281086,29633000,$GNGGA,081353.00,3158.57448482,N,12052.63239540,E,4,19,0.8,26.2605,M,8.6097,M,1.0,0*62
281089,29633200,$GNGGA,081353.20,3158.57448431,N,12052.63239298,E,4,19,0.8,26.2738,M,8.6097,M,1.2,0*67
281090,29633200,$GNVTG,110.054,T,116.629,M,0.16310,N,0.30205,K,D*33
281368,29633300,$GNGGA,081353.30,3158.57448585,N,12052.63239289,E,4,19,0.8,26.2579,M,8.6097,M,1.3,0*6E
281380,29633300,$GNVTG,110.285,T,116.860,M,0.15899,N,0.29446,K,D*3E
281419,29633400,$GNGGA,081353.40,3158.57448483,N,12052.63239121,E,4,18,0.9,26.2621,M,8.6097,M,1.4,0*66
281421,29633400,$GNVTG,110.500,T,117>074,M,0.15436,N,0.28587,K,D*3C
281698,29633500,$GNGGA,081353.50,3158.57448692,N,12052.63239299,E,4,18,0.9,26.2527,M,8.6097,M,0.5,0*60
281699,29633500,$GNVTG,113.947,T,120.521,M,0.10874,N,0.20139,K,D*37
281986,29633700,$GNGGA,081353.70,3158.57448945,N,12052.63239447,E,4,18,0.9,26.2553,M,8.6097,M,0.7,0*63
281988,29633700,$GNVTG,155.961,T,162.536,M,0.04953,N,0.09173,K,D*35
282038,29633800,$GNGGA,081353.80,3158.57448618,N,12052.63239396,E,4,18,0.9,26.2710,M,8.6097,M,0.8,0*6A
282040,29633800,$GNVTG,165.293,T,171.867,M,0.06359,N,0.11778,K,D*3D
282891,29634200,$GNGGA,081354.20,3158.57448129,N,12052.63238556,E,4,18,0.9,26.3216,M,8.6097,M,1.2,0*60
282892,29634300,$GNGGA,081354.30,3158.57447680,N,12052.6378,18,3*46
282945,29634500,$GNGGA,081354.50,3158.57445968,N,12052.63238210,E,4,13,1.5,26.3067,M,8.6097,M,0.5,0*66
282947,29634500,$GNVTG,236.025,T,242.600,M,0.36110,N,0.66875,K,D*35
283239,29634600,$GNGGA,081354.60,3158.57446144,N,12052.63236938,E,4,12,1.5,26.2761,M,8.6097,M,0.6,0*6D
283241,29634700,$GNGGA,081354.70,3158.57448000,N,12052.63234795,E,4,10,2.3,26.2795,M,8.6097,M,0.7,0*65
283243,29634700,$GNVTG,248.813,T,255.388,M,0.30801,N,0.57044,K,D*35
283514,29634800,$GNGGA,081354.80,3158.57447451,N,12052.63236173,E,4,10,2.3,26.3187,M,8.6097,M,0.8,0*62
283515,29634800,$GNVTG,250.639,T,257.214,M,0.27306,N,0.50570,K,D*33
283561,29634900,$GNGGA,081354.90,3158.57448814,N,12052.63235280,E,4,10,2.3,26.3470,M,8.6097,M,0.9,0*61
283563,29634900,$GNVTG,252.812,T,259.386,M,0.24901,N,0.46117,K,D*3E
283565,29635000,$GNGGA,081355.00,3158.57448996,N,12052.63235152,E,4,10,2.3,26.3557,M,8.6097,M,1.0,0*62
283566,29635000,$GNVTG,254.282,T,260.857,M,0.24056,N,0.44552,K,D*3A
283841,29635200,$GNGGA,081355.20,3158.57449513,N,12052.63234213,E,4,10,2.3,26.3070,M,8.6097,M,1.2,0*65
283843,29635200,$GNVTG,250.499,T,257.074,M,0.22710,N,0.42059,K,D*34
284118,29635200,$GNVTG,220.669,T,227.243,M,0.16895,N,0.31290,K,D*39
284471,29635800,$GNGGA,081355.80,3158.57448203,N,12052.63238288,E,4,09,2.3,26.2750,M,8.6097,M,0.8,0*61
284474,29635900,$GNGGA,081355.90,3158.57448362,N,12052.63237464,E,4,09,2.3,26.2705,M,*41
284758,29636000,$GNGGA,081356.00,3158.57448823,N,12052.63237421,E,4,09,2.3,26.2776,M,8.6097,M,1.0,0*65
284760,29636000,$GNVTG,232.022,T,238.596,M,0.39148,N,0.72502,K,D*3D
285024,29636200,$GNGGA,081356.20,3158.57448749,N,12052.63237396,E,4,15,1.0,26.2683,M,8.6097,M,1.2,0*6B
285027,29636400,$GNGGA,081356.40,3158.57448935,N,12052.63237331,E,4,15,1.0,26.2722,M,8.6097,M,1.4,0*69
285028,29636400,$GNVTG,240.241,T,246.815,M,0.46164,N,0.85495,K,D*31
285080,29636500,$GNGGA,081356.50,3158.57448052,N,12052.63237357,E,4,14,1.1,26.2698,M,8.6097,M,1.5,0*61
285082,29636500,$GNVTG,242.135,T,248.710,M,0.48090,N,0.89063,K,D*32
285350,29636600,$GNGGA,081356.60,3158.57448906,N,12052.63237156,E,4,13,1.2,26.2718,M,8.6097,M,0.6,0*66
285353,29636700,$GNGGA,081356.70,3158.57449477,N,12052.63237785,E,4,13,1.2,26.3075,M,8.6097,M,0.7,0*69
285354,29636700,$GNVTG,240.917,T,247.492,M,0.50375,N,0.93294,K,D*3E
285654,29636800,$GNGGA,081356.80,3158.57449195,N,12052.63237727,E,4,13,1.2,26.3116,M,8.6097,M,0.8,0*6C
285656,29636900,$GNGGA,081356.90,3158.57448623,N,12052.63237899,E,4,13,1.2,26.3110,M,8.6097,M,0.9,0*6B
285658,29636900,$GNVTG,240.672,T,247.247,M,0.51047,N,0.94539,K,D*38
285946,29637100,$GNGGA,081357.10,3158.57448209,N,12052.63238603,E,4,15,1.1,26.3309,M,8.6097,M,1.1,0*6A
285948,29637100,$GNVTG,239.602,T,246.176,M,0.47396,N,0.87778,K,D*3C
286001,29637200,$GNGGA,081357.20,3158.57448073,N,12052.63238825,E,4,15,1.1,26.3500,M,8.6097,M,1.2,0*60
286003,29637200,$GNVTG,240.783,T,247.358,M,0.45112,N,0.83547,K,D*33
286279,29637300,$GNGGA,081357.30,3158.57448101,N,12052.63239194,E,4,15,1.1,26.3624,M,8.6097,M,1.3,0*63
286281,29637400,$GNGGA,081357.40,3158.57447944,N,12052.63239014,E,4,15,1.1,26.3609,M,8.6097,M,1.4,0*63
286283,29637400,$GNVTG,244.884,T,251.459,M,0.40321,N,0.74675,K,D*33
286556,29637600,$GNGGA,081357.60,3158.57447360,N,12052.63239553,E,4,15,1.1,26.3690,M,8.6097,M,0.6,0*68
286557,29637600,$GNVTG,250.105,T,256.679,M,0.35548,N,0.65834,K,D*31
286865,29637600,$GNVTG,260.200,T,266.775,M,0.30049,N,0.55651,K,D*35
287493,29638300,$GNGGA,081358.30,3158.57449088,N,12052.63238172,E,4,17,1.0,26.3023,M,8.6097,M,1.3,0*66
287494,29638300,$GNVTG,275.509,T,282.084,M,0.18138,N,0.33592,K,D*3D
287496,29638400,$GNGGA,081358.40,3158.57449085,N,12052.63238630,E,4,17,1.0,26.3090,M,8.6097,M,1.4,0*62
287768,29638600,$GNGGA,081358.60,3158.57449314,N,12052.63238668,E,4,17,1.0,26.3105,M,8.6097,M,0.6,0*68
287771,29638700,$GNGGA,081358.70,3158.57449563,N,12052.63238352,E,4,17,1.0,26.3074,M,8.6097,M,0.7,0*65
288087,29639100,$GNGGA,081359.10,3158.57449699,N,12052.63237939,E,4,19,0.9,26.3171,1,05,13,251,36,60,30,236,43,01,44,140,33,1*75
288138,29639300,$GNGGA,081359.30,3158.57450195,N,12052.63237021,E,4,19,0.9,26.3327,M,8.6097,M,1.3,0*6B
288139,29639300,$GNVTG,167.359,T,173.934,M,0.02104,N,0.03897,K,D*3E
288424,29639600,$GNGGA,081359.60,3158.57450565,N,12052.63237254,E,4,18,1.0,26.3445,M,8.6097,M,1.6,0*6A
288425,29639600,$GNVTG,82.958,T,89.533,M,0.04541,N,0.08411,K,D*3A
288714,29639700,$GNGGA,081359.70,3158.57450085,N,12052.63237919,E,4,18,1.0,26.3216,M,8.6097,M,1.7,0*63
288716,29639700,$GNVTG,119.112,T,125.687,M,0.12098,N,0.22405,K,D*3F
288718,29639800,$GNGGA,081359.80,3158.57449530,N,12052.63238427,E,4,18,1.0,26.3143,M,8.6097,M,0.8,0*6D
288720,29639800,$GNVTG,132.432,T,139.007,M,0.15082,N,0.27933,K,D*33
288764,29640000,$GNGGA,081400.00,3158.57449362,N,12052.63239409,E,4,17,1.0,26.3439,M,8.6097,M,1.0,0*6C
288766,29640000,$GNVTG,105.427,T,112.002,M,0.04927,N,0.09124,K,D*3B
289053,29640300,$GNGGA,081400.30,3158.57448768,N,12052.63237457,E,4,19,0.9,26.3215,M,8.6097,M,1.3,0*68
289055,29640300,$GNVTG,206.903,T,213.477,M,0.13111,N,0.24281,K,D*3C
289342,29640400,$GNGGA,081400.40,3158.57448134,N,12052.63233214,E,4,19,0.9,26.3004,M,8.6097,M,1.4,0*60
289344,29640500,$GNGGA,081400.50,3158.57445768,N,12052.63227119,E,4,19,0.9,26.3126,M,8.6097,M,1.5,0*68
289346,29640500,$GNVTG,232.845,T,239.420,M,0.99684,N,1.84614,K,D*38
289646,29640700,$GNGGA,081400.70,3158.57438268,N,12052.63202896,E,4,17,1.0,26.3273,M,8.6097,M,0.7,0*6A
289647,29640700,$GNVTG,235.277,T,241.852,M,2.68616,N,4.97477,K,D*35
289954,29640900,$GNGGA,081400.90,3158.57429724,N,12052.63187298,E,4,14,1.9,26.3612,M,8.6097,M,0.9,0*64
289956,29640900,$GNVTG,239.125,T,245.699,M,2.98568,N,5.52947,K,D*33
289958,29641000,$GNGGA,081401.00,3158.57428342,N,12052.63176373,E,4,15,1.4,26.3564,M,8.6097,M,1.0,0*65
289960,29641200,$GNGGA,081401.20,3158.57423929,N,12052.63162262,E,4,18,1.0,26.3471,M,8.6097,M,1.2,0*61
289962,29641200,$GNVTG,242.686,T,249.261,M,2.45962,N,4.55522,K,D*31
290006,29641300,$GNGGA,081401.30,3158.57422475,N,12052.63154855,E,4,18,1.0,26.3227,M,8.6097,M,1.3,0*6A
290008,29641300,$GNVTG,242.139,T,248.714,M,2.29533,N,4.25095,K,D*38
290010,29641400,$GNGGA,081401.40,3158.57421236,N,12052.63149910,E,4,18,1.0,26.3244,M,8.6097,M,1.4,0*61
290011,29641400,$GNVTG,242.126,T,248.701,M,2.13586,N,3.95562,K,D*34
290260,29641500,$GNGGA,081401.50,3158.57420036,N,12052.63145766,E,4,18,1.0,26.3320,M,8.6097,M,0.5,0*63
290262,29641500,$GNVTG,241.525,T,248.100,M,1.93957,N,3.59208,K,D*37
290264,29641600,$GNGGA,081401.60,3158.57419396,N,12052.63142801,E,4,18,1.0,26.3452,M,8.6097,M,0.6,0*6B
290265,29641600,$GNVTG,239.867,T,246.441,M,1.70013,N,3.14865,K,D*31
290268,29641700,$GNGGA,081401.70,3158.57418841,N,12052.63140471,E,4,18,1.0,26.3440,M,8.6097,M,0.7,0*61
290514,29641700,$GNVTG,238.384,T,30,88,36,278,34,1*7D
290574,29642100,$GNGGA,081402.10,3158.57414869,N,12052.63118674,E,4,18,1.0,26.3,29,88,36,278,36,3*4A
290858,29642200,$GNGGA,081402.20,3158.57410161,N,12052.63105225,E,4,18,1.0,26.3693,M,8.6097,M,1.2,0*6A
290860,29642400,$GNGGA,081402.40,3158.57404459,N,12052.63082518,E,4,17,1.0,26.3447,88,36,278,37,3*4A
291140,29642600,$GNGGA,081402.60,3158.57399330,N,12052.63065360,E,4,17,1.3,26.3316,M,8.6096,M,0.6,0*69
291141,29642600,$GNVTG,251.539,T,258.113,M,2.87730,N,5.32876,K,D*39
291421,29642700,$GNGGA,081402.70,3158.57396985,N,12052.63057723,E,4,17,1.3,26.3469,M,8.6096,M,0.7,0*6F
291423,29642700,$GNVTG,251.667,T,258.242,M,2.68129,N,4.96575,K,D*38
291466,29642800,$GNGGA,081402.80,3158.57395603,N,12052.63050807,E,4,17,1.3,26.3343,M,8.6096,M,0.8,0*6C
291473,29642800,$GNVTG,251.498,T,258.073,M,2.54124,N,4.70638,K,D*3A
291763,29642900,$GNGGA,081402.90,3158.57394482,N,12052.63044312,E,4,18,1.0,26.3496,M,8.6096,M,0.9,0*6F
291764,29642900,$GNVTG,249.864,T,256.439,M,2.37693,N,4.40207,K,D*3D
292063,29643000,$GNGGA,081403.00,3158.57393147,N,12052.63039967,E,4,18,1.0,26.3627,M,8.6096,M,1.0,0*6E
292064,29643000,$GNVTG,248.557,T,255.131,M,2.17478,N,4.02769,K,D*31
292346,29643200,$GNGGA,081403.20,3158.57392096,N,12052.63031953,E,4,19,0.9,26.3542,M,8.6096,M,1.2,0*64
292348,29643200,$GNVTG,250.715,T,257.289,M,1.73542,N,3.21401,K,D*3C
292391,29643400,$GNGGA,081403.40,3158.57390759,N,12052.63016430,E,4,18,1.2,26.3332,M,8.6096,M,0.4,0*64
292393,29643400,$GNVTG,251.043,T,257.618,M,1.76057,N,3.26057,K,D*31
292680,29643600,$GNGGA,081403.60,3158.57383113,N,12052.62990703,E,4,19,0.9,26.3664,M,8.6096,M,0.6,0*66
292682,29643600,$GNVTG,249.453,T,256.027,M,3.02875,N,5.60924,K,D*36
292971,29643700,$GNGGA,081403.70,3158.57379973,N,12052.62979141,E,4,18,1.0,26.3649,M,8.6096,M,0.7,0*6C
292972,29643700,$GNVTG,250.883,T,257.457,M,3.38102,N,6.26165,K,D*31
292975,29643900,$GNGGA,081403.90,3158.57375867,N,12052.62959042,E,4,18,1.0,26.3745,M,8.6096,M,0.9,0*69
292976,29643900,$GNVTG,251.032,T,257.607,M,3.13140,N,5.79936,K,D*3D
293265,29644100,$GNGGA,081404.10,3158.57372813,N,12052.62944318,E,4,18,1.0,26.3409,M,8.6096,M,1.1,0*60
293266,29644100,$GNVTG,249.219,T,255.794,M,2.63633,N,4.88248,K,D*3E
293557,29644300,$GNGGA,081404.30,3158.57369938,N,12052.62931847,E,4,18,1.0,26.3203,M,8.6096,M,1.3,0*6D
293559,29644300,$GNVTG,249.376,T,255.950,M,2.33576,N,4.32583,K,D*36
293603,29644500,$GNGGA,081404.50,3158.57368268,N,12052.62919762,E,4,18,1.0,26.3124,M,8.6096,M,1.5,0*66
293605,29644500,$GNVTG,251.415,T,257.990,M,2.07568,N,3.84417,K,D*3D
293888,29644700,$GNGGA,081404.70,3158.57362135,N,12052.62893957,E,4,16,1.3,26.3537,M,8.6096,M,0.7,0*66
293890,29644700,$GNVTG,250.414,T,256.988,M,2.93523,N,5.43604,K,D*3A
293892,29644800,$GNGGA,081404.80,3158.57360239,N,12052.62881078,E,4,16,1.3,26.3277,M,8.6095,M,0.8,0*6C
293895,29645000,$GNGGA,081405.00,3158.57355695,N,12052.62862101,E,4,16,1.0,26.3057,M,8.6095,M,1.0,0*69
293896,29645000,$GNVTG,253.381,T,259.956,M,3.31428,N,6.13804,K,D*35
293898,29645200,$GNGGA,081405.20,3158.57353082,N,12052.62845156,E,4,18,1.0,26.3055,M,8.6095,M,1.2,0*64
293900,29645200,$GNVTG,255.646,T,262.220,M,2.78694,N,5.16142,K,D*3B
294184,29645300,$GNGGA,081405.30,3158.57348826,N,12052.62841451,E,4,18,1.0,26.3042,M,8.6095,M,1.3,0*68
294186,29645300,$GNVTG,255.267,T,261.842,M,2.59643,N,4.80858,K,D*34
294479,29645400,$GNGGA,081405.40,3158.57347720,N,12052.62835610,E,4,18,1.0,26.3038,M,8.6095,M,1.4,0*67
294481,29645400,$GNVTG,254.802,T,261.377,M,2.41116,N,4.46547,K,D*36
294771,29645500,$GNGGA,081405.50,3158.57347230,N,12052.62830692,E,4,17,1.0,26.3200,M,8.6095,M,0.5,0*6B
294774,29645700,$GNGGA,081405.70,3158.57346325,N,12052.62820623,E,4,15,1.1,26.3430,M,8.6095,M,0.7,0*62
294775,29645700,$GNVTG,257.397,T,263.972,M,1.84890,N,3.42416,K,D*34
294820,29645900,$GNGGA,081405.90,3158.57340838,N,12052.62802166,E,4,15,1.4,26.3225,M,8.6095,M,0.9,0*62
294822,29645900,$GNVTG,254.201,T,260.775,M,2.36686,N,4.38343,K,D*3D
295107,29646100,$GNGGA,081406.10,3158.57334889,N,12052.62777343,E,4,20,0.9,26.3487,M,8.6095,M,1.1,0*65
295109,29646100,$GNVTG,251.193,T,257.767,M,3.27255,N,6.06076,K,D*36
295395,29646300,$GNGGA,081406.30,3158.57329774,N,12052.62758807,E,4,19,0.9,26.2983,M,8.6095,M,1.3,0*60
295396,29646300,$GNVTG,251.399,T,257.974,M,3.00780,N,5.57044,K,D*3C
295682,29646400,$GNGGA,081406.40,3158.57328451,N,12052.62750306,E,4,19,0.9,26.3078,M,8.6095,M,1.4,0*6B
295683,29646400,$GNVTG,251.285,T,257.859,M,2.75880,N,5.10929,K,D*33
295985,29646500,$GNGGA,081406.50,3158.57326483,N,12052.62742519,E,4,19,0.9,26.3228,M,8.6095,M,0.5,0*67
295986,29646500,$GNVTG,250.101,T,256.676,M,2.41387,N,4.47048,K,D*39
296036,29646700,$GNGGA,081406.70,3158.57324148,N,12052.62730564,E,4,19,0.9,26.3309,M,8.6095,M,0.7,0*6A
296038,29646700,$GNVTG,250.214,T,256.789,M,2.12824,N,3.94150,K,D*3A
296308,29646800,$GNGGA,081406.80,3158.57323104,N,12052.62726717,E,4,19,0.9,26.3127,M,8.6095,M,0.8,0*6A
296310,29646800,$GNVTG,251.377,T,257.951,M,1.96637,N,3.64172,K,D*39
296312,29646900,$GNGGA,081406.90,3158.57322926,N,12052.62722279,E,4,19,0.9,26.3014,M,8.6095,M,0.9,0*6B
296314,29647000,$GNGGA,081407.00,3158.57321058,N,12052.62714440,E,4,19,0.9,26.3092,M,8.6095,M,1.0,0*6F
296316,29647000,$GNVTG,254.176,T,260.750,M,1.75777,N,3.25538,K,D*33
296318,29647100,$GNGGA,081407.10,3158.57317676,N,12052.62702062,E,4,21,0.9,26.3231,M,8.6095,M,1.1,0*63
296319,29647100,$GNVTG,251.192,T,257.767,M,2.32426,N,4.30453,K,D*34
296610,29647200,$GNGGA,081407.20,3158.57313463,N,12052.62688353,E,4,20,1.0,26.3169,M,8.6095,M,1.2,0*64
296612,29647300,$GNGGA,081407.30,3158.57310398,N,12052.62676087,E,4,19,1.1,26.3137,M,8.6095,M,1.3,0*6F
296614,29647300,$GNVTG,250.169,T,256.743,M,3.65188,N,6.76328,K,D*3F
296920,29647400,$GNGGA,081407.40,3158.57309090,N,12052.62668015,E,4,19,1.0,26.1943,M,8.6095,M,0.4,0*61
296923,29647500,$GNGGA,081407.50,3158.57306886,N,12052.62657365,E,4,20,1.0,26.2112,M,8.6095,M,0.5,0*6C
296924,29647500,$GNVTG,253.218,T,259.793,M,3.17273,N,5.87589,K,D*39
297216,29647600,$GNGGA,081407.60,3158.57305092,N,12052.62648658,E,4,20,1.0,26.2147,M,8.6094,M,0.6,0*66
297218,29647600,$GNVTG,254.529,T,261.104,M,2.86662,N,5.30898,K,D*34
297220,29647700,$GNGGA,081407.70,3158.57302932,N,12052.62640245,E,4,19,1.1,26.2464,M,8.6094,M,0.7,0*6D
297222,29647800,$GNGGA,081407.80,3158.57300907,N,12052.62634575,E,4,19,1.1,26.2260,M,8.6094,M,0.8,0*6C
297224,29647800,$GNVTG,253.695,T,260.270,M,2.56880,N,4.75741,K,D*32
297226,29648000,$GNGGA,081408.00,3158.57299207,N,12052.62622409,E,4,19,1.1,26.2471,M,8.6094,M,1.0,0*63
297227,29648000,$GNVTG,252.781,T,259.356,M,1.92176,N,3.55910,K,D*3C
297502,29648200,$GNGGA,081408.20,3158.57297338,N,12052.62614365,E,4,20,1.1,26.2766,M,8.6094,M,1.2,0*67
297504,29648200,$GNVTG,261.216,T,267.791,M,1.33666,N,2.47550,K,D*32
297561,29648300,$GNGGA,081408.30,3158.57296270,N,12052.62607053,E,4,19,1.1,26.2501,M,8.6094,M,1.3,0*66
297563,29648400,$GNGGA,081408.40,3158.57293215,N,12052.62591324,E,4,19,1.1,26.2950,M,8.6094,M,1.4,0*67
297565,29648400,$GNVTG,252.385,T,258.960,M,2.89636,N,5.36405,K,D*32
297844,29648700,$GNGGA,081408.70,3158.57283339,N,12052.62544439,E,4,15,1.5,26.3254,M,8.6094,M,0.7,0*6D
297846,29648700,$GNVTG,253.283,T,259.858,M,4.78712,N,8.86575,K,D*30
298145,29648900,$GNGGA,081408.90,3158.57278500,N,12052.62523116,E,4,15,1.5,26.3035,M,8.6094,M,0.9,0*69
298146,29648900,$GNVTG,252.369,T,258.943,M,3.22882,N,5.97977,K,D*33
298438,29649100,$GNGGA,081409.10,3158.57274555,N,12052.62504247,E,4,18,1.1,26.3325,M,8.6094,M,1.1,0*6C
298439,29649100,$GNVTG,251.960,T,258.535,M,2.96657,N,5.49409,K,D*31
298442,29649200,$GNGGA,081409.20,3158.57272912,N,12052.62496359,E,4,18,1.1,26.3446,M,8.6094,M,1.2,0*63
298444,29649400,$GNGGA,081409.40,3158.57272300,N,12052.62480462,E,4,17,1.2,26.3356,M,8.6094,M,1.4,0*68
298446,29649400,$GNVTG,252.852,T,259.426,M,2.55259,N,4.72739,K,D*3C
298719,29649500,$GNGGA,081409.50,3158.57271350,N,12052.62475605,E,4,17,1.2,26.3519,M,8.6094,M,0.5,0*6B
298727,29649600,$GNGGA,081409.60,3158.57270975,N,12052.62471125,E,4,15,1.5,26.3394,M,8.6093,M,0.6,0*67
298729,29649800,$GNGGA,081409.80,3158.57270154,N,12052.62466094,E,4,15,1.5,26.3531,M,8.6093,M,0.8,0*68
298731,29649800,$GNVTG,249.187,T,255.762,M,1.72231,N,3.18971,K,D*39
299015,29650100,$GNGGA,081410.10,3158.57270243,N,12052.62465379,E,4,17,1.5,26.3371,M,8.6093,M,1.1,0*67
299017,29650100,$GNVTG,249.753,T,256.328,M,1.07460,N,1.99015,K,D*3F
299069,29650200,$GNGGA,081410.20,3158.57271127,N,12052.62464285,E,4,17,1.5,26.3212,M,8.6093,M,1.2,0*60
299071,29650200,$GNVTG,252.343,T,258.917,M,0.53187,N,0.98503,K,D*36
299073,29650300,$GNGGA,081410.30,3158.57271883,N,12052.62461595,E,4,17,1.5,26.3475,M,8.6093,M,1.3,0*63
299074,29650300,$GNVTG,262.614,T,269.189,M,0.49017,N,0.90780,K,D*3D
299357,29650400,$GNGGA,081410.40,3158.57271310,N,12052.62456935,E,4,17,1.5,26.3489,M,8.6093,M,1.4,0*63
299359,29650400,$GNVTG,262.502,T,269.077,M,0.70391,N,1.30364,K,D*3B
299669,29650600,$GNGGA,081410.60,3158.57266627,N,12052.62439523,E,4,16,1.5,26.3274,M,8.6093,M,0.6,0*62
299670,29650600,$GNVTG,254.120,T,260.694,M,2.28738,N,4.23623,K,D*31
299946,29650700,$GNGGA,081410.70,3158.57263279,N,12052.62428154,E,4,16,1.5,26.3322,M,8.6093,M,0.7,0*6E
299949,29650800,$GNGGA,081410.80,3158.57261625,N,12052.62417422,E,4,16,1.5,26.3341,M,8.6093,M,0.8,0*6C
299951,29650800,$GNVTG,252.329,T,258.904,M,3.16310,N,5.85806,K,D*37
300283,29651300,$GNGGA,081411.30,3158.57253943,N,12052.62385143,E,4,18,1.4,26.2904,M,8.6093,M,1.3,0*69
300285,29651300,$GNVTG,250.754,T,257.329,M,2.28690,N,4.23533,K,D*36
300575,29651400,$GNGGA,081411.40,3158.57253407,N,12052.62381107,E,4,18,1.4,26.2667,M,8.6093,M,1.4,0*6A
300577,29651400,$GNVTG,252.155,T,258.730,M,2.15835,N,3.99726,K,D*3F
300579,29651500,$GNGGA,081411.50,3158.57253498,N,12052.62377264,E,4,17,1.4,26.2647,M,8.6093,M,1.5,0*6E
300581,29651500,$GNVTG,253.963,T,260.538,M,2.02760,N,3.75511,K,D*3F
300875,29651600,$GNGGA,081411.60,3158.57254140,N,12052.62373467,E,4,16,1.4,26.2801,M,8.6093,M,0.6,0*64
300878,29651700,$GNGGA,081411.70,3158.57253804,N,12052.62369173,E,4,16,1.4,26.2986,M,8.6093,M,0.7,0*6F
300879,29651700,$GNVTG,261.497,T,268.072,M,1.31292,N,2.43152,K,D*37
301155,29651900,$GNGGA,081411.90,3158.57248706,N,12052.62350461,E,4,16,1.4,26.2861,M,8.6093,M,0.9,0*6C
301168,29651900,$GNVTG,258.732,T,265.307,M,1.98326,N,3.67301,K,D*33
301170,29652000,$GNGGA,081412.00,3158.57245923,N,12052.62336247,E,4,16,1.4,26.2991,M,8.6093,M,1.0,0*66
301172,29652200,$GNGGA,081412.20,3158.57241014,N,12052.62314653,E,4,16,1.4,26.3185,M,8.6093,M,1.2,0*62
301174,29652200,$GNVTG,255.386,T,261.961,M,3.06021,N,5.66751,K,D*3C
301220,29652400,$GNGGA,081412.40,3158.57237553,N,12052.62297046,E,4,16,1.4,26.3050,M,8.6093,M,1.4,0*64
301452,29652400,$GNVTG,256.479,T,263.054,M,2.62795,N,4.86697,K,D*3A
301509,29652500,$GNGGA,081412.50,3158.57235833,N,12052.62289415,E,4,16,1.4,26.3278,M,8.6092,M,1.5,0*69
301510,29652500,$GNVTG,256.621,T,263.195,M,2.49665,N,4.62380,K,D*37
301807,29652600,$GNGGA,081412.60,3158.57234993,N,12052.62282936,E,4,16,1.4,26.3324,M,8.6092,M,0.6,0*6D
301810,29652700,$GNGGA,081412.70,3158.57234267,N,12052.62277301,E,4,16,1.4,26.3413,M,8.6092,M,0.7,0*6A
301811,29652700,$GNVTG,255.715,T,262.290,M,2.23436,N,4.13803,K,D*3B
302093,29652800,$GNGGA,081412.80,3158.57233973,N,12052.62272956,E,4,16,1.4,26.3344,M,8.6092,M,0.8,0*6B
302095,29652800,$GNVTG,256.170,T,262.744,M,1.82852,N,3.38642,K,D*32
302097,29652900,$GNGGA,081412.90,3158.57233961,N,12052.62269043,E,4,16,1.4,26.3301,M,8.6092,M,0.9,0*6E
302099,29653000,$GNGGA,081413.00,3158.57233210,N,12052.62263462,E,4,16,1.4,26.3485,M,8.6092,M,1.0,0*65
302386,29653100,$GNGGA,081413.10,3158.57230565,N,12052.62254729,E,4,16,1.4,26.3523,M,8.6092,MGLGSV,2,1,05,78,32,321,30,77,65,226,41,76,27,173,32,88,36,279,43,1*7D
303611,29654500,$GNGGA,081414.50,3158.57211361,N,12052.62139336,E,4,17,1.4,26.3796,M,8.6092,M,0.5,0*6E
303614,29654700,$GNGGA,081414.70,3158.57205863,N,12052.62112874,E,4,16,1.4,26.3279,M,8.6092,M,0.7,0*63
303615,29654700,$GNVTG,257.474,T,264.049,M,3.07233,N,5.68995,K,D*3A
303905,29654800,$GNGGA,081414.80,3158.57202901,N,12052.62101523,E,4,16,1.4,26.3467,M,8.6091,M,0.8,0*66
303908,29654900,$GNGGA,081414.90,3158.57200685,N,12052.62091825,E,4,16,1.4,26.3599,M,8.6091,M,0.9,0*64
303909,29654900,$GNVTG,258.333,T,264.907,M,3.15977,N,5.85189,K,D*3C
304194,29654900,$GNVTG,259.332,T,265.906,M,2.52400,N,4.67445,K,D*3B
305471,29656600,$GNGGA,081416.60,3158.57173282,N,12052.61960390,E,4,18,1.4,26.2787,M,8.6091,M,0.6,0*61
305473,29656600,$GNVTG,255.095,T,261.670,M,1.69537,N,3.13983,K,D*3,06,27,207,22,1*7F
305767,29656700,$GNGGA,081416.70,3158.57172865,N,12052.61955532,E,4,18,1.4,26.2969,M,8.6091,M,0.7,0*65
305768,29656700,$GNVTG,255.683,T,262.258,M,1.41172,N,2.61450,K,D*3A
306053,29656800,$GNGGA,081416.80,3158.57172662,N,12052.61951667,E,4,18,1.4,26.3274,M,8.6091,M,0.8,0*6D
306055,29656800,$GNVTG,261.922,T,268.496,M,1.20087,N,2.22401,K,D*38
306096,29657100,$GNGGA,081417.10,3158.57167971,N,12052.61929123,E,4,20,1.3,26.3445,M,8.6091,M,1.1,0*64
306098,29657100,$GNVTG,261.353,T,267.927,M,1.74949,N,3.24006,K,D*32
306100,29657300,$GNGGA,081417.30,3158.57162472,N,12052.61903770,E,4,16,1.4,26.2774,M,8.6091,M,1.3,0*65
306101,29657300,$GNVTG,259.441,T,266.016,M,3.07349,N,5.69210,K,D*31
306383,29657400,$GNGGA,081417.40,3158.57157369,N,12052.61893777,E,4,18,1.3,26.2925,M,8.6091,M,1.4,0*62
306385,29657500,$GNGGA,081417.50,3158.57154908,N,12052.61880992,E,4,14,2.1,26.3682,M,8.6091,M,1.5,0*65
306387,29657500,$GNVTG,257.392,T,263.967,M,2.92848,N,5.42355,K,D*32
306389,29657600,$GNGGA,081417.60,3158.57152569,N,12052.61875731,E,4,17,1.4,26.2902,M,8.6090,M,0.6,0*66
306391,29657800,$GNGGA,081417.80,3158.57151446,N,12052.61857084,E,4,16,1.6,26.3259,M,8.6090,M,0.8,0*67
306393,29657800,$GNVTG,255.843,T,262.417,M,2.35562,N,4.36261,K,D*30
306682,29657900,$GNGGA,081417.90,3158.57148788,N,12052.61854672,E,4,14,1.5,26.2732,M,8.6090,M,0.9,0*6A
306685,29658000,$GNGGA,081418.00,3158.57149087,N,12052.61849316,E,4,15,1.4,26.2642,M,8.6090,M,1.0,0*60
306686,29658000,$GNVTG,255.480,T,262.055,M,1.84473,N,3.41644,K,D*3D
306688,29658300,$GNGGA,081418.30,3158.57147513,N,12052.61837328,E,4,18,1.3,26.3159,M,8.6090,M,1.3,0*64
306690,29658300,$GNVTG,257.385,T,263.959,M,1.08157,N,2.00307,K,D*38
306987,29658500,$GNGGA,081418.50,3158.57145609,N,12052.61814780,E,4,15,1.8,26.4023,M,8.6090,M,0.5,0*65
306989,29658500,$GNVTG,261.195,T,267.769,M,1.48421,N,2.74875,K,D*3A
307277,29658800,$GNGGA,081418.80,3158.57136064,N,12052.61775672,E,4,16,1.4,26.3351,M,8.6090,M,0.8,0*66
307278,29658800,$GNVTG,259.586,T,266.161,M,3.34885,N,6.20207,K,D*39
307322,29659000,$GNGGA,081419.00,3158.57131785,N,12052.61754185,E,4,16,1.4,26.3330,M,8.6090,M,1.0,0*62
307324,29659000,$GNVTG,258.286,T,264.861,M,3.09506,N,5.73204,K,D*3A
307608,29659100,$GNGGA,081419.10,3158.57129868,N,12052.61744092,E,4,17,1.4,26.3527,M,8.6090,M,1.1,0*60
307610,29659100,$GNVTG,256.817,T,263.391,M,2.82396,N,5.22998,K,D*32
307901,29659300,$GNGGA,081419.30,3158.57126957,N,12052.61727500,E,4,17,1.4,26.3676,M,8.6090,M,1.3,0*6E
307903,29659300,$GNVTG,256.941,T,263.516,M,2.58486,N,4.78716,K,D*3E
308202,29659400,$GNGGA,081419.40,3158.57126521,N,12052.61721627,E,4,17,1.4,26.3154,M,8.6090,M,1.4,0*64
308205,29659500,$GNGGA,081419.50,3158.57126488,N,12052.61715539,E,4,17,1.4,26.3216,M,8.6090,M,0.5,0*69
308207,29659600,$GNGGA,081419.60,3158.57125068,N,12052.61707859,E,4,17,1.4,26.3239,M,8.6090,M,0.6,0*65
308208,29659600,$GNVTG,256.310,T,262.885,M,2.08180,N,3.85549,K,D*3D
308482,29659800,$GNGGA,081419.80,3158.57119447,N,12052.61678382,E,4,17,1.4,26.3312,M,8.6089,M,0.8,0*67
308483,29659800,$GNVTG,260.452,T,267.027,M,3.10517,N,5.75078,K,D*30
308539,29659900,$GNGGA,081419.90,3158.57117205,N,12052.61662160,E,4,17,1.4,26.3253,M,8.6089,M,0.9,0*68
308540,29659900,$GNVTG,261.403,T,267.977,M,3.86097,Nl7.15052,K,D*37
308830,29660000,$GNGGA,081420.00,3158.57114714,N,12052.61648701,E,4,15,1.5,26.3332,M,8.6089,M,1.0,0*69
308831,29660000,$GNVTG,259.955,T,266.529,M,4.23659,N,7.84617,K,D*37
309116,29660200,$GNGGA,081420.20,3158.57111585,N,12052.61625931,E,4,18,1.2,26.3309,M,8.6089,M,1.2,0*62
309117,29660200,$GNVTG,258.223,T,264.797,M,3.12897,N,5.79486,K,D*3A
309416,29660300,$GNGGA,081420.30,3158.57109721,N,12052.61614770,E,4,18,1.2,26.3621,M,8.6089,M,1.3,0*61
309418,29660500,$GNGGA,081420.50,3158.57107482,N,12052.61598853,E,4,18,1.2,26.3111,M,8.6089,M,1.5,0*68
309420,29660500,$GNVTG,256.767,T,263.342,M,2.66653,N,4.93841,K,D*3C
309463,29660700,$GNGGA,081420.70,3158.57105384,N,12052.61585937,E,4,18,1.2,26.3186,M,8.6089,M,0.7,0*6B
309465,29660700,$GNVTG,255.834,T,262.409,M,2.13160,N,3.94773,K,D*34
309743,29661000,$GNGGA,081421.00,3158.57103457,N,12052.61574487,E,4,17,1.2,26.2983,M,8.6089,M,1.0,0*6F
309745,29661000,$GNVTG,253.211,T,259.785,M,1.07319,N,1.98754,K,D*31
310037,29661100,$GNGGA,081421.10,3158.57102440,N,12052.61572115,E,4,18,1.2,26.3211,M,8.6089,M,1.1,0*6E
310039,29661200,$GNGGA,081421.20,3158.57102485,N,12052.61570754,E,4,18,1.2,26.3243,M,8.6089,M,1.2,0*61
310042,29661300,$GNGGA,081421.30,3158.57101905,N,12052.61570038,E,4,18,1.2,26.3535,M,8.6089,M,1.3,0*6C
310043,29661300,$GNVTG,239.545,T,246.119,M,0.40019,N,0.74116,K,D*34
310336,29661400,$GNGGA,081421.40,3158.57101620,N,12052.61568673,E,4,18,1.2,26.3761,M,8.6089,M,1.4,0*67
310338,29661500,$GNGGA,081421.50,3158.57102024,N,12052.61568814,E,4,18,1.2,26.3673,M,8.6089,M,0.5,0*6A
310340,29661500,$GNVTG,9.541,T,16.116,M,0.06318,N,0.11701,K,D*0A
310636,29661800,$GNGGA,081421.80,3158.57101929,N,12052.61568805,E,4,17,1.3,26.3887,M,8.6089,M,0.8,0*66
310637,29661800,$GNVTG,285.569,T,292.143,M,0.29021,N,0.53747,K,D*38
310680,29661900,$GNGGA,081421.90,3158.57102201,N,12052.61568696,E,4,17,1.3,26.3875,M,8.6089,M,0.9,0*6D
310682,29661900,$GNVTG,282.675,T,289.249,M,0.29016,N,0.53738,K,D*3E
310684,29662000,$GNGGA,081422.00,3158.57103007,N,12052.61568874,E,4,17,1.3,26.3599,M,8.6089,M,1.0,0*67
310685,29662000,$GNVTG,289.442,T,296.016,M,0.21879,N,0.40519,K,D*3F
310687,29662300,$GNGGA,081422.30,3158.57102520,N,12052.61569303,E,4,19,1.2,26.3771,M,8.6089,M,1.3,0*67
310689,29662300,$GNVTG,249.886,T,256.460,M,0.04580,N,0.08481,K,D*3E
310975,29662500,$GNGGA,081422.50,3158.57102724,N,12052.61569411,E,4,19,1.2,26.3220,M,8.6089,M,0.5,0*65
310976,29662500,$GNVTG,268.497,T,275.072,M,0.09328,N,0.17275,K,D*3D
311256,29662600,$GNGGA,081422.60,3158.57102702,N,12052.61569850,E,4,18,1.2,26.3119,M,8.6089,M,0.6,0*60
311258,29662800,$GNGGA,081422.80,3158.57102843,N,12052.61569408,E,4,18,1.2,26.3390,M,8.6089,M,0.8,0*68
311261,29663000,$GNGGA,081423.00,3158.57102434,N,12052.61569022,E,4,18,1.2,26.3512,M,8.6089,M,1.0,0*64
311262,29663000,$GNVTG,241.771,T,248.346,M,0.15268,N,0.28276,K,D*30
311542,29663200,$GNGGA,081423.20,3158.57102757,N,12052.61568396,E,4,20,1.1,26.3569,M,8.6089,M,1.2,0*6B
311544,29663200,$GNVTG,256.953,T,263.527,M,0.16075,N,0.29772,K,D*3D
311855,29663300,$GNGGA,081423.30,3158.57102777,N,12052.61568699,E,4,20,1.1,26.3449,M,8.6089,M,1.3,0*60
311857,29663300,$GNVTG,265.747,T,272.322,M,0.17809,N,0.32982,K,D*3C
311859,29663500,$GNGGA,081423.50,3158.57103214,N,12052.61568380,E,4,18,1.3,26.3735,M,8.6089,M,1.5,0*6D
311861,29663500,$GNVTG,293.100,T,299.675,M,0.16076,N,0.29772,K,D*38
311904,29663600,$GNGGA,081423.60,3158.57102799,N,12052.61568820,E,4,18,1.2,26.3557,M,8.6089,M,0.6,0*6B
311906,29663700,$GNGGA,081423.70,3158.57102089,N,12052.61568691,E,4,18,1.2,26.3736,M,8.6089,M,0.7,0*6C
311908,29663700,$GNVTG,281.876,T,288.451,M,0.17344,N,0.32122,K,D*3D
312181,29663800,$GNGGA,081423.80,3158.57102462,N,12052.61570674,E,4,16,1.7,26.3410,M,8.6089,M,0.8,0*63
312182,29663800,$GNVTG,264.454,T,271.029,M,0.15580,N,0.28855,K,D*39
312491,29663900,$GNGGA,081423.90,3158.57101985,N,12052.61570228,E,4,17,1.7,26.3431,M,8.6089,M,0.9,0*6B
312493,29664000,$GNGGA,081424.00,3158.57100739,N,12052.61561802,E,4,16,2.2,26.5409,M,8.6089,M,1.0,0*6D
312495,29664000,$GNVTG,253.501,T,260.075,M,0.13233,N,0.24508,K,D*35
312497,29664200,$GNGGA,081424.20,3158.57100945,N,12052.61561731,E,4,21,1.1,26.5384,M,8.6089,M,1.2,0*61
312499,29664300,$GNGGA,081424.30,3158.57100990,N,12052.61561914,E,4,21,1.1,26.5444,M,8.6089,M,1.3,0*6B
312501,29664300,$GNVTG,270.021,T,276.595,M,0.15196,N,0.28143,K,D*32
312503,29664500,$GNGGA,081424.50,3158.57105561,N,12052.61570556,E,4,20,1.1,26.2535,M,8.6089,M,1.5,0*67
312505,29664500,$GNVTG,269.219,T,275.793,M,0.14538,N,0.26924,K,D*32
312762,29664600,$GNGGA,081424.60,3158.57104877,N,12052.61569983,E,4,19,1.2,26.2830,M,8.6089,M,0.6,0*60
312764,29664700,$GNGGA,081424.70,3158.57105770,N,12052.61569238,E,4,18,1.2,26.3126,M,8.6089,M,0.7,0*6C
312766,29664700,$GNVTG,278.611,T,285.186,M,0.16431,N,0.30430,K,D*36
313059,29664800,$GNGGA,081424.80,3158.57104923,N,12052.61569286,E,4,18,1.2,26.3309,M,8.6089,M,0.8,0*6F
313061,29664800,$GNVTG,284.004,T,290.579,M,0.15703,N,0.29083,K,D*32
313114,29664900,$GNGGA,081424.90,3158.57105066,N,12052.61568980,E,4,18,1.2,26.3373,M,8.6089,M,0.9,0*67
313115,29664900,$GNVTG,290.327,T,296.901,M,0.14011,N,0.25948,K,D*37
313388,29665000,$GNGGA,081425.00,3158.57104824,N,12052.61568859,E,4,17,1.2,26.3501,M,8.6089,M,1.0,0*61
313390,29665000,$GNVTG,285.285,T,291.860,M,0.11367,N,0.21051,K,D*39
313971,29665000,$GNVTG,201.015,T,207.590,M,0.11753,N,0.21767,K,D*32
314902,29666500,$GNGGA,081426.50,3158.57104236,N,12052.61567361,E,,02,76,27,173,28,88,36,279,44,3*7A
314948,29666600,$GNGGA,081426.60,3158.57103979,N,12052.61567180,E,4,18,1.2,26.4321,M,8.6089,M,0.6,0*63
315180,29666700,$GNGGA,081426.70,3158.57103900,N,12052.61567167,E,4,18,1.2,2673,28,88,36,279,44,3*7A
315231,29667000,$GNGGA,081427.00,3158.57104063,N,12052.61567501,E,4,17,1.2,26.4490,M,8.6089,M,1.0,0*69
315233,29667000,$GNVTG,236.106,T,242.681,M,0.11733,N,0.21729,K,D*3B
315483,29667200,$GNGGA,081427.20,31012,32,1*40
315538,29667300,$GNGGA,081427.30,3158.57103961,N,12052.61567665,E,4,20,0.9,26.4627,M,8.6089,M,1.3,0*64
315539,29667300,$GNVTG,217.501,T,224.075,M,0.06217,N,0,279,44,1*70
315824,29667700,$GNGGA,081427.70,3158.57104313,N,12052.61566303,E,4,20,0.9,26.5211,M,8.6089,M,0.7,0*69
316115,29667800,$GNGGA,081427.80,3158.57103924,N,12052.61566432,E,4,20,0.9,26.5263,M,8.6089,M,0.8,0*60
316116,29667800,$GNVTG,215.426,T,222.000,M,0.06545,N,0.12121,K,D*3F
316159,29667900,$GNGGA,081427.90,3158.57103964,N,12052.61566422,E,4,20,0.9,26.5239,M,8.6089,M,0.9,0*6A
316161,29667900,$GNVTG,215.639,T,222.213,M,0.06317,N,0.11698,K,D*34
316163,29668200,$GNGGA,081428.20,3158.57104109,N,12052.61566286,E,4,21,0.8,26.5307,M,8.6089,M,1.2,0*64
316164,29668200,$GNVTG,330.689,T,337.263,M,0.03270,N,0.06056,K,D*3C
316449,29668400,$GNGGA,081428.40,3158.57103416,N,12052.61567909,E,4,21,0.8,26.4316,M,8.6089,M,1.4,0*64
316451,29668400,$GNVTG,197.608,T,204.182,M,0.06056,N,0.11216,K,D*34
316749,29668600,$GNGGA,081428.60,3158.57104193,N,12052.61567974,E,4,21,0.8,26.4475,M,8.6089,M,0.6,0*62
316751,29668600,$GNVTG,184.058,T,190.632,M,0.02588,N,0.04793,K,D*39
