sys_ms,nmea_ms,nmea
358686,29705400,$GNGGA,081505.40,3158.57098416,N,12052.61564966,E,4,12,2.9,26.2899,M,8.6089,M,1.4,0*6A
358689,29705500,$GNGGA,081505.50,3158.57098097,N,12052.61565670,E,4,12,2.9,26.2718,M,8.6089,M,0.5,0*69
358690,29705500,$GNVTG,173.831,T,180.405,M,0.16528,N,0.30609,K,D*3B
358692,29705500,$GPGSV,2,1,07,01,37,041,22,06,32,244,23,14,79,241,34,17,53,329,22,1*67
358693,29705500,$GPGSV,2,2,07,19,33,303,34,22,68,306,40,03,,,30,1*63
358695,29705500,$GPGSV,1,1,04,01,37,041,16,06,32,244,16,14,79,241,28,22,68,306,32,4*6C
358696,29705500,$GPGSV,1,1,04,01,37,041,18,06,32,244,25,14,79,241,30,03,,,21,8*5D
358698,29705500,$GLGSV,2,1,05,78,33,321,26,77,65,225,18,76,26,173,28,88,36,279,36,1*7C
358699,29705500,$GLGSV,2,2,05,87,44,013,18,1*49
358700,29705500,$GLGSV,1,1,02,78,33,321,29,88,36,279,36,3*70
358701,29705500,$GBGSV,5,1,18,60,30,236,26,62,,,26,06,27,207,15,09,35,222,30,1*41
358703,29705500,$GBGSV,5,2,18,16,24,203,16,28,42,285,38,39,17,196,14,49,,,35,1*4B
358704,29705500,$GBGSV,5,3,1812,27,37,36,297,27,8*45
358706,29705500,$GBGSV,4,3,15,38,34,170,22,07,68,334,33,40,63,004,23,25,19,174,14,8*77
358707,29705500,$GBGSV,4,4,15,43,56,027,22,14,23,122,21,42,24,092,25,8*40
358709,29705500,$GBGSV,3,1,09,02,32,231,31,05,13,251,23,04,33,123,26,06,27,207,12,B*0A
358710,29705500,$GBGSV,3,2,09,09,35,222,28,16,24,203,18,10,57,312,27,07,68,334,31,B*0A
358711,29705500,$GBGSV,3,3,09,14,23,122,21,B*3A
358713,29705500,$GAGSV,2,1,07,13,41,236,29,21,20,317,19,27,75,313,29,15,76,002,25,1*7B
358714,29705500,$GAGSV,2,2,07,14,,,25,30,50,140,24,34,26,040,16,1*75
358716,29705500,$GAGSV,2,1,07,13,41,236,32,21,20,317,19,27,75,313,33,15,76,002,26,2*7A
358717,29705500,$GAGSV,2,2,07,14,,,28,30,50,140,26,34,26,040,19,2*76
358718,29705500,$GAGSV,2,1,06,13,41,236,31,21,20,317,19,27,75,313,36,15,76,002,33,5*7E
358720,29705500,$GAGSV,2,2,06,30,50,140,25,34,26,040,20,5*76
358721,29705500,$GAGSV,2,1,07,13,41,236,29,21,20,317,19,27,75,313,35,15,76,002,37,7*73
358722,29705500,$GAGSV,2,2,07,14,,,41,30,50,140,31,34,26,040,16,7*75
358724,29705500,$GQGSV,1,1,03,07,52,168,28,02,64,121,28,03,74,077,35,1*5D
358725,29705500,$GQGSV,1,1,03,07,52,168,22,02,64,121,25,03,74,077,27,6*5E
358727,29705500,$GQGSV,1,1,03,07,52,168,27,02,64,121,27,03,74,077,30,8*51
358729,29705600,$GNGGA,081505.60,3158.57098587,N,12052.61565777,E,4,12,2.9,26.2646,M,8.6089,M,0.6,0*61
358730,29705600,$GNVTG,178.399,T,184.974,M,0.16286,N,0.30161,K,D*3C
358732,29705600,$GPGSV,2,1,07,01,37,041,22,06,32,244,22,14,79,241,34,17,53,329,22,1*66
358733,29705600,$GPGSV,2,2,07,19,33,303,34,22,68,306,40,03,,,30,1*63
358745,29705600,$GPGSV,1,1,04,01,37,041,16,06,32,244,16,14,79,241,28,22,68,306,31,4*6F
358747,29705600,$GPGSV,1,1,04,01,37,041,18,06,32,244,25,14,79,241,30,03,,,20,8*5C
358748,29705600,$GLGSV,2,1,05,78,33,321,26,77,65,225,18,76,26,173,29,88,36,279,36,1*7D
358749,29705600,$GLGSV,2,2,05,87,44,013,18,1*49
358750,29705600,$GLGSV,1,1,02,78,33,321,29,88,36,279,36,3*70
358752,29705600,$GBGSV,5,1,18,60,30,236,27,62,,,26,06,27,207,15,09,35,222,30,1*40
358753,29705600,$GBGSV,5,2,18,16,24,203,16,28,42,285,39,39,17,196,14,49,,,35,1*4A
358755,29705600,$GBGSV,5,3,18,10,57,312,37,23,51,222,24,37,36,297,32,38,34,170,21,1*7A
358757,29705600,$GBGSV,5,4,18,07,68,334,37,40,63,004,33,25,19,174,20,43,56,027,27,1*79
358758,29705600,$GBGSV,5,5,18,42,24,092,28,33,15,148,21,1*74
358759,29705600,$GBGSV,2,1,07,28,42,285,37,49,,,36,23,51,222,26,37,36,297,21,3*42
358761,29705600,$GBGSV,2,2,07,40,63,004,31,43,56,027,21,42,24,092,22,3*4D
358763,29705600,$GBGSV,1,1,04,28,42,285,27,49,,,24,V,2,1,07,13,41,236,29,21,20,317,15,27,75,313,29,15,76,002,25,1*77
358764,29705600,$GAGSV,2,2,07,14,,,24,30,50,140,24,34,26,040,16,1*74
358766,29705600,$GAGSV,2,1,07,13,41,236,32,21,20,317,19,27,75,313,33,15,76,002,26,2*7A
358767,29705600,$GAGSV,2,2,07,14,,,28,30,50,140,26,34,26,040,19,2*76
358769,29705600,$GAGSV,2,1,06,13,41,236,31,21,20,317,19,27,75,313,35,15,76,002,33,5*7D
358770,29705600,$GAGSV,2,2,06,30,50,140,25,34,26,040,20,5*76
358772,29705600,$GAGSV,2,1,07,13,41,236,29,21,20,317,19,27,75,313,35,15,76,002,37,7*73
358773,29705600,$GAGSV,2,2,07,14,,,41,30,50,140,31,34,26,040,16,7*75
358774,29705600,$GQGSV,1,1,03,07,52,168,28,02,64,121,27,03,74,077,36,1*51
358776,29705600,$GQGSV,1,1,03,07,52,168,22,02,64,121,25,03,74,077,27,6*5E
358777,29705600,$GQGSV,1,1,03,07,52,168,28,02,64,121,27,03,74,077,30,8*5E
358779,29705700,$GNGGA,081505.70,3158.57097664,N,12052.61565886,E,4,12,2.9,26.2626,M,8.6089,M,0.7,0*67
358781,29705700,$GNVTG,181.391,T,187.965,M,0.16007,N,0.29646,K,D*30
358783,29705800,$GNGGA,081505.80,3158.57098886,N,12052.61565943,E,4,12,2.9,26.2766,M,8.6089,M,0.8,0*67
358785,29706000,$GNGGA,081506.00,3158.57098016,N,12052.61565612,E,4,12,2.9,26.2836,M,8.6089,M,1.0,0*65
358786,29706000,$GNVTG,182.959,T,189.533,M,0.14926,N,0.27643,K,D*3F
358789,29706200,$GNGGA,081506.20,3158.57100689,N,12052.61565245,E,4,12,2.9,26.2983,M,8.6089,M,1.2,0*6C
358790,29706200,$GNVTG,189.633,T,196.207,M,0.13393,N,0.24804,K,D*34
358792,29706200,$GPGSV,2,1,07,01,37,041,22,06,32,244,22,14,79,241,35,17,53,329,22,1*67
358793,29706200,$GPGSV,2,2,07,19,33,303,33,22,68,306,40,03,,,30,1*64
358795,29706200,$GPGSV,1,1,04,01,37,041,16,06,32,244,17,14,79,241,28,22,68,306,30,4*6F
358796,29706200,$GPGSV,1,1,04,01,37,041,18,06,32,244,25,14,79,241,30,03,,,21,8*5D
358798,29706200,$GLGSV,2,1,05,78,33,321,27,77,65,225,21,76,26,173,29,88,36,279,35,1*75
358799,29706200,$GLGSV,2,2,05,87,44,013,19,1*48
358800,29706200,$GLGSV,1,1,02,78,33,321,29,88,36,279,36,3*70
358801,29706200,$GBGSV,5,1,18,60,30,236,26,62,,,25,06,27,207,15,09,35,222,31,1*43
358803,29706200,$GBGSV,5,2,18,16,24,203,16,28,42,285,39,39,17,196,13,49,,,36,1*4E
358805,29706200,$GBGSV,5,3,18,10,57,312,37,23,51,222,27,37,36,297,33,38,34,170,20,1*79
358806,29706200,$GBGSV,5,4,18,07,69,334,37,40,63,004,33,25,19,174,20,43,56,027,27,1*78
358807,29706200,$GBGSV,5,5,18,42,24,092,29,33,15,148,20,1*74
358809,29706200,$GBGSV,2,1,07,28,42,285,38,49,,,36,23,51,222,20,37,36,297,22,3*48
358810,29706200,$GBGSV,2,2,07,40,63,004,32,43,56,027,20,42,24,092,22,3*4F
358811,29706200,$GB,334,30,B*06
358811,29706200,$GBGSV,3,3,09,14,23,122,20,B*3B
358813,29706200,$GAGSV,2,1,07,13,41,236,29,21,20,317,18,27,75,313,28,15,76,002,25,1*7B
358814,29706200,$GAGSV,2,2,07,14,,,23,30,50,140,25,34,26,040,15,1*71
358816,29706200,$GAGSV,2,1,07,13,41,236,32,21,20,317,19,27,75,313,32,15,76,002,25,2*78
358817,29706200,$GAGSV,2,2,07,14,,,27,30,50,140,27,34,26,040,19,2*78
358819,29706200,$GAGSV,2,1,06,13,41,236,32,21,20,317,18,27,75,313,34,15,76,002,32,5*7F
358820,29706200,$GAGSV,2,2,06,30,50,140,25,34,26,040,19,5*7C
358822,29706200,$GAGSV,2,1,07,13,41,236,29,21,20,317,19,27,75,313,36,15,76,002,37,7*70
358834,29706200,$GAGSV,2,2,07,14,,,42,30,50,140,32,34,26,040,15,7*76
358835,29706200,$GQGSV,1,1,03,07,52,168,30,02,64,121,27,03,74,077,37,1*59
358836,29706200,$GQGSV,1,1,03,07,52,168,22,02,64,121,25,03,74,077,26,6*5F
358838,29706200,$GQGSV,1,1,03,07,52,168,28,02,64,121,26,03,74,077,29,8*57
358840,29706400,$GNGGA,081506.40,3158.57100290,N,12052.61564925,E,4,12,2.9,26.3074,M,8.6089,M,1.4,0*6C
358841,29706400,$GNVTG,195.307,T,201.882,M,0.12696,N,0.23513,K,D*3C
358843,29706400,$GPGSV,2,1,07,01,37,041,22,06,32,244,22,14,79,241,35,17,53,329,22,1*67
358844,29706400,$GPGSV,2,2,07,19,33,303,34,22,68,306,40,03,,,30,1*63
358846,29706400,$GPGSV,2,1,05,01,37,041,16,06,32,244,17,14,79,241,27,22,68,306,30,4*62
358847,29706400,$GPGSV,2,2,05,03,,,22,4*67
358848,29706400,$GPGSV,1,1,04,01,37,041,18,06,32,244,25,14,79,241,30,03,,,21,8*5D
358850,29706400,$GLGSV,2,1,05,78,33,321,27,77,65,225,21,76,26,173,29,88,36,279,34,1*74
358851,29706400,$GLGSV,2,2,05,87,44,013,19,1*48
358852,29706400,$GLGSV,1,1,02,78,33,321,29,88,36,279,36,3*70
358853,29706400,$GBGSV,5,1,18,60,30,236,27,62,,,25,06,27,207,14,09,35,222,31,1*43
358855,29706400,$GBGSV,5,2,18,16,24,203,15,28,42,285,40,39,17,196,12,49,,,36,1*42
358857,29706400,$GBGSV,5,3,18,10,57,312,38,23,51,222,29,37,36,297,33,38,34,170,21,1*79
358858,29706400,$GBGSV,5,4,18,07,69,334,37,40,63,004,34,25,19,174,20,43,56,027,27,1*7F
358859,29706400,$GBGSV,5,5,18,42,24,092,29,33,15,148,20,1*74
358861,29706400,$GBGSV,2,1,07,28,42,285,38,49,,,36,23,51,222,19,37,36,297,22,3*42
358862,29706400,$GBGSV,2,2,07,40,63,004,32,43,56,027,20,42,24,092,23,3*4E
358864,29706400,$GBGSV,2,1,05,28,42,285,27,49,,,24,38,34,170,22,40,63,004,21,5*45
358865,29706400,$GBGSV,2,2,05,43,56,027,17,5*40
358865,29706400,$GBGSV,1,1,01,62,,,38,6*7F
358867,29706400,$GBGSV,4,1,15,02,32,231,27,05,13,251,32,60,30,236,26,09,35,222,28,8*79
358868,29706400,$GBGSV,4,2,15,28,42,285,29,49,,,30,10,57,312,25,23,51,222,17,8*4E
358870,29706400,$GBGSV,4,3,15,37,36,297,2827,34,26,040,19,2*78
358871,29706400,$GAGSV,2,1,06,13,41,236,32,21,20,317,18,27,75,313,34,15,76,002,32,5*7F
358872,29706400,$GAGSV,2,2,06,30,50,140,2568,306,35,4*52
358874,29706400,$GPGSV,1,1,03,01,37,041,26,06,32,244,39,14,79,241,46,8*5B
358875,29706400,$GLGSV,1,1,04,78,33,321,21,77,65,225,31,76,26,173,23,88,36,279,41,1*79
358876,29706400,$GLGSV,1,1,02,78,33,321,27,88,36,279,42,3*7D
358878,29706400,$GBGSV,5,1,18,60,30,236,35,62,,,34,06,27,207,17,09,35,222,3*42
358879,29706400,$GBGSV,1,1,03,62,,,43,28,42,285,45,37,36,297,40,6*7A
358881,29706400,$GBGSV,4,1,16,05,13,251,30,60,30,236,26,09,35,222,27,28,42,285,42,8*74
358882,29706400,$GBGSV,4,2,16,39,17,196,22,49,,,36,10,57,312,34,23,51,222,31,8*45
358884,29706400,$GBGSV,4,3,16,37,36,297,26,38,34,170,25,07,69,334,40,40,63,004,36,8*73
358886,29706400,$GBGSV,4,4,16,25,19,174,20,43,56,027,35,14,23,122,21,42,24,092,38,8*76
358887,29706400,$GBGSV,2,1,08,02,32,231,25,04,33,123,27,06,27,207,20,09,35,222,27,B*07
358889,29706400,$GBGSV,2,2,08,16,24,203,19,10,57,312,38,07,69,334,43,14,23,122,25,B*04
358891,29706400,$GAGSV,2,1,07,13,41,236,30,21,20,317,25,27,75,313,43,15,76,002,44,1*77
358892,29706400,$GAGSV,2,2,07,14,,,44,30,50,140,31,34,26,040,26,1*75
358893,29706400,$GAGSV,2,1,07,13,41,236,26,21,20,317,21,27,75,313,45,15,76,002,45,2*70
358895,29706400,$GAGSV,2,2,07,14,,,46,30,50,140,30,34,26,040,23,2*70
358896,29706400,$GAGSV,2,1,05,21,20,317,22,27,75,313,41,15,76,002,40,30,50,140,30,5*73
358897,29706400,$GAGSV,2,2,05,34,26,040,23,5*42
358899,29706400,$GAGSV,2,1,07,13,41,236,30,21,20,317,25,27,75,313,44,15,76,002,44,7*76
358900,29706400,$GAGSV,2,2,07,14,,,48,30,50,140,36,34,26,040,25,7*7B
358901,29706400,$GQGSV,1,1,03,07,52,168,32,02,64,121,42,03,74,077,48,1*50
358903,29706400,$GQGSV,1,1,03,07,52,168,20,02,64,121,37,03,74,077,43,6*5D
358904,29706400,$GQGSV,1,1,03,07,52,168,32,02,64,121,40,03,74,077,44,8*57
358906,29711200,$GNGGA,081511.20,3158.57108129,N,12052.61570565,E,4,19,0.9,26.2428,M,8.6089,M,1.2,0*6B
358908,29711200,$GNVTG,274.866,T,281.441,M,0.05354,N,0.09915,K,D*38
358920,29711200,$GPGSV,2,1,06,01,37,041,21,06,32,244,33,14,79,241,42,17,53,330,22,1*6D
358921,29711200,$GPGSV,2,2,06,19,33,303,39,22,68,306,42,1*6D
358922,29711200,$GPGSV,1,1,03,06,32,244,33,14,79,241,41,22,68,306,35,4*53
358924,29711200,$GPGSV,1,1,03,01,37,041,27,06,32,244,40,14,79,241,46,8*54
358925,29711200,$GLGSV,1,1,04,78,33,321,22,77,65,225,31,76,26,173,23,88,36,279,41,1*7A
358926,29711200,$GLGSV,1,1,02,78,33,321,27,88,36,279,42,3*7D
358928,29711200,$GBGSV,5,1,18,60,30,236,36,62,,,34,06,27,207,17,09,35,222,31,1*40
358929,29711200,$GBGSV,5,2,18,16,24,203,17,28,42,285,44,39,17,196,17,49,,,40,1*40
358931,29711200,$GBGSV,5,3,18,10,57,312,42,23,51,222,33,37,36,297,28,38,34,170,25,1*71
358933,29711200,$GBGSV,5,4,18,07,69,334,43,40,63,004,41,25,18,174,19,43,56,027,39,1*7A
358934,29711200,$GBGSV,5,5,18,42,24,092,44,33,15,148,23,1*7C
358935,29711200,$GBGSV,2,1,07,28,42,285,42,49,,,38,23,51,222,28,37,36,297,31,3*41
359312,29711200,$GBGSV,2,2,07,40,8*74
359320,29711200,$GBGSV,2,1,08,02,32,231,26,04,33,123,27,06,27,207,20,09,35,222,27,B*04
359322,29711200,$GBGSV,2,2,08,16,24,203,19,10,57,312,39,07,69,334,43,14,23,122,25,B*05
359323,29711200,$GAGSV,2,1,07,13,41,236,30,21,20,317,25,27,75,313,43,15,76,002,44,1*77
359325,29711200,$GAGSV,2,2,07,14,,,44,30,50,140,32,34,26,040,25,1*75
359326,29711200,$GAGSV,2,1,07,13,41,236,26,21,20,317,21,27,75,313,45,15,76,002,45,2*70
359327,29711200,$GAGSV,2,2,07,14,,,46,30,50,140,30,34,26,040,23,2*70
359329,29711200,$GAGSV,2,1,06,13,41,236,22,21,20,317,23,27,75,313,42,15,76,002,40,5*72
359330,29711200,$GAGSV,2,2,06,30,50,140,31,34,26,040,23,5*70
359332,29711200,$GAGSV,2,1,07,13,41,236,30,21,20,317,25,27,75,313,44,15,76,002,44,7*76
359333,29711200,$GAGSV,2,2,07,14,,,48,30,50,140,36,34,26,040,28,7*76
359335,29711200,$GQGSV,1,1,03,07,52,168,32,02,64,121,42,03,74,077,48,1*50
359336,29711200,$GQGSV,1,1,03,07,52,168,20,02,64,121,38,03,74,077,43,6*52
359337,29711200,$GQGSV,1,1,03,07,52,168,32,02,64,121,41,03,74,077,44,8*56
359339,29711300,$GNGGA,081511.30,3158.57108431,N,12052.61569568,E,4,19,0.9,26.2567,M,8.6089,M,1.3,0*68
359341,29711300,$GNVTG,275.894,T,282.469,M,0.08023,N,0.14859,K,D*36
359343,29711500,$GNGGA,081511.50,3158.57108422,N,12052.61569674,E,4,19,0.9,26.2582,M,8.6089,M,0.5,0*6E
359345,29711500,$GNVTG,252.610,T,259.185,M,0.09841,N,0.18226,K,D*33
359346,29711500,$GPGSV,2,1,06,01,37,041,21,06,32,244,33,14,79,241,42,17,53,330,22,1*6D
359347,29711500,$GPGSV,2,2,06,19,33,303,39,22,68,306,42,1*6D
359349,29711500,$GPGSV,1,1,04,01,37,041,21,06,32,244,34,14,79,241,41,22,68,306,35,4*60
359350,29711500,$GPGSV,1,1,03,01,37,041,28,06,32,244,40,14,79,241,46,8*5B
359352,29711500,$GLGSV,2,1,05,78,33,321,22,77,65,225,32,76,26,173,23,88,36,279,41,1*7B
359353,29711500,$GLGSV,2,2,05,87,44,013,21,1*43
359354,29711500,$GLGSV,1,1,02,78,33,321,26,88,36,279,42,3*7C
359356,29711500,$GBGSV,5,1,18,60,30,236,36,62,,,33,06,27,207,17,09,35,222,31,1*47
359357,29711500,$GBGSV,5,2,18,16,24,203,17,28,42,285,44,39,17,196,16,49,,,40,1*41
359359,29711500,$GBGSV,5,3,18,10,57,312,42,23,51,222,33,37,36,297,28,38,34,170,25,1*71
359360,29711500,$GBGSV,5,4,18,07,69,334,43,40,63,004,41,25,18,174,18,43,56,027,39,1*7B
359361,29711500,$GBGSV,5,5,18,42,24,092,45,33,15,148,23,1*7D
359363,29711500,$GBGSV,2,1,07,28,42,285,41,49,,,38,23,51,222,30,37,36,297,31,3*4B
359364,29711500,$GBGSV,2,2,07,40,63,004,40,43,56,027,36,42,24,092,41,3*48
359366,29711500,$GBGSV,2,1,07,28,42,285,44,49,,,34,23,51,222,36,37,36,297,31,5*42
359368,29711500,$GBGSV,2,2,07,40,63,004,3,19,10,57,312,39,07,69,334,43,14,23,122,25,B*05
359369,29711500,$GAGSV,2,1,07,13,41,236,30,21,20,317,25,27,75,313,43,15,76,002,44,1*77
359371,29711500,$GAGSV,2,2,07,14,,,44,30,50,140,31,34,26,040,25,1*76
359372,29711500,$GAGSV,2,1,07,13,41,236,26,21,20,317,21,27,75,313,45,15,76,002,45,2*70
359373,29711500,$GAGSV,2,2,07,14,,,46,30,50,140,30,34,26,040,23,2*70
359375,29711500,$GAGSV,2,1,06,13,41,236,21,21,20,317,22,27,75,313,42,15,76,002,40,5*70
359376,29711500,$GAGSV,2,2,06,30,50,140,31,34,26,040,23,5*70
359378,29711500,$GAGSV,2,1,07,13,41,236,31,21,20,317,25,27,75,313,44,15,76,002,44,7*77
359379,29711500,$GAGSV,2,2,07,14,,,48,30,50,140,36,34,26,040,27,7*79
359380,29711500,$GQGSV,1,1,03,07,52,168,31,02,64,121,42,03,74,077,48,1*53
359382,29711500,$GQGSV,1,1,03,07,52,168,20,02,64,121,39,03,74,077,43,6*53
359383,29711500,$GQGSV,1,1,03,07,52,168,32,02,64,121,41,03,74,077,44,8*56
359385,29711700,$GNGGA,081511.70,3158.57108769,N,12052.61569519,E,4,19,0.9,26.2705,M,8.6089,M,0.7,0*67
359387,29711700,$GNVTG,188.436,T,195.011,M,0.07124,N,0.13194,K,D*3B
359388,29711700,$GPGSV,2,1,06,01,37,041,21,06,32,244,33,14,79,241,42,17,53,330,22,1*6D
359390,29711700,$GPGSV,2,2,06,19,33,303,39,22,68,306,42,1*6D
359391,29711700,$GPGSV,1,1,04,01,37,041,21,06,32,244,34,14,79,241,41,22,68,306,34,4*61
359393,29711700,$GPGSV,1,1,03,01,37,041,28,06,32,244,40,14,79,241,45,8*58
359394,29711700,$GLGSV,1,1,04,78,33,321,23,77,65,225,32,76,26,173,23,88,36,279,41,1*78
359395,29711700,$GLGSV,1,1,02,78,33,321,23,88,36,279,42,3*79
359407,29711700,$GBGSV,5,1,18,60,30,236,37,62,,,34,06,27,207,17,09,35,222,31,1*41
359409,29711700,$GBGSV,5,2,18,16,24,203,17,28,42,285,44,39,17,196,16,49,,,40,1*41
359410,29711700,$GBGSV,5,3,18,10,57,312,42,23,51,222,34,37,36,297,28,38,34,170,25,1*76
359412,29711700,$GBGSV,5,4,18,07,69,334,43,40,63,004,41,25,18,174,19,43,56,027,39,1*7A
359413,29711700,$GBGSV,5,5,18,42,24,092,45,33,15,148,23,1*7D
359415,29711700,$GBGSV,2,1,07,28,42,285,41,49,,,38,23,51,222,30,37,36,297,31,3*4B
359416,29711700,$GBGSV,2,2,07,40,63,004,40,43,56,027,36,42,24,092,41,3*48
359418,29711700,$GBGSV,2,1,07,28,42,285,44,49,,,34,23,51,222,37,37,36,297,31,5*43
359419,29711700,$GBGSV,2,2,07,40,63,004,35,43,56,027,34,42,24,092,37,5*4F
359420,29711700,$GBGSV,1,1,04,62,,,43,28,42,285,45,37,36,297,40,42,24,092,35,6*40
359422,29711700,$GBGSV,5,1,17,05,13,251,34,60,30,236,28,01,44,140,29,09,35,222,27,8*74
359424,29711700,$GBGSV,5,2,17,28,42,285,42,39,17,196,21,49,,,36,10,57,312,34,8*46
359619,29711700,$GBGSV,5,3,17,23,51,222,31,37,36,29740,30,34,26,040,23,2*70
359621,29711700,$GAGSV,2,1,06,13,41,236,18,21,20,317,22,27,75,313,41,15,76,002,40,5*79
359622,29711700,$GAGSV,2,2,06,30,50,140,31,34,26,040,23,5*70
359624,29711700,$GAGSV,2,1,07,13,41,236,31,21,20,317,26,27,75,313,43,15,76,002,44,7*73
359625,29711700,$GAGSV,2,2,07,14,,,48,30,50,140,36,34,26,040,27,7*79
359627,29711700,$GQGSV,1,1,03,07,52,168,32,02,64,121,44,03,74,077,48,1*56
359628,29711700,$GQGSV,1,1,03,07,52,168,20,02,64,121,39,03,74,077,43,6*53
359629,29711700,$GQGSV,1,1,03,07,52,168,32,02,64,121,41,03,74,077,44,8*56
359631,29711800,$GNGGA,081511.80,3158.57108752,N,12052.61569944,E,4,19,0.9,26.2741,M,8.6089,M,0.8,0*6B
359633,29711800,$GNVTG,154.142,T,160.717,M,0.06350,N,0.11760,K,D*38
359635,29712000,$GNGGA,081512.00,3158.57108891,N,12052.61574305,E,4,19,0.9,26.3233,M,8.6089,M,1.0,0*6B
359637,29712000,$GNVTG,99.423,T,105.997,M,0.50929,N,0.94321,K,D*04
359638,29712000,$GPGSV,2,1,06,01,37,041,21,06,32,244,33,14,79,241,42,17,53,330,21,1*6E
359639,29712000,$GPGSV,2,2,06,19,33,303,39,22,68,306,42,1*6D
359641,29712000,$GPGSV,1,1,04,01,37,041,21,06,32,244,34,14,79,241,40,22,68,306,34,4*60
359642,29712000,$GPGSV,1,1,03,01,37,041,28,06,32,244,40,14,79,241,45,8*58
359644,29712000,$GLGSV,1,1,04,78,33,321,23,77,65,225,31,76,26,173,23,88,36,279,40,1*7A
359645,29712000,$GLGSV,1,1,02,78,33,321,24,88,36,279,42,3*7E
359647,29712000,$GBGSV,5,1,17,60,30,236,37,06,27,207,16,09,35,222,31,16,24,203,17,1*7A
359648,29712000,$GBGSV,5,2,17,28,42,285,45,39,17,196,16,49,,,40,10,57,312,43,1*4D
359650,29712000,$GBGSV,5,3,17,23,51,222,34,37,36,297,29,38,34,170,26,07,69,334,43,1*75
359652,29712000,$GBGSV,5,4,17,40,63,004,41,25,18,174,19,43,56,027,40,42,24,092,45,1*7A
359652,29712000,$GBGSV,5,5,17,33,15,148,23,1*48
359654,29712000,$GBGSV,2,1,07,28,42,285,42,49,,,38,23,51,222,30,37,36,297,31,3*48
359655,29712000,$GBGSV,2,2,07,40,63,004,40,43,56,027,37,42,24,092,41,3*49
359657,29712000,$GBGSV,2,1,07,28,42,285,44,49,,,34,23,51,222,37,37,36,297,31,5*43
359658,29712000,$GBGSV,2,2,07,40,63,004,35,43,56,027,33,42,24,092,38,5*47
359660,29712000,$GBGSV,1,1,04,62,,,43,28,42,285,45,37,36,297,40,42,24,092,37,6*42
359661,29712000,$GBGSV,5,1,17,05,13,251,34,60,30,236,27,01,44,140,30,09,35,222,27,8*73
359663,29712000,$GBGSV,5,2,17,28,42,285,42,39,17,196,21,49,,,36,10,57,312,34,8*46
359665,29712000,$GBGSV,5,3,17,23,51,222,32,37,36,297,24,38,34,170,23,07,69,334,40,8*71
359666,29712000,$GBGSV,5,4,17,40,63,004,36,25,18,174,19,43,56,027,35,14,23,122,21,8*7D
359667,29712000,$GBGSV,5,5,17,42,24,092,39,8*48
359925,29712000,$GB13,41,236,31,21,20,317,26,27,75,313,43,15,76,002,44,7*73
359938,29712000,$GAGSV,2,2,07,14,,,48,30,50,140,37,34,26,040,26,7*79
359939,29712000,$GQGSV,1,1,03,07,52,168,32,02,64,121,44,03,74,077,48,1*56
359941,29712000,$GQGSV,1,1,03,07,52,168,19,02,64,121,39,03,74,077,43,6*59
359942,29712000,$GQGSV,1,1,03,07,52,168,31,02,64,121,42,03,74,077,44,8*56
359944,29712200,$GNGGA,081512.20,3158.57105549,N,12052.61578514,E,4,15,1.5,26.4678,M,8.6089,M,1.2,0*69
359946,29712200,$GNVTG,94.155,T,100.729,M,0.88473,N,1.63852,K,D*02
359947,29712200,$GPGSV,2,1,06,01,37,041,21,06,32,244,33,14,79,241,42,17,53,330,22,1*6D
359948,29712200,$GPGSV,2,2,06,19,33,303,39,22,68,306,42,1*6D
359950,29712200,$GPGSV,1,1,04,01,37,041,23,06,32,244,33,14,79,241,40,22,68,306,34,4*65
359951,29712200,$GPGSV,1,1,03,01,37,041,27,06,32,244,39,14,79,241,45,8*59
359953,29712200,$GLGSV,1,1,04,78,33,321,24,77,65,225,31,76,26,173,23,88,36,279,41,1*7C
359954,29712200,$GLGSV,1,1,02,78,33,321,22,88,36,279,41,3*7B
359956,29712200,$GBGSV,5,1,17,60,30,236,36,06,27,207,17,09,35,222,29,16,24,203,17,1*73
359957,29712200,$GBGSV,5,2,17,28,42,285,46,39,17,196,17,49,,,40,10,57,312,42,1*4E
359959,29712200,$GBGSV,5,3,17,23,51,222,34,37,36,297,31,38,34,170,26,07,69,334,43,1*7C
359961,29712200,$GBGSV,5,4,17,40,63,004,42,25,18,174,19,43,56,027,41,42,24,092,44,1*79
359962,29712200,$GBGSV,5,5,17,33,15,148,23,1*48
359963,29712200,$GBGSV,2,1,07,28,42,285,44,49,,,38,23,51,222,31,37,36,297,32,3*4C
359964,29712200,$GBGSV,2,2,07,40,63,004,40,43,56,027,38,42,24,092,40,3*47
359966,29712200,$GBGSV,2,1,07,28,42,285,43,49,,,35,23,51,222,38,37,36,297,30,5*4B
359967,29712200,$GBGSV,2,2,07,40,63,004,35,43,56,027,34,42,24,092,37,5*4F
359969,29712200,$GBGSV,1,1,04,62,,,42,28,42,285,45,37,36,297,40,42,24,092,37,6*43
359971,29712200,$GBGSV,5,1,17,05,13,251,34,60,30,236,29,01,44,140,27,09,35,222,27,8*7B
359972,29712200,$GBGSV,5,2,17,28,42,285,42,39,17,196,21,49,,,37,10,57,312,35,8*46
359974,29712200,$GBGSV,5,3,17,23,51,222,35,37,36,297,28,38,34,170,23,07,69,334,40,8*7A
359975,29712200,$GBGSV,5,4,17,40,63,004,38,25,18,174,20,43,56,027,36,14,23,122,20,8*7B
359976,29712200,$GBGSV,5,5,17,42,24,092,40,8*46
359978,29712200,$GBGSV,2,1,08,02,32,231,31,05,13,251,37,06,27,207,20,09,35,222,31,B*01
359979,29712200,$GBGSV,2,2,08,16,24,203,19,10,57,312,39,07,69,334,44,14,23,122,27,B*00
359981,29712200,$GAGSV,2,1,07,13,41,236,31,21,20,317,25,27,75,313,42,15,76,002,43,1*70
359982,29712200,$GAGSV,2,2,07,14,,,43,30,50,140,32,34,26,040,26,1*71
359983,29712200,$GAGSV,2,1,07,13,41,236,28,21,254
359985,29712400,$GNGGA,081512.40,3158.57098840,N,12052.61582418,E,4,15,1.5,26.5283,M,8.6089,M,1.4,0*61
360229,29712400,$GNVTG,109.130,T,115.703,M,0.75310,N,1.39474,K,D*3F
360231,29712500,$GNGGA,081512.50,3158.57094469,N,12052.61583370,E,4,15,1.5,26.6207,M,8.6089,M,1.5,0*6D
360233,29712500,$GNVTG,120.172,T,126.745,M,0.68264,N,1.26424,K,D*35
360235,29712500,$GPGSV,2,1,06,01,37,041,22,06,32,244,32,14,79,241,42,17,53,330,23,1*6E
360236,29712500,$GPGSV,2,2,06,19,33,303,39,22,68,306,42,1*6D
360237,29712500,$GPGSV,1,1,04,01,37,041,22,06,32,244,33,14,79,241,41,22,68,306,34,4*65
360239,29712500,$GPGSV,1,1,03,01,37,041,26,06,32,244,37,14,79,241,45,8*56
360241,29712500,$GLGSV,1,1,04,78,33,321,26,77,65,225,32,76,26,173,24,88,36,279,42,1*79
360242,29712500,$GLGSV,1,1,02,78,33,321,24,88,36,279,40,3*7C
360243,29712500,$GBGSV,5,1,17,60,30,236,35,06,27,207,18,09,35,222,26,16,24,203,17,1*70
360245,29712500,$GBGSV,5,2,17,28,42,285,46,39,17,196,17,49,,,41,10,57,312,41,1*4C
360246,29712500,$GBGSV,5,3,17,23,51,222,35,37,36,297,35,38,34,170,34,07,69,334,43,1*7A
360248,29712500,$GBGSV,5,4,17,40,63,004,43,25,18,174,19,43,56,027,41,42,24,092,43,1*7F
360249,29712500,$GBGSV,5,5,17,33,15,148,23,1*48
360250,29712500,$GBGSV,2,1,07,28,42,285,44,49,,,38,23,51,222,32,37,36,297,34,3*49
360252,29712500,$GBGSV,2,2,07,40,63,004,42,43,56,027,38,42,24,092,40,3*45
360253,29712500,$GBGSV,2,1,07,28,42,285,42,49,,,35,23,51,222,37,37,36,297,31,5*44
360255,29712500,$GBGSV,2,2,07,40,63,004,36,43,56,027,36,42,24,092,38,5*41
360256,29712500,$GBGSV,1,1,04,62,,,41,28,42,285,44,37,36,297,39,42,24,092,37,6*4F
360268,29712500,$GBGSV,5,1,17,05,13,251,33,60,30,236,23,01,44,140,29,09,35,222,27,8*78
360270,29712500,$GBGSV,5,2,17,28,42,285,41,39,17,196,21,49,,,37,10,57,312,34,8*44
360272,29712500,$GBGSV,5,3,17,23,51,222,34,37,36,297,36,38,34,170,23,07,69,334,40,8*74
360273,29712500,$GBGSV,5,4,17,40,63,004,39,25,18,174,20,43,56,027,37,14,23,122,21,8*7A
360274,29712500,$GBGSV,5,5,17,42,24,092,40,8*46
360276,29712500,$GBGSV,2,1,08,02,32,231,30,05,13,251,35,06,27,207,19,09,35,222,33,B*0A
360277,29712500,$GBGSV,2,2,08,16,24,203,19,10,57,312,39,07,69,334,43,14,23,122,26,B*06
360279,29712500,$GAGSV,2,1,07,13,41,236,33,21,20,317,25,27,75,313,41,15,76,002,42,1*70
360280,29712500,$GAGSV,2,2,07,14,,,44,30,50,140,32,34,26,040,26,1*76
360282,29712500,$GAGSV,2,1,07,13,41,236,30,21,20,317,21,27,75,313,44,15,76,002,44,2*77
360283,29712500,$GAGSV,2,2,07,14,,,46,30,50,140,34,34,26,040,23,2*74
360284,29712500,$GAGSV,2,1,06,13,41,236,27,21,20,317,22,27,75,31
360286,29712700,$GNGGA,081512.70,3158.57085936,N,12052.61585270,E,4,14,1.5,26.8167,M,8.6089,M,0.7,0*66
360288,29712700,$GNVTG,142.128,T,148.701,M,0.71749,N,1.32879,K,D*35
360290,29712700,$GPGSV,2,1,06,01,37,041,22,06,32,244,32,14,79,241,42,17,53,330,24,1*69
360291,29712700,$GPGSV,2,2,06,19,33,303,39,22,68,306,41,1*6E
360293,29712700,$GPGSV,1,1,04,01,37,041,25,06,32,244,33,14,79,241,42,22,68,306,34,4*61
360294,29712700,$GPGSV,1,1,03,01,37,041,27,06,32,244,36,14,79,241,45,8*56
360296,29712700,$GLGSV,1,1,04,78,33,321,26,77,65,225,33,76,26,173,24,88,36,279,41,1*7B
360297,29712700,$GLGSV,1,1,02,78,33,321,27,88,36,279,40,3*7F
360298,29712700,$GBGSV,5,1,17,60,30,236,35,06,27,207,18,09,35,222,29,16,24,203,18,1*70
360300,29712700,$GBGSV,5,2,17,28,42,285,46,39,17,196,17,49,,,41,10,57,312,40,1*4D
360302,29712700,$GBGSV,5,3,17,23,51,222,39,37,36,297,35,38,34,170,33,07,69,334,42,1*70
360303,29712700,$GBGSV,5,4,17,40,63,004,43,25,18,174,20,43,56,027,42,42,24,092,41,1*74
360304,29712700,$GBGSV,5,5,17,33,15,148,23,1*48
360306,29712700,$GBGSV,2,1,07,28,42,285,44,49,,,39,23,51,222,38,37,36,297,35,3*43
360307,29712700,$GBGSV,2,2,07,40,63,004,42,43,56,027,39,42,24,092,39,3*4A
360308,29712700,$GBGSV,2,1,07,28,42,285,41,49,,,36,23,51,222,38,37,36,297,32,5*48
360310,29712700,$GBGSV,2,2,07,40,63,004,38,43,56,027,38,42,24,092,38,5*41
360532,29712700,$GBGSV,1,1,04,62,,,40,28,42,285,43,37,36,297,38,42,24,092,37,6*48
360543,29712700,$GBGSV,5,1,17,05,13,251,32,60,30,236,31,01,44,140,28,09,35,222,28,8*74
360544,29712700,$GBGSV,5,2,17,28,42,285,40,39,17,196,21,49,,,37,10,57,312,34,8*45
360546,29712700,$GBGSV,5,3,17,23,51,222,37,37,36,297,34,38,34,170,23,07,69,334,40,8*75
360548,29712700,$GBGSV,5,4,17,40,63,004,40,25,18,174,20,43,56,027,39,14,23,122,21,8*7A
360549,29712700,$GBGSV,5,5,17,42,24,092,39,8*48
360550,29712700,$GBGSV,2,1,08,02,32,231,30,05,13,251,33,06,27,207,21,09,35,222,33,B*07
360552,29712700,$GBGSV,2,2,08,16,24,203,19,10,57,312,38,07,69,334,43,14,23,122,25,B*04
360554,29712700,$GAGSV,2,1,07,13,41,236,34,21,20,317,24,27,75,313,41,15,76,002,42,1*76
360555,29712700,$GAGSV,2,2,07,14,,,45,30,50,140,32,34,26,040,26,1*77
360556,29712700,$GAGSV,2,1,07,13,41,236,33,21,20,317,21,27,75,313,44,15,76,002,45,2*75
360558,29712700,$GAGSV,2,2,07,14,,,47,30,50,140,33,34,26,040,24,2*75
360559,29712700,$GAGSV,2,1,06,13,41,236,29,21,20,317,22,27,75,313,41,15,76,002,41,5*7A
360560,29712700,$GAGSV,2,2,06,30,50,140,33,34,26,040,23,5*72
360562,29712700,$GAGSV,2,1,07,13,41,236,34,21,20,317,29,27,75,313,42,15,76,002,43,7*7F
360563,29712700,$,25,06,32,244,33,14,79,241,42,22,68,306,34,4*61
360565,29712700,$GPGSV,1,1,03,01,37,041,28,06,32,244,37,14,79,241,46,8*5B
360566,29712700,$GLGSV,2,1,05,78,33,321,26,77,65,225,33,76,26,173,25,88,36,279,41,1*78
360567,29712700,$GLGSV,2,2,05,87,44,013,27,1*45
360568,29712700,$GLGSV,1,1,03,78,33,321,27,76,26,173,25,88,36,279,39,3*47
360570,29712700,$GBGSV,5,1,17,60,30,236,36,06,27,207,18,09,35,222,29,16,24,203,19,1*72
360572,29712700,$GBGSV,5,2,17,28,42,285,44,39,17,196,18,49,,,41,10,57,312,35,1*42
360573,29712700,$GBGSV,5,3,17,23,51,222,40,37,36,297,35,38,34,170,29,07,69,334,42,1*75
360575,29712700,$GBGSV,5,4,17,40,63,004,44,25,18,174,21,43,56,027,42,42,24,092,41,1*72
360576,29712700,$GBGSV,5,5,17,33,15,148,24,1*4F
360577,29712700,$GBGSV,2,1,07,28,42,285,42,49,,,39,23,51,222,38,37,36,297,36,3*46
360579,29712700,$GBGSV,2,2,07,40,63,004,43,43,56,027,40,42,24,092,39,3*45
360580,29712700,$GBGSV,2,1,07,28,42,285,40,49,,,36,23,51,222,39,37,36,297,31,5*4B
360582,29712700,$GBGSV,2,2,07,40,63,004,39,43,56,027,39,42,24,092,37,5*4E
360583,29712700,$GBGSV,1,1,04,62,,,41,28,42,285,43,37,36,297,37,42,24,092,37,6*46
360585,29712700,$GBGSV,5,1,17,05,13,251,31,60,30,236,33,01,44,140,27,09,35,222,30,8*73
360586,29712700,$GBGSV,5,2,17,28,42,285,40,39,17,196,21,49,,,37,10,57,312,33,8*42
360588,29712700,$GBGSV,5,3,17,23,51,222,37,37,36,297,33,38,34,170,23,07,69,334,39,8*7C
360590,29712700,$GBGSV,5,4,17,40,63,004,41,25,18,174,20,43,56,027,39,14,23,122,23,8*79
360590,29712700,$GBGSV,5,5,17,42,24,092,39,8*48
360592,29712700,$GBGSV,2,1,08,02,32,231,31,05,13,251,33,06,27,207,21,09,35,222,34,B*01
360594,29712700,$GBGSV,2,2,08,16,24,203,21,10,57,312,37,07,69,334,43,14,23,122,26,B*03
360595,29712700,$GAGSV,2,1,07,13,41,236,36,21,20,317,24,27,75,313,41,15,76,002,43,1*75
360835,29712700,$GAGSV,2,2,07,14,,,45,30,50,140,31,34,26,040,26,1*74
360836,29712700,$GAGSV,2,1,07,13,41,236,39,21,20,317,21,27,75,313,44,15,76,002,45,2*7F
360838,29712700,$GAGSV,2,2,07,14,,,47,30,50,140,33,34,26,040,24,2*75
360839,29712700,$GAGSV,2,1,06,13,41,236,32,21,20,317,22,27,75,313,40,15,76,002,41,5*71
360840,29712700,$GAGSV,2,2,06,30,50,140,32,34,26,040,23,5*73
360842,29712700,$GAGSV,2,1,07,13,41,236,36,21,20,317,28,27,75,313,42,15,76,002,43,7*7C
360843,29712700,$GAGSV,2,2,07,14,,,48,30,50,140,35,34,26,040,26,7*7B
360845,29712700,$GQGSV,1,1,03,07,52,168,32,02,64,121,43,03,74,077,46,1*5F
360846,29712700,$GQGSV,1,1,03,07,52,168,28,02,64,121,40,03,74,077,42,6*54
360847,29712700,$GQGSV,1,1,03,07,52,168,33,02,64,121,42,03,74,077,43,8*53
360848,1560000,$GNGGA,0,26,173,25,88,36,279,40,1*70
360849,1560000,$GLGSV,2,2,05,87,44,013,27,1*45
360851,1560000,$GLGSV,1,1,03,78,33,321,29,76,26,173,25,88,36,279,37,3*47
360852,1560000,$GBGSV,5,1,17,60,30,236,36,06,27,207,19,09,35,222,29,16,24,203,20,1*79
360854,1560000,$GBGSV,5,2,17,28,42,285,40,39,17,196,17,49,,,41,10,57,312,34,1*48
360856,1560000,$GBGSV,5,3,17,23,51,222,41,37,36,297,35,38,34,170,29,07,69,334,41,1*77
360865,1560000,$GBGSV,5,4,17,40,63,004,45,25,18,174,21,43,56,027,44,42,24,092,40,1*74
360865,1560000,$GBGSV,5,5,17,33,15,148,24,1*4F
360867,1560000,$GBGSV,2,1,07,28,42,285,39,49,,,39,23,51,222,39,37,36,297,35,3*48
360868,1560000,$GBGSV,2,2,07,40,63,004,43,43,56,027,42,42,24,092,39,3*47
360870,1560000,$GBGSV,2,1,07,28,42,285,35,49,,,36,23,51,222,40,37,36,297,31,5*47
360871,1560000,$GBGSV,2,2,07,40,63,004,40,43,56,027,40,42,24,092,37,5*4E
360873,1560000,$GBGSV,1,1,04,62,,,41,28,42,285,39,37,36,297,34,42,24,092,36,6*49
360874,1560000,$GBGSV,5,1,17,05,13,251,31,60,30,236,33,01,44,140,24,09,35,222,30,8*70
360876,1560000,$GBGSV,5,2,17,28,42,285,39,39,17,196,20,49,,,38,10,57,312,33,8*42
360878,1560000,$GBGSV,5,3,17,23,51,222,38,37,36,297,33,38,34,170,22,07,69,334,40,8*7C
360879,1560000,$GBGSV,5,4,17,40,63,004,42,25,18,174,19,43,56,027,40,14,23,122,24,8*79
360880,1560000,$GBGSV,5,5,17,42,24,092,38,8*49
360882,1560000,$GBGSV,2,1,08,02,32,231,31,05,13,251,33,06,27,207,22,09,35,222,33,B*05
360883,1560000,$GBGSV,2,2,08,16,24,203,21,10,57,312,32,07,69,334,43,14,23,122,26,B*06
360885,1560000,$GAGSV,2,1,07,13,41,236,38,21,20,317,24,27,75,313,42,15,76,002,43,1*78
360886,1560000,$GAGSV,2,2,07,14,,,45,30,50,140,31,34,26,040,26,1*74
360888,1560000,$GAGSV,2,1,07,13,41,236,38,21,20,317,22,27,75,313,43,15,76,002,44,2*7B
360889,1560000,$GAGSV,2,2,07,14,,,47,30,50,140,34,34,26,040,25,2*73
360891,1560000,$GAGSV,2,1,06,13,41,236,32,21,20,317,22,27,75,313,40,15,76,002,41,5*71
360892,1560000,$GAGSV,2,2,06,30,50,140,32,34,26,040,23,5*73
360894,1560000,$GAGSV,2,1,07,13,41,236,39,21,20,317,27,27,75,313,42,15,76,002,43,7*7C
360895,1560000,$GAGSV,2,2,07,14,,,48,30,50,140,35,34,26,040,28,7*75
360896,1560000,$GQGSV,1,1,03,07,52,168,31,02,64,121,44,03,74,077,46,1*5B
360898,1560000,$GQGSV,1,1,03,07,52,168,29,02,64,121,41,03,74,077,42,6*54
360899,1560000,$GQGSV,1,1,03,07,52,168,33,02,64,121,43,03,74,077,43,8*52
360901,29713200,$GNGGA,081513.20,3158.57063952,N,12052.61590100,E,4,17,1.0,26.7985,M,8.6089,M,1.2,0*61
361140,29713300,$GNGGA,081513.30,3158.57058353,N,12052.61594412,E,4,15,1.0,26.5484,M,836,279,37,3*49
361160,29713300,$GBGSV,5,1,17,60,30,236,36,06,27,207,19,09,35,222,29,16,24,203,21,1*78
361162,29713300,$GBGSV,5,2,17,28,42,285,38,39,17,196,17,49,,,41,10,57,312,33,1*40
361164,29713300,$GBGSV,5,3,17,23,51,222,42,37,36,297,35,38,34,170,28,07,69,334,41,1*75
361165,29713300,$GBGSV,5,4,17,40,63,004,46,25,18,174,21,43,56,027,45,42,24,092,41,1*77
361166,29713300,$GBGSV,5,5,17,33,15,148,23,1*48
361168,29713300,$GBGSV,2,1,07,28,42,285,36,49,,,39,23,51,222,40,37,36,297,35,3*49
361169,29713300,$GBGSV,2,2,07,40,63,004,44,43,56,027,43,42,24,092,40,3*4F
361171,29713300,$GBGSV,2,1,07,28,42,285,34,49,,,37,23,51,222,40,37,36,297,31,5*47
361172,29713300,$GBGSV,2,2,07,40,63,004,41,43,56,027,41,42,24,092,37,5*4E
361173,29713300,$GBGSV,1,1,04,62,,,40,28,42,285,38,37,36,297,33,42,24,092,37,6*4F
361175,29713300,$GBGSV,5,1,17,05,13,251,30,60,30,236,33,01,44,140,25,09,35,222,30,8*70
361177,29713300,$GBGSV,5,2,17,28,42,285,38,39,17,196,20,49,,,37,10,57,312,32,8*4D
361178,29713300,$GBGSV,5,3,17,23,51,222,39,37,36,297,34,38,34,170,23,07,69,334,39,8*75
361180,29713300,$GBGSV,5,4,17,40,63,004,42,25,18,174,19,43,56,027,40,14,23,122,24,8*79
361181,29713300,$GBGSV,5,5,17,42,24,092,39,8*48
361182,29713300,$GBGSV,3,1,09,02,32,231,31,05,13,251,32,04,33,123,27,06,27,207,22,B*08
361184,29713300,$GBGSV,3,2,09,09,35,222,33,16,24,203,21,10,57,312,31,07,69,334,42,B*08
361185,29713300,$GBGSV,3,3,09,14,23,122,26,B*3D
361187,29713300,$GAGSV,2,1,07,13,41,236,37,21,20,317,24,27,75,313,41,15,76,002,42,1*75
361188,29713300,$GAGSV,2,2,07,14,,,44,30,50,140,33,34,26,040,26,1*77
361189,29713300,$GAGSV,2,1,07,13,41,236,39,21,20,317,22,27,75,313,43,15,76,002,44,2*7A
361191,29713300,$GAGSV,2,2,07,14,,,46,30,50,140,34,34,26,040,25,2*72
361192,29713300,$GAGSV,2,1,06,13,41,236,34,21,20,317,22,27,75,313,40,15,76,002,41,5*77
361193,29713300,$GAGSV,2,2,06,30,50,140,32,34,26,040,23,5*73
361195,29713300,$GAGSV,2,1,07,13,41,236,39,21,20,317,27,27,75,313,42,15,76,002,43,7*7C
361196,29713300,$GAGSV,2,2,07,14,,,49,30,50,140,34,34,26,040,29,7*74
361198,29713300,$GQGSV,1,1,03,07,52,168,31,02,64,121,43,03,74,077,46,1*5C
361199,29713300,$GQGSV,1,1,03,07,52,168,29,02,64,121,42,03,74,077,42,6*57
361200,29713300,$GQGSV,1,1,03,07,52,168,33,02,64,121,43,03,74,077,43,8*52
361202,29713500,$GNGGA,081513.50,3158.57055257,N,12052.61598250,E,4,14,1.1,26.4701,M,8.6089,M,0.5,0*66
361204,29713500,$GNVTG,134.072,T,140.646,M,0.72078,N,1.33489,K,D*34
361206,29713500,$GPGSV,2,1,07,01,37,041,27,06,32,244,31,14,79,241,45,17,53,330,25,1*68
361208,29713500,$GPGSV,2,2,07,19,3,5,3,17,23,51,222,44,37,36,297,36,38,34,170,30,07,69,334,41,1*79
361443,29713500,$GBGSV,5,4,17,40,63,004,47,25,18,174,21,43,56,027,45,42,24,092,41,1*76
361444,29713500,$GBGSV,5,5,17,33,15,148,23,1*48
361446,29713500,$GBGSV,2,1,07,28,42,285,35,49,,,39,23,51,222,43,37,36,297,34,3*48
361447,29713500,$GBGSV,2,2,07,40,63,004,45,43,56,027,43,42,24,092,40,3*4E
361448,29713500,$GBGSV,2,1,07,28,42,285,35,49,,,37,23,51,222,41,37,36,297,33,5*45
361450,29713500,$GBGSV,2,2,07,40,63,004,42,43,56,027,41,42,24,092,39,5*43
361451,29713500,$GBGSV,1,1,04,62,,,39,28,42,285,36,37,36,297,36,42,24,092,39,6*44
361453,29713500,$GBGSV,5,1,17,05,13,251,30,60,30,236,32,01,44,140,24,09,35,222,29,8*78
361455,29713500,$GBGSV,5,2,17,28,42,285,37,39,17,196,20,49,,,37,10,57,312,32,8*42
361456,29713500,$GBGSV,5,3,17,23,51,222,40,37,36,297,35,38,34,170,22,07,69,334,39,8*7B
361458,29713500,$GBGSV,5,4,17,40,63,004,43,25,18,174,19,43,56,027,40,14,23,122,24,8*78
361459,29713500,$GBGSV,5,5,17,42,24,092,40,8*46
361460,29713500,$GBGSV,3,1,09,02,32,231,30,05,13,251,32,04,33,123,23,06,27,207,23,B*0C
361462,29713500,$GBGSV,3,2,09,09,35,222,31,16,24,203,22,10,57,312,34,07,69,334,42,B*0C
361463,29713500,$GBGSV,3,3,09,14,23,122,24,B*3F
361464,29713500,$GAGSV,2,1,07,13,41,236,37,21,20,317,24,27,75,313,41,15,76,002,42,1*75
361466,29713500,$GAGSV,2,2,07,14,,,44,30,50,140,33,34,26,040,26,1*77
361467,29713500,$GAGSV,2,1,07,13,41,236,39,21,20,317,22,27,75,313,43,15,76,002,44,2*7A
361469,29713500,$GAGSV,2,2,07,14,,,46,30,50,140,33,34,26,040,25,2*75
361476,29713500,$GAGSV,2,1,06,13,41,236,34,21,20,317,22,27,75,313,40,15,76,002,41,5*77
361477,29713500,$GAGSV,2,2,06,30,50,140,31,34,26,040,22,5*71
361478,29713500,$GAGSV,2,1,07,13,41,236,39,21,20,317,24,27,75,313,42,15,76,002,43,7*7F
361480,29713500,$GAGSV,2,2,07,14,,,48,30,50,140,33,34,26,040,28,7*73
361481,29713500,$GQGSV,1,1,03,07,52,168,31,02,64,121,42,03,74,077,45,1*5E
361482,29713500,$GQGSV,1,1,03,07,52,168,29,02,64,121,42,03,74,077,42,6*57
361484,29713500,$GQGSV,1,1,03,07,52,168,32,02,64,121,43,03,74,077,43,8*53
361486,29713600,$GNGGA,081513.60,3158.57052900,N,12052.61601478,E,4,14,1.1,26.4872,M,8.6089,M,0.6,0*6C
361488,29713800,$GNGGA,081513.80,3158.57050251,N,12052.61602974,E,4,14,1.1,26.3813,M,8.6089,M,0.8,0*63
361490,29713800,$GNVTG,135.471,T,142.045,M,0.50830,N,0.94137,K,D*3D
361492,29713800,$GPGSV,2,1,07,01,37,041,27,06,32,244,30,14,79,241,44,17,53,330,30,1*6C
361493,29713800,$GPGSV,2,2,07,19,33,303,36,22,68,306,41,03,,,45,1*62
361495,29713800,$GPGSV,2,1,05,06,32,244,33,14,79,241,5,4,17,40,63,004,47,25,18,174,21,43,56,027,45,42,24,092,41,1*76
361496,29713800,$GBGSV,5,5,17,33,15,148,22,1*49
361498,29713800,$GBGSV,2,1,07,28,42,285,34,49,,,39,23,51,222,44,37,36,297,35,3*4F
361499,29713800,$GBGSV,2,2,07,40,63,004,46,43,56,027,43,42,24,092,40,3*4D
361500,29713800,$GBGSV,2,1,07,28,42,285,33,49,,,38,23,51,222,43,37,36,297,33,5*4E
361502,29713800,$GBGSV,2,2,07,40,63,004,43,43,56,027,40,42,24,092,41,5*4C
361503,29713800,$GBGSV,1,1,04,62,,,39,28,42,285,35,37,36,297,36,42,24,092,39,6*47
361505,29713800,$GBGSV,5,1,17,05,13,251,31,60,30,236,30,01,44,140,25,09,35,222,28,8*7B
361507,29713800,$GBGSV,5,2,17,28,42,285,35,39,17,196,20,49,,,38,10,57,312,31,8*4C
361508,29713800,$GBGSV,5,3,17,23,51,222,41,37,36,297,35,38,34,170,22,07,69,334,39,8*7A
361510,29713800,$GBGSV,5,4,17,40,63,004,43,25,18,174,19,43,56,027,40,14,23,122,25,8*79
361748,29713800,$GBGSV,5,5,17,42,24,092,40,8*46
361757,29713800,$GBGSV,3,1,09,02,32,231,30,05,13,251,33,04,33,123,24,06,27,207,24,B*0D
361759,29713800,$GBGSV,3,2,09,09,35,222,30,16,24,203,22,10,57,312,34,07,69,334,42,B*0D
361759,29713800,$GBGSV,3,3,09,14,23,122,25,B*3E
361761,29713800,$GAGSV,2,1,07,13,41,236,37,21,20,317,22,27,75,313,40,15,76,002,43,1*73
361762,29713800,$GAGSV,2,2,07,14,,,44,30,50,140,32,34,26,040,25,1*75
361764,29713800,$GAGSV,2,1,07,13,41,236,39,21,20,317,22,27,75,313,43,15,76,002,45,2*7B
361765,29713800,$GAGSV,2,2,07,14,,,46,30,50,140,33,34,26,040,25,2*75
361767,29713800,$GAGSV,2,1,06,13,41,236,34,21,20,317,22,27,75,313,40,15,76,002,42,5*74
361768,29713800,$GAGSV,2,2,06,30,50,140,30,34,26,040,22,5*70
361770,29713800,$GAGSV,2,1,07,13,41,236,38,21,20,317,25,27,75,313,42,15,76,002,44,7*78
361771,29713800,$GAGSV,2,2,07,14,,,48,30,50,140,33,34,26,040,27,7*7C
361772,29713800,$GQGSV,1,1,03,07,52,168,32,02,64,121,42,03,74,077,45,1*5D
361774,29713800,$GQGSV,1,1,03,07,52,168,29,02,64,121,42,03,74,077,42,6*57
361775,29713800,$GQGSV,1,1,03,07,52,168,31,02,64,121,43,03,74,077,43,8*50
361777,29713900,$GNGGA,081513.90,3158.57049299,N,12052.61602672,E,4,14,1.1,26.3217,M,8.6089,M,0.9,0*68
361779,29713900,$GNVTG,137.497,T,144.072,M,0.50162,N,0.92900,K,D*31
361781,29714000,$GNGGA,081514.00,3158.57048541,N,12052.61602762,E,4,13,1.2,26.2713,M,8.6089,M,1.0,0*69
361782,29714000,$GNVTG,143.149,T,149.724,M,0.45082,N,0.83493,K,D*31
361784,29714200,$GNGGA,081514.20,3158.57047984,N,12052.61603461,E,4,15,1.2,26.2375,M,8.6089,M,1.2,0*60
361786,29714200,$GNVTG,142.083,T,148.658,M,0.33911,N,0.62803,K,D*34
361788,29714200,$GPGSV,2,1,07,01,37,041,27,06,32,244,30,147,28,42,285,33,39,17,196,17,49,,,41,10,57,312,33,1*4B
361790,29714200,$GBGSV,5,3,17,23,51,222,44,37,36,297,37,38,34,170,30,07,69,334,41,1*78
361792,29714200,$GBGSV,5,4,17,40,63,004,47,25,18,174,21,43,56,027,45,42,24,092,40,1*77
361792,29714200,$GBGSV,5,5,17,33,15,148,24,1*4F
361794,29714200,$GBGSV,2,1,07,28,42,285,36,49,,,41,23,51,222,44,37,36,297,34,3*43
361795,29714200,$GBGSV,2,2,07,40,63,004,45,43,56,027,43,42,24,092,39,3*40
361797,29714200,$GBGSV,2,1,07,28,42,285,31,49,,,39,23,51,222,43,37,36,297,32,5*4C
361798,29714200,$GBGSV,2,2,07,40,63,004,43,43,56,027,39,42,24,092,41,5*42
361800,29714200,$GBGSV,2,1,06,62,,,37,28,42,285,35,23,51,222,44,37,36,297,35,6*4D
361801,29714200,$GBGSV,2,2,06,40,63,004,43,42,24,092,38,6*75
361802,29714200,$GBGSV,5,1,17,05,13,251,33,60,30,236,27,01,44,140,23,09,35,222,27,8*76
361804,29714200,$GBGSV,5,2,17,28,42,285,34,39,17,196,20,49,,,38,10,57,312,31,8*4D
361806,29714200,$GBGSV,5,3,17,23,51,222,42,37,36,297,34,38,34,170,22,07,69,334,38,8*79
361807,29714200,$GBGSV,5,4,17,40,63,004,43,25,18,174,18,43,56,027,40,14,23,122,25,8*78
361808,29714200,$GBGSV,5,5,17,42,24,092,40,8*46
361810,29714200,$GBGSV,3,1,09,02,32,231,31,05,13,251,34,04,33,123,27,06,27,207,24,B*08
361811,29714200,$GBGSV,3,2,09,09,35,222,29,16,24,203,23,10,57,312,34,07,69,334,41,B*07
361812,29714200,$GBGSV,3,3,09,14,23,122,26,B*3D
361814,29714200,$GAGSV,2,1,06,13,41,236,38,21,20,317,21,27,75,313,40,15,76,002,43,1*7E
361815,29714200,$GAGSV,2,2,06,14,,,43,30,50,140,35,1*44
361816,29714200,$GAGSV,2,1,07,13,41,236,38,21,20,317,22,27,75,313,42,15,76,002,45,2*7B
361818,29714200,$GAGSV,2,2,07,14,,,45,30,50,140,34,34,26,040,26,2*72
361819,29714200,$GAGSV,2,1,06,13,41,236,36,21,20,317,21,27,75,313,40,15,76,002,42,5*75
361820,29714200,$GAGSV,2,2,06,30,50,140,26,34,26,040,23,5*76
361822,29714200,$GAGSV,2,1,06,13,41,236,37,27,75,313,42,15,76,002,44,14,,,47,7*43
361823,29714200,$GAGSV,2,2,06,30,50,140,33,34,26,040,26,7*75
362054,29714200,$GQGSV,1,1,03,07,52,168,32,02,64,121,43,03,74,077,45,1*5C
362056,29714200,$GQGSV,1,1,03,07,52,168,29,02,64,121,40,03,74,077,42,6*55
362057,29714200,$GQGSV,1,1,03,07,52,168,28,02,64,121,42,03,74,077,43,8*59
362059,29714400,$GNGGA,081514.40,3158.57040892,N,12052.61601132,E,4,15,1.2,26.3277,M,8.6089,M,1.4,0*62
362061,29714400,$GNVTG,140.247,T,146.822,M,0.20946,N,0.38792,K,D*39
362063,29714500,$GNGGA,081514.50,3158.57039892,N,12052.61602006,E,4,15,1.2,26.3390,M,8.6089,M,0.5,0*60
362075,29714500,$GNVTG,141.704,T,148.278,M,0.17066,N,0.31607,K,D*3A
362076,29714500,$GPGSV,2,1,07,01,37,041,27,06,203,21,1*76
362078,29714500,$GBGSV,5,2,17,28,42,285,31,39,17,196,17,49,,,41,10,57,312,35,1*4F
362079,29714500,$GBGSV,5,3,17,23,51,222,43,37,36,297,36,38,34,170,30,07,69,334,40,1*7F
362081,29714500,$GBGSV,5,4,17,40,63,004,47,25,18,174,21,43,56,027,44,42,24,092,40,1*76
362082,29714500,$GBGSV,5,5,17,33,15,148,24,1*4F
362083,29714500,$GBGSV,2,1,08,28,42,285,35,49,,,40,23,51,222,44,37,36,297,34,3*4E
362085,29714500,$GBGSV,2,2,08,38,34,170,29,40,63,004,45,43,56,027,42,42,24,092,39,3*7F
362086,29714500,$GBGSV,2,1,07,28,42,285,33,49,,,39,23,51,222,43,37,36,297,33,5*4F
362088,29714500,$GBGSV,2,2,07,40,63,004,43,43,56,027,39,42,24,092,42,5*41
362089,29714500,$GBGSV,2,1,06,62,,,37,28,42,285,35,23,51,222,43,37,36,297,35,6*4A
362090,29714500,$GBGSV,2,2,06,40,63,004,43,42,24,092,39,6*74
362092,29714500,$GBGSV,4,1,16,05,13,251,32,60,30,236,27,09,35,222,26,28,42,285,34,8*77
362094,29714500,$GBGSV,4,2,16,39,17,196,20,49,,,39,10,57,312,31,23,51,222,42,8*49
362095,29714500,$GBGSV,4,3,16,37,36,297,35,38,34,170,23,07,69,334,37,40,63,004,43,8*75
362097,29714500,$GBGSV,4,4,16,25,18,174,18,43,56,027,39,14,23,122,25,42,24,092,40,8*7B
362099,29714500,$GBGSV,3,1,10,02,32,231,31,03,49,198,32,05,13,251,32,04,33,123,25,B*0B
362100,29714500,$GBGSV,3,2,10,06,27,207,24,09,35,222,28,16,24,203,23,10,57,312,34,B*07
362101,29714500,$GBGSV,3,3,10,07,69,334,40,14,23,122,25,B*0E
362103,29714500,$GAGSV,2,1,05,13,41,236,37,27,75,313,40,15,76,002,42,14,,,42,1*47
362104,29714500,$GAGSV,2,2,05,30,50,140,35,1*45
362105,29714500,$GAGSV,2,1,07,13,41,236,37,21,20,317,23,27,75,313,41,15,76,002,44,2*77
362107,29714500,$GAGSV,2,2,07,14,,,45,30,50,140,34,34,26,040,27,2*73
362108,29714500,$GAGSV,2,1,06,13,41,236,36,21,20,317,21,27,75,313,40,15,76,002,42,5*75
362109,29714500,$GAGSV,2,2,06,30,50,140,28,34,26,040,25,5*7E
362111,29714500,$GAGSV,2,1,06,13,41,236,38,27,75,313,42,15,76,002,44,14,,,46,7*4D
362112,29714500,$GAGSV,2,2,06,30,50,140,32,34,26,040,25,7*77
362113,29714500,$GQGSV,1,1,03,07,52,168,31,02,64,121,43,03,74,077,45,1*5F
362115,29714500,$GQGSV,1,1,03,07,52,168,25,02,64,121,40,03,74,077,42,6*59
362116,29714500,$GQGSV,1,1,03,07,52,168,25,02,64,121,41,03,74,077,43,8*57
362118,29714600,$GNGGA,081514.60,3158.57038984,N,12052.61601959,E,4,15,1.2,26.3331,M,8.6089,M,0.6,0*6C
362120,29714600,$GNVTG,154.045,T,160.620,M,0.17528,N,0.32462,K,D*32
362121,29714600,$GPGSV,2,1,07,01,37,041,27,06,32,244,29,14,79,241,44,17,53,330,39,1*6D
362123,29714600,$GPGSV,2,2,07,19,33,303,34,22,68,306,42,03,,,42,1*64
362359,29714600,$GPGSV,2,1,07,01,37,041,23,06,32,244,37,69,334,40,1*77
362371,29714600,$GBGSV,5,4,17,40,63,004,46,25,18,174,21,43,56,027,44,42,24,092,41,1*76
362372,29714600,$GBGSV,5,5,17,33,15,148,24,1*4F
362374,29714600,$GBGSV,2,1,08,28,42,285,34,49,,,40,23,51,222,44,37,36,297,34,3*4F
362376,29714600,$GBGSV,2,2,08,38,34,170,29,40,63,004,45,43,56,027,42,42,24,092,39,3*7F
362377,29714600,$GBGSV,2,1,07,28,42,285,33,49,,,39,23,51,222,43,37,36,297,33,5*4F
362378,29714600,$GBGSV,2,2,07,40,63,004,43,43,56,027,38,42,24,092,42,5*40
362380,29714600,$GBGSV,2,1,06,62,,,37,28,42,285,34,23,51,222,43,37,36,297,35,6*4B
362381,29714600,$GBGSV,2,2,06,40,63,004,43,42,24,092,39,6*74
362383,29714600,$GBGSV,4,1,16,05,13,251,31,60,30,236,27,09,35,222,25,28,42,285,34,8*77
362384,29714600,$GBGSV,4,2,16,39,17,196,20,49,,,38,10,57,312,31,23,51,222,42,8*48
362386,29714600,$GBGSV,4,3,16,37,36,297,35,38,34,170,24,07,69,334,37,40,63,004,43,8*72
362388,29714600,$GBGSV,4,4,16,25,18,174,18,43,56,027,39,14,23,122,25,42,24,092,41,8*7A
362389,29714600,$GBGSV,3,1,10,02,32,231,30,03,49,198,31,05,13,251,31,04,33,123,27,B*08
362391,29714600,$GBGSV,3,2,10,06,27,207,24,09,35,222,28,16,24,203,23,10,57,312,34,B*07
362392,29714600,$GBGSV,3,3,10,07,69,334,40,14,23,122,25,B*0E
362393,29714600,$GAGSV,2,1,05,13,41,236,37,27,75,313,40,15,76,002,42,14,,,42,1*47
362394,29714600,$GAGSV,2,2,05,30,50,140,35,1*45
362396,29714600,$GAGSV,2,1,07,13,41,236,34,21,20,317,23,27,75,313,41,15,76,002,44,2*74
362397,29714600,$GAGSV,2,2,07,14,,,45,30,50,140,33,34,26,040,29,2*7A
362399,29714600,$GAGSV,2,1,06,13,41,236,36,21,20,317,21,27,75,313,40,15,76,002,42,5*75
362400,29714600,$GAGSV,2,2,06,30,50,140,28,34,26,040,25,5*7E
362401,29714600,$GAGSV,2,1,06,13,41,236,38,27,75,313,42,15,76,002,43,14,,,46,7*4A
362403,29714600,$GAGSV,2,2,06,30,50,140,31,34,26,040,25,7*74
362404,29714600,$GQGSV,1,1,03,07,52,168,31,02,64,121,43,03,74,077,45,1*5F
362405,29714600,$GQGSV,1,1,03,07,52,168,25,02,64,121,40,03,74,077,42,6*59
362407,29714600,$GQGSV,1,1,03,07,52,168,26,02,64,121,41,03,74,077,43,8*54
362409,29714700,$GNGGA,081514.70,3158.57039122,N,12052.61601558,E,4,15,1.2,26.3066,M,8.6089,M,0.7,0*65
362410,29714700,$GNVTG,161.081,T,167.655,M,0.16072,N,0.29765,K,D*3C
362412,29714700,$GPGSV,2,1,07,01,37,041,26,06,32,244,29,14,79,241,44,17,53,330,39,1*6C
362413,29714700,$GPGSV,2,2,07,19,33,303,34,22,68,306,42,03,,,42,1*64
362415,29714700,$GPGSV,2,1,06,01,37,041,23,06,32,244,33,14,79,241,44,17,53,330,27,4*69
362416,29714700,$GPGSV,2,2,06,22,68,306,32,03,,,37,4*5A
362660,29714700,$GPGSV,1,1,04,01,37,041,29,06,32,244,35,14,79,241,46,03,,,434,49,,,39,23,51,222,44,37,36,297,34,3*41
362662,29714700,$GBGSV,2,2,08,38,34,170,29,40,63,004,45,43,56,027,41,42,24,092,39,3*7C
362663,29714700,$GBGSV,2,1,07,28,42,285,33,49,,,39,23,51,222,43,37,36,297,32,5*4E
362665,29714700,$GBGSV,2,2,07,40,63,004,42,43,56,027,38,42,24,092,42,5*41
362666,29714700,$GBGSV,2,1,06,62,,,36,28,42,285,34,23,51,222,43,37,36,297,35,6*4A
362667,29714700,$GBGSV,2,2,06,40,63,004,43,42,24,092,39,6*74
362669,29714700,$GBGSV,4,1,16,05,13,251,31,60,30,236,28,09,35,222,26,28,42,285,34,8*7B
362671,29714700,$GBGSV,4,2,16,39,17,196,20,49,,,38,10,57,312,31,23,51,222,43,8*49
362672,29714700,$GBGSV,4,3,16,37,36,297,35,38,34,170,23,07,69,334,37,40,63,004,43,8*75
362674,29714700,$GBGSV,4,4,16,25,18,174,18,43,56,027,38,14,23,122,25,42,24,092,41,8*7B
362676,29714700,$GBGSV,3,1,10,02,32,231,30,03,49,198,31,05,13,251,30,04,33,123,28,B*06
362677,29714700,$GBGSV,3,2,10,06,27,207,24,09,35,222,28,16,24,203,23,10,57,312,35,B*06
362678,29714700,$GBGSV,3,3,10,07,69,334,40,14,23,122,25,B*0E
362680,29714700,$GAGSV,2,1,06,13,41,236,37,27,75,313,40,15,76,002,42,14,,,42,1*44
362681,29714700,$GAGSV,2,2,06,30,50,140,35,34,26,040,23,1*70
362683,29714700,$GAGSV,2,1,07,13,41,236,36,21,20,317,24,27,75,313,41,15,76,002,44,2*71
362684,29714700,$GAGSV,2,2,07,14,,,45,30,50,140,33,34,26,040,28,2*7B
362686,29714700,$GAGSV,2,1,06,13,41,236,36,21,20,317,21,27,75,313,40,15,76,002,42,5*75
362687,29714700,$GAGSV,2,2,06,30,50,140,28,34,26,040,26,5*7D
362688,29714700,$GAGSV,2,1,06,13,41,236,38,27,75,313,41,15,76,002,43,14,,,46,7*49
362700,29714700,$GAGSV,2,2,06,30,50,140,31,34,26,040,25,7*74
362702,29714700,$GQGSV,1,1,03,07,52,168,30,02,64,121,43,03,74,077,45,1*5E
362703,29714700,$GQGSV,1,1,03,07,52,168,25,02,64,121,40,03,74,077,41,6*5A
362704,29714700,$GQGSV,1,1,03,07,52,168,28,02,64,121,41,03,74,077,42,8*5B
362706,29714900,$GNGGA,081514.90,3158.57038979,N,12052.61602543,E,4,15,1.2,26.2890,M,8.6089,M,0.9,0*6B
362708,29714900,$GNVTG,134.949,T,141.524,M,0.15214,N,0.28177,K,D*35
362710,29715200,$GNGGA,081515.20,3158.57037846,N,12052.61604558,E,4,15,1.0,26.2572,M,8.6089,M,1.2,0*66
362712,29715200,$GNVTG,119.353,T,125.928,M,0.21013,N,0.38917,K,D*34
362713,29715200,$GPGSV,2,1,07,01,37,041,25,06,32,244,33,14,79,241,43,17,53,330,38,1*62
362715,29715200,$GPGSV,2,2,07,19,33,303,29,22,68,306,40,03,,,42,1*6A
362716,29715200,$GPGSV,2,1,06,01,37,041,22,06,32,244,30,14,79,241,43,17,53,330,27,4*6C
362717,29715200,$GPGSV,2,2,06,22,68,306,31,03,,,34,4*5A
362720,29715200,$GPGSV,1,1,04,01,37,041,27,06,32,244,29,14,79,241,45,0,285,32,49,,,34,23,51,222,42,37,36,297,34,3*4C
362721,29715200,$GBGSV,2,2,08,38,34,170,29,40,63,004,42,43,56,027,39,42,24,092,39,3*74
362723,29715200,$GBGSV,2,1,07,28,42,285,32,49,,,32,23,51,222,41,37,36,297,32,5*46
362724,29715200,$GBGSV,2,2,07,40,63,004,37,43,56,027,30,42,24,092,40,5*49
362726,29715200,$GBGSV,2,1,05,28,42,285,32,23,51,222,41,37,36,297,35,40,63,004,42,6*7F
362727,29715200,$GBGSV,2,2,05,42,24,092,39,6*45
362728,29715200,$GBGSV,4,1,15,05,13,251,25,60,30,236,20,28,42,285,33,39,17,196,20,8*7B
362730,29715200,$GBGSV,4,2,15,49,,,36,10,57,312,31,23,51,222,42,37,36,297,34,8*4F
362732,29715200,$GBGSV,4,3,15,38,34,170,26,07,69,334,35,40,63,004,41,25,18,174,20,8*76
362733,29715200,$GBGSV,4,4,15,43,56,027,33,14,23,122,23,42,24,092,40,8*41
362735,29715200,$GBGSV,3,1,09,03,49,198,24,05,13,251,31,04,33,123,22,06,27,207,25,B*00
362964,29715200,$GBGSV,3,2,09,09,35,222,27,16,24,203,22,10,57,312,34,07,69,334,39,B*07
362974,29715200,$GBGSV,3,3,09,14,23,122,25,B*3E
362975,29715200,$GAGSV,2,1,05,13,41,236,35,27,75,313,38,15,76,002,34,14,,,35,1*4B
362976,29715200,$GAGSV,2,2,05,30,50,140,28,1*49
362978,29715200,$GAGSV,2,1,07,13,41,236,31,21,20,317,25,27,75,313,39,15,76,002,38,2*73
362979,29715200,$GAGSV,2,2,07,14,,,42,30,50,140,26,34,26,040,28,2*78
362981,29715200,$GAGSV,2,1,06,13,41,236,36,21,20,317,20,27,75,313,39,15,76,002,40,5*78
362982,29715200,$GAGSV,2,2,06,30,50,140,27,34,26,040,28,5*7C
362983,29715200,$GAGSV,2,1,07,13,41,236,36,21,20,317,20,27,75,313,40,15,76,002,41,7*74
362985,29715200,$GAGSV,2,2,07,14,,,43,30,50,140,28,34,26,040,22,7*78
362986,29715200,$GQGSV,1,1,03,07,52,168,29,02,64,121,41,03,74,077,43,1*52
362987,29715200,$GQGSV,1,1,03,07,52,168,25,02,64,121,37,03,74,077,36,6*5A
362989,29715200,$GQGSV,1,1,03,07,52,168,27,02,64,121,35,03,74,077,37,8*55
362991,29715300,$GNGGA,081515.30,3158.57041030,N,12052.61599751,E,4,15,1.0,26.3039,M,8.6089,M,1.3,0*69
362993,29715300,$GNVTG,128.194,T,134.769,M,0.22722,N,0.42081,K,D*39
362995,29715400,$GNGGA,081515.40,3158.57041110,N,12052.61600471,E,4,13,1.3,26.3003,M,8.6089,M,1.4,0*64
362996,29715400,$GNVTG,129.680,T,136.255,M,0.22354,N,0.41399,K,D*3E
362998,29715400,$GPGSV,2,1,07,01,37,041,24,06,32,244,32,14,79,241,43,17,53,330,37,1*6D
362999,29715400,$GPGSV,2,2,07,19,33,303,27,22,68,306,40,03,,,41,1*67
363001,29715400,$GPGSV,2,1,06,01,37,041,22,06,32,244,25,14,79,241,42,17,53,330,26,4*68
363002,29715400,$GPGSV,2,2,06,22,68,306,31,03,,,29,4*56
363003,29715400,$GPGSV,1,1,04,01,37,041,26,06,32,244,27,14,79,241,44,03,,,34,8*55
363004,29715400,$GLGSV,2,1,05,7,37,36,297,33,3*4D
363006,29715400,$GBGSV,2,2,08,38,34,170,28,40,63,004,37,43,56,027,36,42,24,092,38,3*79
363007,29715400,$GBGSV,2,1,07,28,42,285,31,49,,,30,23,51,222,35,37,36,297,31,5*47
363009,29715400,$GBGSV,2,2,07,40,63,004,34,43,56,027,30,42,24,092,35,5*48
363010,29715400,$GBGSV,1,1,04,23,51,222,36,37,36,297,34,40,63,004,41,42,24,092,38,6*7D
363012,29715400,$GBGSV,4,1,14,05,13,251,26,28,42,285,32,39,17,196,18,49,,,31,8*4C
363014,29715400,$GBGSV,4,2,14,10,57,312,30,23,51,222,41,37,36,297,33,38,34,170,25,8*7E
363015,29715400,$GBGSV,4,3,14,07,69,334,34,40,63,004,35,25,18,174,20,43,56,027,32,8*7B
363016,29715400,$GBGSV,4,4,14,14,23,122,23,42,24,092,40,8*71
363018,29715400,$GBGSV,2,1,07,05,13,251,30,06,27,207,25,09,35,222,27,16,24,203,22,B*0A
363019,29715400,$GBGSV,2,2,07,10,57,312,28,07,69,334,37,14,23,122,25,B*31
363021,29715400,$GAGSV,2,1,06,13,41,236,29,21,20,317,19,27,75,313,33,15,76,002,30,1*75
363022,29715400,$GAGSV,2,2,06,14,,,32,30,50,140,26,1*40
363024,29715400,$GAGSV,2,1,06,13,41,236,29,21,20,317,25,27,75,313,34,15,76,002,35,2*7B
363025,29715400,$GAGSV,2,2,06,14,,,37,34,26,040,27,2*43
363026,29715400,$GAGSV,2,1,06,13,41,236,36,21,20,317,20,27,75,313,38,15,76,002,40,5*79
363027,29715400,$GAGSV,2,2,06,30,50,140,27,34,26,040,28,5*7C
363029,29715400,$GAGSV,2,1,06,13,41,236,35,21,20,317,20,27,75,313,39,15,76,002,36,7*78
363030,29715400,$GAGSV,2,2,06,14,,,39,30,50,140,27,7*4C
363031,29715400,$GQGSV,1,1,03,07,52,168,28,02,64,121,41,03,74,077,38,1*5F
363033,29715400,$GQGSV,1,1,03,07,52,168,25,02,64,121,36,03,74,077,35,6*58
363034,29715400,$GQGSV,1,1,03,07,52,168,25,02,64,121,33,03,74,077,36,8*50
363036,29715500,$GNGGA,081515.50,3158.57040624,N,12052.61600204,E,4,12,1.4,26.2750,M,8.6089,M,1.5,0*67
363038,29715500,$GNVTG,129.074,T,135.649,M,0.21958,N,0.40666,K,D*38
363040,29715600,$GNGGA,081515.60,3158.57040978,N,12052.61600655,E,4,11,1.5,26.3020,M,8.6089,M,0.6,0*63
363270,29715600,$GNVTG,120.382,T,126.956,M,0.20582,N,0.38119,K,D*32
363272,29715600,$GPGSV,2,1,07,01,37,041,23,06,32,244,31,14,79,241,42,17,53,330,36,1*69
363273,29715600,$GPGSV,2,2,07,19,33,303,26,22,68,306,35,03,,,40,1*65
363275,29715600,$GPGSV,2,1,06,01,37,041,21,06,32,244,29,14,79,241,39,17,53,330,26,4*6B
363276,29715600,$GPGSV,2,2,06,22,68,306,30,03,,,26,4*58
363277,29715600,$GPGSV,1,1,03,06,32,244,27,14,79,241,40,03,,,33,8*65
363279,29715600,$GLGSV,2,1,05,78,33,321,36,77,65,225,35,76,26,173,29,88,36,279,31,1*74
363280,29715600,$GLGSV,2,2,05,87,44,013,33,1*40
363293,29715600,$GLGSV,1,1,03,78,33,321,22,76,26,173,26,88,36,279,28,3*4004,33,43,56,027,29,42,24,092,34,5*46
363294,29715600,$GBGSV,1,1,03,37,36,297,30,40,63,004,36,42,24,092,37,6*43
363296,29715600,$GBGSV,4,1,15,05,13,251,28,60,30,236,20,28,42,285,31,39,17,196,18,8*7F
363297,29715600,$GBGSV,4,2,15,49,,,29,10,57,312,29,23,51,222,35,37,36,297,32,8*4E
363299,29715600,$GBGSV,4,3,15,38,34,170,25,07,69,334,31,40,63,004,33,25,18,174,20,8*74
363300,29715600,$GBGSV,4,4,15,43,56,027,30,14,23,122,23,42,24,092,40,8*42
363302,29715600,$GBGSV,2,1,08,02,32,231,26,05,13,251,32,06,27,207,25,09,35,222,27,B*00
363304,29715600,$GBGSV,2,2,08,16,24,203,22,10,57,312,27,07,69,334,33,14,23,122,25,B*05
363305,29715600,$GAGSV,2,1,06,13,41,236,27,21,20,317,18,27,75,313,31,15,76,002,29,1*70
363306,29715600,$GAGSV,2,2,06,14,,,32,30,50,140,25,1*43
363308,29715600,$GAGSV,2,1,06,13,41,236,27,21,20,317,25,27,75,313,32,15,76,002,34,2*72
363309,29715600,$GAGSV,2,2,06,14,,,37,34,26,040,26,2*42
363310,29715600,$GAGSV,2,1,06,13,41,236,36,21,20,317,20,27,75,313,33,15,76,002,34,5*71
363312,29715600,$GAGSV,2,2,06,30,50,140,26,34,26,040,28,5*7D
363313,29715600,$GAGSV,2,1,06,13,41,236,31,21,20,317,20,27,75,313,35,15,76,002,34,7*72
363314,29715600,$GAGSV,2,2,06,14,,,35,30,50,140,26,7*41
363316,29715600,$GQGSV,1,1,03,07,52,168,28,02,64,121,37,03,74,077,37,1*51
363317,29715600,$GQGSV,1,1,03,07,52,168,25,02,64,121,33,03,74,077,34,6*5C
363318,29715600,$GQGSV,1,1,03,07,52,168,23,02,64,121,33,03,74,077,36,8*56
363320,29715700,$GNGGA,081515.70,3158.57040839,N,12052.61600313,E,4,10,1.8,26.3095,M,8.6089,M,0.7,0*62
363322,29715700,$GNVTG,114.025,T,120.600,M,0.20269,N,0.37539,K,D*3A
363324,29715800,$GNGGA,081515.80,3158.57040501,N,12052.61599868,E,4,08,2.0,26.3055,M,8.6089,M,0.8,0*6E
363326,29715900,$GNGGA,081515.90,3158.57040467,N,12052.61599378,E,4,08,2.0,26.3114,M,8.6089,M,0.9,0*61
363328,29715900,$GNVTG,118.314,T,124.888,M,0.17023,N,0.31526,K,D*3D
363330,29716100,$GNGGA,081516.10,3158.57040135,N,12052.61601965,E,4,08,2.0,26.3449,M,8.6089,M,1.1,0*68
363332,29716100,$GNVTG,127.148,T,133.723,M,0.14296,N,0.26476,K,D*3F
363333,29716100,$GPGSV,2,1,06,06,32,244,29,14,79,241,36,17,53,330,31,19,33,303,26,1*68
363334,29716100,$GPGSV,2,2,06,22,68,306,32,03,,,33,1*5B
363336,29716100,$GPGSV,2,1,06,01,37,041,20,06,32,244,28,14,79,241,33,17,53,330,24,4*63
363337,29716100,$GPGSV,2,2,06,22,68,306,29,03,,,28,4*5E
363338,29716100,$GPGSV,1,1,03,06,32,244,28,14,79,241,36,03,,,31,8*69
363340,29716100,$GLGSV,2,1,05,78,33,321,33,77,65,225,32,76,26,173,26,88,36,279,29,1*70
363341,29716100,$GLGSV,2,2,05,87,44,013,32,1*41
363579,29716100,$GLGSV1,07,28,42,285,25,49,,,27,23,51,222,27,37,36,297,25,5*42
363590,29716100,$GBGSV,2,2,07,40,63,004,29,43,56,027,28,42,24,092,36,5*4E
363591,29716100,$GBGSV,1,1,03,62,,,32,28,42,285,31,42,24,092,36,6*78
363593,29716100,$GBGSV,4,1,15,05,13,251,25,09,35,222,20,28,42,285,31,39,17,196,17,8*72
363595,29716100,$GBGSV,4,2,15,49,,,25,10,57,312,26,23,51,222,29,37,36,297,26,8*45
363596,29716100,$GBGSV,4,3,15,38,34,170,23,07,69,334,27,40,63,004,28,25,18,174,19,8*75
363598,29716100,$GBGSV,4,4,15,43,56,027,26,14,23,122,22,42,24,092,38,8*4B
363599,29716100,$GBGSV,2,1,08,02,32,231,24,05,13,251,31,06,27,207,24,09,35,222,25,B*02
363601,29716100,$GBGSV,2,2,08,16,24,203,21,10,57,312,28,07,69,334,29,14,23,122,25,B*02
363602,29716100,$GAGSV,2,1,05,21,20,317,17,27,75,313,27,15,76,002,29,14,,,29,1*40
363603,29716100,$GAGSV,2,2,05,30,50,140,27,1*46
363605,29716100,$GAGSV,2,1,07,13,41,236,29,21,20,317,25,27,75,313,28,15,76,002,34,2*76
363606,29716100,$GAGSV,2,2,07,14,,,32,30,50,140,26,34,25,040,25,2*71
363608,29716100,$GAGSV,2,1,06,13,41,236,26,21,20,317,20,27,75,313,30,15,76,002,32,5*75
363609,29716100,$GAGSV,2,2,06,30,50,140,25,34,25,040,27,5*72
363611,29716100,$GAGSV,2,1,07,13,41,236,27,21,20,317,21,27,75,313,34,15,76,002,30,7*70
363612,29716100,$GAGSV,2,2,07,14,,,32,30,50,140,23,34,25,040,21,7*75
363613,29716100,$GQGSV,1,1,03,07,52,168,27,02,64,121,34,03,74,077,32,1*58
363615,29716100,$GQGSV,1,1,03,07,52,168,24,02,64,121,33,03,74,077,31,6*58
363616,29716100,$GQGSV,1,1,03,07,52,168,21,02,64,121,33,03,74,077,34,8*56
363618,29716300,$GNGGA,081516.30,3158.57041065,N,12052.61603166,E,4,08,2.0,26.3864,M,8.6089,M,1.3,0*67
363620,29716300,$GNVTG,137.164,T,143.738,M,0.12933,N,0.23952,K,D*31
363621,29716300,$GPGSV,2,1,06,06,32,244,26,14,79,241,35,17,53,330,31,19,33,303,26,1*64
363622,29716300,$GPGSV,2,2,06,22,68,306,31,03,,,32,1*59
363624,29716300,$GPGSV,2,1,05,01,37,041,19,06,32,244,27,14,79,241,32,17,53,330,24,4*64
363625,29716300,$GPGSV,2,2,05,22,68,306,29,4*54
363626,29716300,$GPGSV,1,1,03,06,32,244,28,14,79,241,35,03,,,31,8*6A
363628,29716300,$GLGSV,2,1,05,78,33,321,32,77,65,225,31,76,26,173,20,88,36,279,29,1*74
363628,29716300,$GLGSV,2,2,05,87,44,013,31,1*42
363630,29716300,$GLGSV,1,1,03,78,33,321,22,76,26,173,25,88,36,279,23,3*49
363631,29716300,$GBGSV,4,1,16,60,30,236,24,62,,,24,06,27,207,21,09,35,222,23,1*4B
363633,29716300,$GBGSV,4,2,16,16,24,203,20,28,42,285,27,39,17,196,18,49,,,33,1*45
363635,29716300,$GBGSV,4,3,16,23,51,222,34,37,36,297,26,38,34,170,26,07,69,334,33,1*7D
363885,29716300,$GBGSV,4,4,16,40,63,004,33,25,18,8,34,170,22,07,69,334,29,40,63,004,29,25,18,174,19,8*7B
363886,29716300,$GBGSV,4,4,15,43,56,027,26,14,23,122,21,42,24,092,38,8*48
