{"ts":"2026-01-27 17:15:03.067","ms":870067,"raw":"$GLGSV,2,1,05,70,20,092,32,75,57,214,45,76,40,313,40,86,41,290,37,1*73"}
{"ts":"2026-01-27 17:15:03.102","ms":870102,"raw":"$GLGSV,2,2,05,85,40,020,33,1*46"}
{"ts":"2026-01-27 17:15:03.178","ms":870178,"raw":"$GLGSV,2,1,05,70,20,092,36,75,57,214,39,76,40,313,36,86,41,290,32,3*7A"}
{"ts":"2026-01-27 17:15:03.213","ms":870213,"raw":"$GLGSV,2,2,05,85,40,020,22,3*44"}
{"ts":"2026-01-27 17:15:03.262","ms":870263,"raw":"$GBGSV,4,1,14,03,49,198,26,05,13,251,34,59,45,148,1,39,60,,,35,35,23,279,30,8*45"}
{"ts":"2026-01-27 17:15:03.270","ms":870270,"raw":"$GBGSV,4,2,13,07,70,338,23,10,58,314,30,32,20,063,44,29,61,348,33,8*7E"}
{"ts":"2026-01-27 17:15:03.346","ms":870346,"raw":"$GBGSV,4,3,13,30,32,059,38,47,54,030,32,38,38,172,20,40,64,009,26,8*72"}
{"ts":"2026-01-27 17:15:03.381","ms":870381,"raw":"$GBGSV,4,4,13,45,48,256,44,8*41"}
{"ts":"2026-01-27 17:15:03.414","ms":870414,"raw":"$GBGSV,2,1,08,01,44,140,28,02,32,231,31,03,49,198,25,05,13,251,42,B*0F"}
{"ts":"2026-01-27 17:15:03.418","ms":870418,"raw":"$GBGSV,2,2,08,07,70,338,28,16,20,203,31,10,58,314,27,09,30,221,30,B*0E"}
{"ts":"2026-01-27 17:15:03.428","ms":870428,"raw":"$GAGSV,2,1,05,18,,,34,13,47,244,40,15,69,011,26,27,80,287,36,1*40"}
{"ts":"2026-01-27 17:15:03.466","ms":870466,"raw":"$GAGSV,2,2,05,30,43,146,23,1*46"}
{"ts":"2026-01-27 17:15:03.504","ms":870504,"raw":"$GAGSV,1,1,04,18,,,31,13,47,244,43,27,80,287,39,30,43,146,27,2*45"}
{"ts":"2026-01-27 17:15:03.570","ms":870570,"raw":"$GAGSV,2,1,05,13,47,244,40,15,69,011,27,27,80,287,33,30,43,146,24,5*7F"}
{"ts":"2026-01-27 17:15:03.604","ms":870604,"raw":"$GAGSV,2,2,05,21,26,317,21,5*45"}
{"ts":"2026-01-27 17:15:03.615","ms":870615,"raw":"$GAGSV,2,1,06,18,,,31,13,47,244,41,15,69,011,32,27,80,287,37,7*45"}
{"ts":"2026-01-27 17:15:03.663","ms":870663,"raw":"$GAGSV,2,2,06,30,43,146,25,21,26,317,22,7*77"}
{"ts":"2026-01-27 17:15:03.677","ms":870678,"raw":"$GQGSV,1,1,02,02,62,128,39,03,74,071,35,1*60"}
{"ts":"2026-01-27 17:15:03.681","ms":870681,"raw":"$GQGSV,1,1,03,02,62,128,38,03,74,071,34,07,52,168,21,6*5A"}
{"ts":"2026-01-27 17:15:03.710","ms":870711,"raw":"$GQGSV,1,1,03,02,62,128,39,03,74,071,35,07,52,168,32,8*56"}
{"ts":"2026-01-27 17:15:03.803","ms":870804,"raw":"$GNGGA,091440.90,3158.56352844,N,12052.61891301,E,5,16,1.0,1.0977,M,8.6092,M,0.9,0*5A"}
{"ts":"2026-01-27 17:15:03.817","ms":870817,"raw":"$GNVTG,127.832,T,134.473,M,0.01284,N,0.02377,K,D*3D"}
{"ts":"2026-01-27 17:15:03.820","ms":870821,"raw":"$GPGSV,2,1,07,19,38,310,32,01,30,044,27,06,38,252,41,17,57,341,36,1*6D"}
{"ts":"2026-01-27 17:15:03.824","ms":870824,"raw":"$GPGSV,2,2,07,22,74,285,32,03,51,076,37,14,74,206,40,1*5A"}
{"ts":"2026-01-27 17:15:03.830","ms":870830,"raw":"$GPGSV,2,1,06,19,38,310,32,06,38,252,40,17,57,341,26,22,74,285,31,4*60"}
{"ts":"2026-01-27 17:15:03.833","ms":870833,"raw":"$GPGSV,2,2,06,03,51,076,23,14,74,206,35,4*64"}
{"ts":"2026-01-27 17:15:03.836","ms":870836,"raw":"$GPGSV,1,1,04,01,30,044,28,06,38,252,44,03,51,076,31,14,74,206,39,8*65"}
{"ts":"2026-01-27 17:15:03.840","ms":870840,"raw":"$GLGSV,2,1,05,70,20,092,32,75,57,214,45,76,40,313,40,86,41,290,36,1*72"}
{"ts":"2026-01-27 17:15:03.845","ms":870845,"raw":"$GLGSV,2,2,05,85,40,020,33,1*46"}
{"ts":"2026-01-27 17:15:03.848","ms":870848,"raw":"$GLGSV,2,1,05,70,20,092,36,75,57,214,39,76,40,313,35,86,41,290,31,3*7A"}
{"ts":"2026-01-27 17:15:03.851","ms":870851,"raw":"$GLGSV,2,2,05,85,40,020,21,3*47"}
{"ts":"2026-01-27 17:15:03.854","ms":870854,"raw":"$GBGSV,4,1,13,03,49,198,26,59,45,148,26,60,,,37,07,70,338,28,1*4F"}
{"ts":"2026-01-27 17:15:03.857","ms":870858,"raw":"$GBGSV,4,2,13,16,20,203,27,10,58,314,29,09,30,221,21,32,20,063,42,1*7A"}
{"ts":"2026-01-27 17:15:03.864","ms":870864,"raw":"$GBGSV,4,3,13,29,61,348,37,36,32,191,22,40,64,009,33,45,48,256,43,1*7D"}
{"ts":"2026-01-27 17:15:03.866","ms":870867,"raw":"$GBGSV,4,4,13,20,27,124,30,1*47"}
{"ts":"2026-01-27 17:15:03.870","ms":870870,"raw":"$GBGSV,2,1,07,35,23,279,31,32,20,063,41,29,61,348,32,30,32,059,41,3*73"}
{"ts":"2026-01-27 17:15:03.873","ms":870873,"raw":"$GBGSV,2,2,07,47,54,030,30,40,64,009,33,45,48,256,41,3*47"}
{"ts":"2026-01-27 17:15:03.879","ms":870879,"raw":"$GBGSV,1,1,04,32,20,063,45,30,32,059,39,40,64,009,27,45,48,256,39,5*79"}
{"ts":"2026-01-27 17:15:03.883","ms":870883,"raw":"$GBGSV,1,1,04,60,,,32,32,20,,28,13,47,244,42,27,80,287,38,30,43,146,27,2*4D"}
{"ts":"2026-01-27 17:15:03.886","ms":870886,"raw":"$GAGSV,2,1,05,13,47,244,40,15,69,011,27,27,80,287,30,30,43,146,25,5*7D"}
{"ts":"2026-01-27 17:15:03.889","ms":870889,"raw":"$GAGSV,2,2,05,21,26,317,21,5*45"}
{"ts":"2026-01-27 17:15:03.892","ms":870892,"raw":"$GAGSV,2,1,05,18,,,32,13,47,244,41,15,69,011,33,27,80,287,37,7*44"}
{"ts":"2026-01-27 17:15:03.897","ms":870897,"raw":"$GAGSV,2,2,05,21,26,317,22,7*44"}
{"ts":"2026-01-27 17:15:03.900","ms":870900,"raw":"$GQGSV,1,1,02,02,62,128,39,03,74,071,35,1*60"}
{"ts":"2026-01-27 17:15:03.903","ms":870903,"raw":"$GQGSV,1,1,03,02,62,128,34,03,74,071,33,07,52,168,22,6*52"}
{"ts":"2026-01-27 17:15:03.906","ms":870906,"raw":"$GQGSV,1,1,03,02,62,128,38,03,74,071,35,07,52,168,32,8*57"}
{"ts":"2026-01-27 17:15:03.910","ms":870910,"raw":"$GNGGA,091441.10,3158.56351974,N,12052.61891412,E,5,18,0.9,1.1069,M,8.6092,M,1.1,0*5F"}
{"ts":"2026-01-27 17:15:03.917","ms":870917,"raw":"$GNGGA,091441.20,3158.56352395,N,12052.61891227,E,5,18,0.9,1.1069,M,8.6092,M,1.2,0*59"}
{"ts":"2026-01-27 17:15:03.920","ms":870920,"raw":"$GNVTG,330.815,T,337.456,M,0.33593,N,0.62214,K,D*38"}
{"ts":"2026-01-27 17:15:03.924","ms":870924,"raw":"$GNGGA,091441.40,3158.56352208,N,12052.61891158,E,5,17,0.9,1.1018,M,8.6092,M,1.4,0*5E"}
{"ts":"2026-01-27 17:15:03.927","ms":870927,"raw":"$GNVTG,275.374,T,282.015,M,0.05900,N,0.10926,K,D*34"}
{"ts":"2026-01-27 17:15:03.933","ms":870934,"raw":"$GPGSV,2,1,07,19,38,310,30,01,30,044,26,06,38,252,40,17,57,341,36,1*6F"}
{"ts":"2026-01-27 17:15:03.936","ms":870937,"raw":"$GPGSV,2,2,07,22,74,285,33,03,51,076,37,14,74,206,40,1*5B"}
{"ts":"2026-01-27 17:15:03.940","ms":870940,"raw":"$GPGSV,2,1,06,19,38,310,31,06,38,252,38,17,57,341,25,22,74,285,30,4*6E"}
{"ts":"2026-01-27 17:15:03.943","ms":870943,"raw":"$GPGSV,2,2,06,03,51,076,22,14,74,206,35,4*65"}
{"ts":"2026-01-27 17:15:03.949","ms":870949,"raw":"$GPGSV,1,1,04,01,30,044,28,06,38,252,43,03,51,076,32,14,74,206,39,8*61"}
{"ts":"2026-01-27 17:15:03.953","ms":870953,"raw":"$GLGSV,2,1,05,70,20,092,32,75,57,214,44,76,40,313,40,86,41,290,32,1*77"}
{"ts":"2026-01-27 17:15:03.955","ms":870955,"raw":"$GLGSV,2,2,05,85,40,020,33,1*46"}
{"ts":"2026-01-27 17:15:03.958","ms":870958,"raw":"$GLGSV,2,1,05,70,20,092,35,75,57,214,38,76,40,313,34,86,41,290,33,3*7B"}
{"ts":"2026-01-27 17:15:03.961","ms":870961,"raw":"$GLGSV,2,2,05,85,40,020,20,3*46"}
{"ts":"2026-01-27 17:15:03.967","ms":870967,"raw":"$GBGSV,4,1,13,03,49,198,23,59,45,148,32,60,,,36,07,70,338,28,1*4E"}
{"ts":"2026-01-27 17:15:03.973","ms":870973,"raw":"$GBGSV,4,2,13,16,20,203,27,10,58,314,31,09,30,221,21,32,20,063,42,1*73"}
{"ts":"2026-01-27 17:15:03.976","ms":870976,"raw":"$GBGSV,4,3,13,29,61,348,36,38,38,172,19,40,64,009,32,45,48,256,41,1*7E"}
{"ts":"2026-01-27 17:15:03.979","ms":870979,"raw":"$GBGSV,4,4,13,20,27,124,29,1*4F"}
{"ts":"2026-01-27 17:15:03.985","ms":870985,"raw":"$GBGSV,2,1,07,35,23,279,31,32,20,063,41,29,61,348,32,30,32,059,42,3*70"}
{"ts":"2026-01-27 17:15:03.988","ms":870988,"raw":"$GBGSV,2,2,07,47,54,030,29,40,64,009,32,45,48,256,40,3*4F"}
{"ts":"2026-01-27 17:15:03.992","ms":870992,"raw":"$GBGSV,2,1,05,32,20,063,45,29,61,348,22,30,32,059,38,40,64,009,25,5*7D"}
{"ts":"2026-01-27 17:15:03.994","ms":870994,"raw":"$GBGSV,2,2,05,45,48,256,39,5*41"}
{"ts":"2026-01-27 17:15:03.000","ms":871000,"raw":"$GBGSV,1,1,04,60,,,34,32,20,063,45,30,32,059,38,45,48,256,40,6*4E"}
{"ts":"2026-01-27 17:15:03.004","ms":871004,"raw":"$GBGSV,4,1,13,03,49,198,20,05,13,251,36,60,,,34,35,23,279,28,8*40"}
{"ts":"2026-01-27 17:15:03.007","ms":871007,"raw":"$GBGSV,4,2,13,07,70,338,25,10,58,314,29,32,20,063,44,29,61,348,34,8*77"}
{"ts":"2026-01-27 17:15:03.010","ms":871010,"raw":"$GBGSV,4,3,13,30,32,059,37,47,54,030,31,38,38,,69,011,34,27,80,287,36,7*41"}
{"ts":"2026-01-27 17:15:03.013","ms":871013,"raw":"$GAGSV,2,2,05,21,26,317,22,7*44"}
{"ts":"2026-01-27 17:15:04.018","ms":871019,"raw":"$GQGSV,1,1,02,02,62,128,38,03,74,071,34,1*60"}
{"ts":"2026-01-27 17:15:04.022","ms":871022,"raw":"$GQGSV,1,1,03,02,62,128,32,03,74,071,33,07,52,168,25,6*53"}
{"ts":"2026-01-27 17:15:04.025","ms":871025,"raw":"$GQGSV,1,1,03,02,62,128,37,03,74,071,33,07,52,168,31,8*5D"}
{"ts":"2026-01-27 17:15:04.028","ms":871029,"raw":"$GNGGA,091441.50,3158.56352560,N,12052.61891156,E,5,17,0.9,1.1020,M,8.6092,M,0.5,0*53"}
{"ts":"2026-01-27 17:15:04.034","ms":871035,"raw":"$GNVTG,161.105,T,167.746,M,0.04862,N,0.09005,K,D*3B"}
{"ts":"2026-01-27 17:15:04.038","ms":871038,"raw":"$GPGSV,2,1,07,19,38,310,30,01,30,044,26,06,38,252,40,17,57,341,36,1*6F"}
{"ts":"2026-01-27 17:15:04.041","ms":871041,"raw":"$GPGSV,2,2,07,22,74,285,33,03,51,076,37,14,74,206,40,1*5B"}
{"ts":"2026-01-27 17:15:04.044","ms":871044,"raw":"$GPGSV,2,1,06,19,38,310,31,06,38,252,38,17,57,341,22,22,74,285,30,4*69"}
{"ts":"2026-01-27 17:15:04.047","ms":871047,"raw":"$GPGSV,2,2,06,03,51,076,22,14,74,206,35,4*65"}
{"ts":"2026-01-27 17:15:04.053","ms":871053,"raw":"$GPGSV,1,1,04,01,30,044,28,06,38,252,42,03,51,076,32,14,74,206,39,8*60"}
{"ts":"2026-01-27 17:15:04.057","ms":871057,"raw":"$GLGSV,2,1,05,70,20,092,32,75,57,214,44,76,40,313,40,86,41,290,31,1*74"}
{"ts":"2026-01-27 17:15:04.059","ms":871059,"raw":"$GLGSV,2,2,05,85,40,020,33,1*46"}
{"ts":"2026-01-27 17:15:04.062","ms":871063,"raw":"$GLGSV,2,1,05,70,20,092,35,75,57,214,38,76,40,313,33,86,41,290,32,3*7D"}
{"ts":"2026-01-27 17:15:04.068","ms":871068,"raw":"$GLGSV,2,2,05,85,40,020,20,3*46"}
{"ts":"2026-01-27 17:15:04.071","ms":871071,"raw":"$GBGSV,4,1,13,03,49,198,23,59,45,148,31,60,,,35,07,70,338,28,1*4E"}
{"ts":"2026-01-27 17:15:04.074","ms":871074,"raw":"$GBGSV,4,2,13,16,20,203,27,10,58,314,31,09,30,221,23,32,20,063,42,1*71"}
{"ts":"2026-01-27 17:15:04.078","ms":871078,"raw":"$GBGSV,4,3,13,29,61,348,35,38,38,172,17,40,64,009,32,45,48,256,41,1*73"}
{"ts":"2026-01-27 17:15:04.080","ms":871080,"raw":"$GBGSV,4,4,13,20,27,124,29,1*4F"}
{"ts":"2026-01-27 17:15:04.087","ms":871087,"raw":"$GBGSV,2,1,07,35,23,279,30,32,20,063,41,29,61,348,32,30,32,059,42,3*71"}
{"ts":"2026-01-27 17:15:04.090","ms":871090,"raw":"$GBGSV,2,2,07,47,54,030,28,40,64,009,32,45,48,256,40,3*4E"}
{"ts":"2026-01-27 17:15:04.093","ms":871093,"raw":"$GBGSV,2,1,06,35,23,279,30,32,20,063,45,29,61,348,23,30,32,059,37,5*70"}
{"ts":"2026-01-27 17:15:04.096","ms":871096,"raw":"$GBGSV,2,2,06,40,64,009,26,45,48,256,36,5*76"}
{"ts":"2026-01-27 17:15:04.102","ms":871102,"raw":"$GBGSV,1,1,04,60,,,34,32,20,063,45,30,32,059,37,45,48,256,40,6*41"}
{"ts":"2026-01-27 17:15:04.105","ms":871106,"raw":"$GBGSV,4,1,13,03,49,198,23,05,13,251,36,60,,,34,35,23,279,28,8*43"}
{"ts":"2026-01-27 17:15:04.109","ms":871109,"raw":"$GBGSV,4,2,13,07,70,338,25,10,58,314,29,32,20,063,44,29,61,348,33,8*70"}
{"ts":"2026-01-27 17:15:04.112","ms":871112,"raw":"$GBGSV,4,3,13,30,32,059,37,47,54,030,31,38,38,172,25,40,64,009,22,8*7F"}
{"ts":"2026-01-27 17:15:04.114","ms":871115,"raw":"$GBGSV,4,4,13,45,48,256,42,8*47"}
{"ts":"2026-01-27 17:15:04.121","ms":871121,"raw":"$GBGSV,2,1,08,01,44,140,30,02,32,231,27,03,49,198,25,05,13,251,39,B*0D"}
{"ts":"2026-01-27 17:15:04.124","ms":871124,"raw":"$GBGSV,2,2,08,07,70,338,25,16,20,203,29,10,58,314,29,09,30,221,30,B*04"}
{"ts":"2026-01-27 17:15:04.127","ms":871128,"raw":"$GAGSV,2,1,05,18,,,32,13,47,244,39,15,69,011,24,27,80,287,33,1*4F"}
{"ts":"2026-01-27 17:15:04.130","ms":871130,"raw":"$GAGSV,2,2,05,30,43,146,23,1*46"}
{"ts":"2026-01-27 17:15:04.136","ms":871136,"raw":"$GAGSV,2,1,05,18,,,29,13,47,244,41,15,69,011,21,27,80,287,37,2*48"}
{"ts":"2026-01-27 17:15:04.139","ms":871139,"raw":"$GAGSV,2,2,05,30,43,146,26,2*40"}
{"ts":"2026-01-27 17:15:04.142","ms":871142,"raw":"$GV,2,1,07,19,38,310,30,01,30,044,26,06,38,252,40,17,57,341,36,1*6F"}
{"ts":"2026-01-27 17:15:04.145","ms":871145,"raw":"$GPGSV,2,2,07,22,74,285,33,03,51,076,37,14,74,206,40,1*5B"}
{"ts":"2026-01-27 17:15:04.148","ms":871148,"raw":"$GPGSV,2,1,06,19,38,310,30,06,38,252,38,17,57,341,25,22,74,285,30,4*6F"}
{"ts":"2026-01-27 17:15:04.154","ms":871154,"raw":"$GPGSV,2,2,06,03,51,076,22,14,74,206,34,4*64"}
{"ts":"2026-01-27 17:15:04.157","ms":871157,"raw":"$GPGSV,1,1,04,01,30,044,28,06,38,252,42,03,51,076,32,14,74,206,39,8*60"}
{"ts":"2026-01-27 17:15:04.161","ms":871161,"raw":"$GLGSV,2,1,05,70,20,092,32,75,57,214,44,76,40,313,40,86,41,290,31,1*74"}
{"ts":"2026-01-27 17:15:04.163","ms":871163,"raw":"$GLGSV,2,2,05,85,40,020,33,1*46"}
{"ts":"2026-01-27 17:15:04.169","ms":871169,"raw":"$GLGSV,2,1,05,70,20,092,35,75,57,214,37,76,40,313,33,86,41,290,32,3*72"}
{"ts":"2026-01-27 17:15:04.172","ms":871172,"raw":"$GLGSV,2,2,05,85,40,020,20,3*46"}
{"ts":"2026-01-27 17:15:04.175","ms":871175,"raw":"$GBGSV,4,1,13,03,49,198,24,59,45,148,31,60,,,35,07,70,338,28,1*49"}
{"ts":"2026-01-27 17:15:04.178","ms":871178,"raw":"$GBGSV,4,2,13,16,20,203,27,10,58,314,31,09,30,221,23,32,20,063,42,1*71"}
{"ts":"2026-01-27 17:15:04.181","ms":871182,"raw":"$GBGSV,4,3,13,29,61,348,35,38,38,172,19,40,64,009,32,45,48,256,41,1*7D"}
{"ts":"2026-01-27 17:15:04.187","ms":871187,"raw":"$GBGSV,4,4,13,20,27,124,29,1*4F"}
{"ts":"2026-01-27 17:15:04.190","ms":871191,"raw":"$GBGSV,2,1,07,35,23,279,30,32,20,063,42,29,61,348,32,30,32,059,42,3*72"}
{"ts":"2026-01-27 17:15:04.193","ms":871194,"raw":"$GBGSV,2,2,07,47,54,030,28,40,64,009,31,45,48,256,40,3*4D"}
{"ts":"2026-01-27 17:15:04.197","ms":871197,"raw":"$GBGSV,2,1,06,35,23,279,30,32,20,063,45,29,61,348,23,30,32,059,37,5*70"}
{"ts":"2026-01-27 17:15:04.203","ms":871203,"raw":"$GBGSV,2,2,06,40,64,009,26,45,48,256,38,5*78"}
{"ts":"2026-01-27 17:15:04.206","ms":871206,"raw":"$GBGSV,1,1,04,60,,,34,32,20,063,45,30,32,059,37,45,48,256,40,6*41"}
{"ts":"2026-01-27 17:15:04.209","ms":871209,"raw":"$GBGSV,4,1,13,03,49,198,23,05,13,251,35,60,,,34,35,23,279,27,8*4F"}
{"ts":"2026-01-27 17:15:04.212","ms":871212,"raw":"$GBGSV,4,2,13,07,70,338,25,10,58,314,29,32,20,063,44,29,61,348,33,8*70"}
{"ts":"2026-01-27 17:15:04.216","ms":871216,"raw":"$GBGSV,4,3,13,30,32,059,37,47,54,030,31,38,38,172,21,40,64,009,22,8*7B"}
{"ts":"2026-01-27 17:15:04.221","ms":871221,"raw":"$GBGSV,4,4,13,45,48,256,42,8*47"}
{"ts":"2026-01-27 17:15:04.225","ms":871225,"raw":"$GBGSV,2,1,08,01,44,140,29,02,32,231,26,03,49,198,25,05,13,251,39,B*04"}
{"ts":"2026-01-27 17:15:04.228","ms":871228,"raw":"$GBGSV,2,2,08,07,70,338,25,16,20,203,29,10,58,314,29,09,30,221,30,B*04"}
{"ts":"2026-01-27 17:15:04.231","ms":871231,"raw":"$GAGSV,2,1,05,18,,,31,13,47,244,39,15,69,011,24,27,80,287,33,1*4C"}
{"ts":"2026-01-27 17:15:04.237","ms":871237,"raw":"$GAGSV,2,2,05,30,43,146,23,1*46"}
{"ts":"2026-01-27 17:15:04.240","ms":871240,"raw":"$GAGSV,2,1,05,18,,,29,13,47,244,41,15,69,011,21,27,80,287,37,2*48"}
{"ts":"2026-01-27 17:15:04.242","ms":871243,"raw":"$GAGSV,2,2,05,30,43,146,26,2*40"}
{"ts":"2026-01-27 17:15:04.246","ms":871246,"raw":"$GAGSV,2,1,05,13,47,244,39,15,69,011,26,27,80,287,30,30,43,146,25,5*72"}
{"ts":"2026-01-27 17:15:04.248","ms":871248,"raw":"$GAGSV,2,2,05,21,26,317,21,5*45"}
{"ts":"2026-01-27 17:15:04.254","ms":871255,"raw":"$GAGSV,2,1,05,18,,,31,13,47,244,40,15,69,011,34,27,80,287,35,7*43"}
{"ts":"2026-01-27 17:15:04.257","ms":871257,"raw":"$GAGSV,2,2,05,21,26,317,22,7*44"}
{"ts":"2026-01-27 17:15:04.261","ms":871261,"raw":"$GQGSV,1,1,02,02,62,128,38,03,74,071,34,136,47,54,030,30,40,64,010,27,45,48,256,35,5*7B"}
{"ts":"2026-01-27 17:15:04.264","ms":871264,"raw":"$GBGSV,1,1,04,60,,,33,32,20,063,44,30,32,059,36,45,48,256,37,6*46"}
{"ts":"2026-01-27 17:15:04.267","ms":871267,"raw":"$GBGSV,4,1,,214,41,76,40,313,39,86,41,290,31,1*7C"}
{"ts":"2026-01-27 17:15:04.272","ms":871272,"raw":"$GLGSV,2,2,05,85,40,020,33,1*46"}
{"ts":"2026-01-27 17:15:04.276","ms":871276,"raw":"$GLGSV,1,1,04,70,20,092,34,75,57,214,36,76,40,332,09,30,221,23,32,20,063,41,1*7A"}
{"ts":"2026-01-27 17:15:04.279","ms":871279,"raw":"$GBGSV,4,3,16,48,22,144,25,29,61,348,30,30,32,059,43,38,38,172,22,1*71"}
{"ts":"2026-01-27 17:15:04.282","ms":871282,"raw":"$GBGSV,4,4,16,40"}
{"ts":"2026-01-27 17:15:04.284","ms":871284,"raw":"$GAGSV,2,2,07,30,43,146,17,34,20,043,22,21,26,317,24,7*43"}
{"ts":"2026-01-27 17:15:04.290","ms":871290,"raw":"$GQGSV,1,1,03,02,62,128,37,03,74,071,30,07,52,168,21,1*56"}
{"ts":"2026-01-27 17:15:04.293","ms":871294,"raw":"$GQGSV,1,1,03,02,62,128,27,03,74,071,31,07,52,168,27,6*57"}
{"ts":"2026-01-27 17:15:04.296","ms":871297,"raw":"$GQGSV,1,1,03,02,62,128,34,03,74,071,29,07,52,168,33,8*57"}
{"ts":"2026-01-27 17:15:04.299","ms":871299,"raw":"$GN059,43,1*76"}
{"ts":"2026-01-27 17:15:04.302","ms":871302,"raw":"$GBGSV,5,4,17,38,38,172,22,40,64,010,25,26,15,314,25,45,48,256,40,1*7C"}
{"ts":"2026-01-27 17:15:04.307","ms":871307,"raw":"$GBGSV,5,5,17,20,27,124,29,1*4B"}
{"ts":"2026-01-27 17:15:04.309","ms":871309,"raw":"$G8,256,35,5*73"}
{"ts":"2026-01-27 17:15:04.313","ms":871313,"raw":"$GBGSV,1,1,04,6GAGSV,2,1,05,13,47,245,39,15,69,011,25,27,80,287,29,30,43,146,26,5*7B"}
{"ts":"2026-01-27 17:15:04.315","ms":871315,"raw":"$GAGSV,2,2,05,21,26,317,17,5*40"}
{"ts":"2026-01-27 17:15:04.318","ms":871318,"raw":"$GAGSV,2,1,07,186,38,252,41,03,51,076,27,14,74,206,37,8*69"}
{"ts":"2026-01-27 17:15:04.324","ms":871325,"raw":"$GLGSV,2,1,05,70,20,092,31,75,57,214,40,76,40,313,39,86,41,290,31,1*7D"}
{"ts":"2026-01-27 17:15:04.328","ms":871328,"raw":"$GLG0,063,41,48,22,144,25,29,61,348,30,30,32,059,43,1*76"}
{"ts":"2026-01-27 17:15:04.332","ms":871332,"raw":"$GBGSV,5,4,17,38,38,172,22,40,64,010,25,26,15,314,25,45,48,256,40,140,27,02,334,20,043,22,21,26,317,24,7*43"}
{"ts":"2026-01-27 17:15:04.335","ms":871335,"raw":"$GQGSV,1,1,03,02,62,128,37,03,74,071,30,07,52,168,21,1*56"}
{"ts":"2026-01-27 17:15:04.341","ms":871341,"raw":"$GQGSV,1,1,03,02,62,128,26,03,74,071,31,07,52,168,27,6*56"}
{"ts":"2026-01-27 17:15:04.344","ms":871344,"raw":"$GQGSV,1,1,03,02,62,128,34,03,74,071,29,07,52,168,33,8*57"}
{"ts":"2026-01-27 17:15:04.348","ms":871348,"raw":"$GNGGA,091444.90,3158.56352966,N,12052.61891652,E,5,20,0.8,1.1033,M,8.6092,M,0.9,0*58"}
{"ts":"2026-01-27 17:15:04.352","ms":871352,"raw":"$GNGGA,091445.10,3158.56352915,N,12052.61891837,E,5,20,0.8,1.1057,M,8.6092,M,1.1,0*53"}
{"ts":"2026-01-27 17:15:04.358","ms":871358,"raw":"$GNVTG,177.345,T,183.985,M,0.05097,N,0.09440,K,D*37"}
{"ts":"2026-01-27 17:15:04.362","ms":871362,"raw":"$GNGGA,091445.30,3158.56352903,N,12052.61891613,E,5,20,0.8,1.0917,M,8.6092,M,1.3,0*50"}
{"ts":"2026-01-27 17:15:04.365","ms":871365,"raw":"$GNVTG,198.293,T,204.934,M,0.09441,N,0.17485,K,D*3F"}
{"ts":"2026-01-27 17:15:04.368","ms":871368,"raw":"$GPGSV,2,1,07,19,38,310,25,01,30,044,28,06,38,252,39,17,57,341,35,1*68"}
{"ts":"2026-01-27 17:15:04.375","ms":871375,"raw":"$GPGSV,2,2,07,22,74,285,30,03,51,076,36,14,74,206,38,1*56"}
{"ts":"2026-01-27 17:15:04.378","ms":871379,"raw":"$GPGSV,1,1,04,06,38,252,37,17,57,341,23,03,51,076,20,14,74,206,31,4*6E"}
{"ts":"2026-01-27 17:15:04.382","ms":871382,"raw":"$GPGSV,1,1,04,01,30,044,28,06,38,252,40,03,51,076,27,14,74,206,37,8*68"}
{"ts":"2026-01-27 17:15:04.385","ms":871385,"raw":"$GLGSV,2,1,05,70,20,092,31,75,57,214,40,76,40,313,39,86,41,290,31,1*7D"}
{"ts":"2026-01-27 17:15:04.391","ms":871391,"raw":"$GLGSV,2,2,05,85,40,020,32,1*47"}
{"ts":"2026-01-27 17:15:04.394","ms":871394,"raw":"$GLGSV,1,1,04,70,20,092,34,75,57,214,36,76,40,313,31,86,41,290,26,3*77"}
{"ts":"2026-01-27 17:15:04.397","ms":871397,"raw":"$GBGSV,5,1,19,03,49,198,24,59,45,148,28,60,,,34,35,23,279,21,1*41"}
{"ts":"2026-01-27 17:15:04.400","ms":871401,"raw":"$GBGSV,5,2,19,07,70,338,26,16,20,203,29,10,58,314,30,09,30,221,23,1*79"}
{"ts":"2026-01-27 17:15:04.404","ms":871404,"raw":"$GBGSV,5,3,19,32,20,063,41,48,22,144,25,29,61,348,30,30,32,059,44,1*7F"}
{"ts":"2026-01-27 17:15:04.410","ms":871410,"raw":"$GBGSV,5,4,19,47,54,030,34,36,32,191,25,38,38,172,23,40,64,010,26,1*75"}
{"ts":"2026-01-27 17:15:04.413","ms":871413,"raw":"$GBGSV,5,5,19,26,15,314,25,45,48,256,40,20,27,124,29,1*4C"}
{"ts":"2026-01-27 17:15:04.417","ms":871417,"raw":"$GBGSV,2,1,07,35,23,279,27,32,20,063,41,29,61,348,30,30,32,059,40,3*77"}
{"ts":"2026-01-27 17:15:04.420","ms":871420,"raw":"$GBGSV,2,2,07,47,54,030,24,40,64,010,25,45,48,256,39,3*42"}
{"ts":"2026-01-27 17:15:04.426","ms":871426,"raw":"$GBGSV,2,1,08,35,23,279,29,32,20,063,45,48,22,144,23,29,61,348,25,5*76"}
{"ts":"2026-01-27 17:15:04.430","ms":871430,"raw":"$GBGSV,2,2,08,30,32,059,36,47,54,030,29,40,64,010,28,45,48,256,35,5*7C"}
{"ts":"2026-01-27 17:15:04.433","ms":871433,"raw":"$GBGSV,1,1,04,60,,,33,32,20,063,43,30,32,059,36,45,48,256,37,6*41"}
{"ts":"2026-01-27 17:15:04.436","ms":871436,"raw":"$GBGSV,4,1,13,05,13,251,31,60,,,34,35,23,279,21,07,70,338,25,8*4D"}
{"ts":"2026-01-27 17:15:04.442","ms":871443,"raw":"$GBGSV,4,2,13,10,58,314,27,09,30,221,26,32,20,063,44,29,61,348,30,8*7D"}
{"ts":"2026-01-27 17:15:04.446","ms":871446,"raw":"$GBGSV,4,3,13,30,32,059,35,47,54,030,28,38,38,172,23,40,64,010,18,8*72"}
{"ts":"2026-01-27 17:15:04.448","ms":871449,"raw":"$GBGSV,4,4,13,45,48,256,41,8*44"}
{"ts":"2026-01-27 17:15:04.451","ms":871452,"raw":"$GBGSV,2,1,08,01,44,140,28,02,32,231,25,03,49,198,23,05,13,251,28,B*00"}
{"ts":"2026-01-27 17:15:04.455","ms":871455,"raw":"$GBGSV,2,2,08,07,70,GSV,1,1,03,02,62,128,37,03,74,071,30,07,52,168,20,1*57"}
{"ts":"2026-01-27 17:15:04.461","ms":871461,"raw":"$GQGSV,1,1,03,02,62,128,26,03,74,071,31,07,52,168,28,6*59"}
{"ts":"2026-01-27 17:15:04.464","ms":871464,"raw":"$GQGSV,1,1,03,02,62,128,34,03,74,071,29,07,52,168,33,8*57"}
{"ts":"2026-01-27 17:15:04.468","ms":871468,"raw":"$GNGGA,091445.50,3158.56352965,N,12052.61891579,E,5,20,0.8,1.1110,M,8.6092,M,0.5,0*50"}
{"ts":"2026-01-27 17:15:04.476","ms":871476,"raw":"$GNVTG,198.643,T,205.283,M,0.12630,N,0.23391,K,D*3B"}
{"ts":"2026-01-27 17:15:04.479","ms":871479,"raw":"$GPGSV,2,1,07,19,38,310,24,01,30,044,28,06,38,252,39,17,57,341,35,1*69"}
{"ts":"2026-01-27 17:15:04.485","ms":871485,"raw":"$GPGSV,2,2,07,22,74,285,30,03,51,076,36,14,74,206,37,1*59"}
{"ts":"2026-01-27 17:15:04.488","ms":871489,"raw":"$GPGSV,1,1,04,06,38,252,37,17,57,341,23,03,51,076,20,14,74,206,31,4*6E"}
{"ts":"2026-01-27 17:15:04.492","ms":871492,"raw":"$GPGSV,1,1,04,01,30,044,28,06,38,252,40,03,51,076,27,14,74,206,37,8*68"}
{"ts":"2026-01-27 17:15:04.495","ms":871495,"raw":"$GLGSV,2,1,05,70,20,092,31,75,57,214,40,76,40,313,39,86,41,290,32,1*7E"}
{"ts":"2026-01-27 17:15:04.501","ms":871501,"raw":"$GLGSV,2,2,05,85,40,020,32,1*47"}
{"ts":"2026-01-27 17:15:04.504","ms":871504,"raw":"$GLGSV,1,1,04,70,20,092,34,75,57,214,36,76,40,313,30,86,41,290,26,3*76"}
{"ts":"2026-01-27 17:15:04.507","ms":871507,"raw":"$GBGSV,5,1,19,03,49,198,24,59,45,148,30,60,,,34,35,23,279,21,1*48"}
{"ts":"2026-01-27 17:15:04.511","ms":871511,"raw":"$GBGSV,5,2,19,07,70,338,26,16,20,203,28,10,58,314,31,09,30,221,24,1*7E"}
{"ts":"2026-01-27 17:15:04.517","ms":871517,"raw":"$GBGSV,5,3,19,32,20,063,41,48,22,144,24,29,61,348,30,30,32,059,44,1*7E"}
{"ts":"2026-01-27 17:15:04.520","ms":871521,"raw":"$GBGSV,5,4,19,47,54,030,33,36,32,191,26,38,38,172,23,40,64,010,26,1*71"}
{"ts":"2026-01-27 17:15:04.524","ms":871524,"raw":"$GBGSV,5,5,19,26,15,314,26,45,48,256,40,20,27,124,29,1*4F"}
{"ts":"2026-01-27 17:15:04.527","ms":871527,"raw":"$GBGSV,2,1,07,35,23,279,27,32,20,063,41,29,61,348,30,30,32,059,40,3*77"}
{"ts":"2026-01-27 17:15:04.530","ms":871530,"raw":"$GBGSV,2,2,07,47,54,030,25,40,64,010,25,45,48,256,39,3*43"}
{"ts":"2026-01-27 17:15:04.536","ms":871536,"raw":"$GBGSV,2,1,08,35,23,279,29,32,20,063,45,48,22,144,23,29,61,348,25,5*76"}
{"ts":"2026-01-27 17:15:04.539","ms":871540,"raw":"$GBGSV,2,2,08,30,32,059,36,47,54,030,29,40,64,010,27,45,48,256,35,5*73"}
{"ts":"2026-01-27 17:15:04.543","ms":871543,"raw":"$GBGSV,1,1,04,60,,,33,32,20,063,43,30,32,059,36,45,48,256,37,6*41"}
{"ts":"2026-01-27 17:15:04.546","ms":871546,"raw":"$GBGSV,4,1,13,05,13,251,31,60,,,34,35,23,279,21,07,70,338,25,8*4D"}
{"ts":"2026-01-27 17:15:04.552","ms":871552,"raw":"$GBGSV,4,2,13,10,58,314,27,09,30,221,26,32,20,063,44,29,61,348,30,8*7D"}
{"ts":"2026-01-27 17:15:04.556","ms":871556,"raw":"$GBGSV,4,3,13,30,32,059,35,47,54,030,28,38,38,172,23,40,64,010,18,8*72"}
{"ts":"2026-01-27 17:15:04.558","ms":871558,"raw":"$GBGSV,4,4,13,45,48,256,41,8*44"}
{"ts":"2026-01-27 17:15:04.561","ms":871562,"raw":"$GBGSV,2,1,08,01,44,140,28,02,32,231,26,03,49,198,23,05,13,251,27,B*0C"}
{"ts":"2026-01-27 17:15:04.568","ms":871568,"raw":"$GBGSV,2,2,08,07,70,338,20,16,20,203,28,10,58,314,29,09,30,221,30,B*00"}
{"ts":"2026-01-27 17:15:04.571","ms":871571,"raw":"$GAGSV,2,1,06,18,,,28,13,47,245,36,15,69,011,22,27,80,287,32,1*4E"}
{"ts":"2026-01-27 17:15:04.574","ms":871574,"raw":"$GAGSV,2,2,06,30,43,146,24,34,20,043,18,1*79"}
{"ts":"2026-01-27 17:15:04.577","ms":871577,"raw":"$GAGSV,2,1,06,18,,,27,13,47,245,39,15,69,011,17,27,80,287,35,2*4C"}
{"ts":"2026-01-27 17:15:04.580","ms":871581,"raw":"$GAGSV,2,2,06,30,43,146,24,21,GNVTG,195.946,T,202.587,M,0.15180,N,0.28114,K,D*37"}
{"ts":"2026-01-27 17:15:04.587","ms":871587,"raw":"$GPGSV,2,1,07,19,38,310,25,01,30,044,28,06,38,252,39,17,57,341,35,1*68"}
{"ts":"2026-01-27 17:15:04.590","ms":871590,"raw":"$GPGSV,2,2,07,22,74,285,30,03,51,076,36,14,74,206,37,1*59"}
{"ts":"2026-01-27 17:15:04.593","ms":871593,"raw":"$GPGSV,1,1,03,06,38,252,37,17,57,341,23,14,74,206,31,4*5D"}
{"ts":"2026-01-27 17:15:04.596","ms":871596,"raw":"$GPGSV,1,1,04,01,30,044,28,06,38,252,41,03,51,076,27,14,74,206,37,8*69"}
{"ts":"2026-01-27 17:15:04.603","ms":871603,"raw":"$GLGSV,2,1,05,70,20,092,31,75,57,214,40,76,40,313,39,86,41,290,32,1*7E"}
{"ts":"2026-01-27 17:15:04.605","ms":871605,"raw":"$GLGSV,2,2,05,85,40,020,32,1*47"}
{"ts":"2026-01-27 17:15:04.609","ms":871609,"raw":"$GLGSV,1,1,04,70,20,092,34,75,57,214,36,76,40,313,30,86,41,290,26,3*76"}
{"ts":"2026-01-27 17:15:04.612","ms":871612,"raw":"$GBGSV,5,1,20,03,49,198,25,05,13,251,26,59,45,148,30,60,,,34,1*4E"}
{"ts":"2026-01-27 17:15:04.618","ms":871618,"raw":"$GBGSV,5,2,20,35,23,279,21,07,70,338,26,16,20,203,29,10,58,314,31,1*70"}
{"ts":"2026-01-27 17:15:04.622","ms":871622,"raw":"$GBGSV,5,3,20,09,30,221,24,32,20,063,41,48,22,144,24,29,61,348,30,1*77"}
{"ts":"2026-01-27 17:15:04.625","ms":871625,"raw":"$GBGSV,5,4,20,30,32,059,44,47,54,030,33,36,32,191,26,38,38,172,23,1*76"}
{"ts":"2026-01-27 17:15:04.628","ms":871629,"raw":"$GBGSV,5,5,20,40,64,010,26,26,15,314,26,45,48,256,40,20,27,124,29,1*76"}
{"ts":"2026-01-27 17:15:04.635","ms":871635,"raw":"$GBGSV,2,1,07,35,23,279,27,32,20,063,41,29,61,348,30,30,32,059,40,3*77"}
{"ts":"2026-01-27 17:15:04.638","ms":871638,"raw":"$GBGSV,2,2,07,47,54,030,25,40,64,010,25,45,48,256,39,3*43"}
{"ts":"2026-01-27 17:15:04.641","ms":871641,"raw":"$GBGSV,2,1,08,35,23,279,29,32,20,063,45,48,22,144,24,29,61,348,26,5*72"}
{"ts":"2026-01-27 17:15:04.644","ms":871644,"raw":"$GBGSV,2,2,08,30,32,059,36,47,54,030,29,40,64,010,27,45,48,256,36,5*70"}
{"ts":"2026-01-27 17:15:04.648","ms":871648,"raw":"$GBGSV,1,1,04,60,,,33,32,20,063,43,30,32,059,36,45,48,256,37,6*41"}
{"ts":"2026-01-27 17:15:04.654","ms":871654,"raw":"$GBGSV,4,1,13,05,13,251,31,60,,,34,35,23,279,22,07,70,338,25,8*4E"}
{"ts":"2026-01-27 17:15:04.657","ms":871657,"raw":"$GBGSV,4,2,13,10,58,314,27,09,30,221,26,32,20,063,44,29,61,348,30,8*7D"}
{"ts":"2026-01-27 17:15:04.661","ms":871661,"raw":"$GBGSV,4,3,13,30,32,059,36,47,54,030,28,38,38,172,23,40,64,010,18,8*71"}
{"ts":"2026-01-27 17:15:04.663","ms":871663,"raw":"$GBGSV,4,4,13,45,48,256,41,8*44"}
{"ts":"2026-01-27 17:15:04.669","ms":871670,"raw":"$GBGSV,2,1,08,01,44,140,27,02,32,231,25,03,49,198,22,05,13,251,26,B*00"}
{"ts":"2026-01-27 17:15:04.673","ms":871673,"raw":"$GBGSV,2,2,08,07,70,338,20,16,20,203,28,10,58,314,28,09,30,221,30,B*01"}
{"ts":"2026-01-27 17:15:04.676","ms":871676,"raw":"$GAGSV,2,1,05,18,,,28,13,47,245,37,15,69,011,22,27,80,287,32,1*4C"}
{"ts":"2026-01-27 17:15:04.679","ms":871679,"raw":"$GAGSV,2,2,05,30,43,146,24,1*41"}
{"ts":"2026-01-27 17:15:04.685","ms":871685,"raw":"$GAGSV,2,1,06,18,,,27,13,47,245,40,15,69,011,17,27,80,287,35,2*42"}
{"ts":"2026-01-27 17:15:04.688","ms":871688,"raw":"$GAGSV,2,2,06,30,43,146,24,21,26,317,25,2*74"}
{"ts":"2026-01-27 17:15:04.691","ms":871691,"raw":"$GAGSV,2,1,05,13,47,245,39,15,69,011,26,27,80,287,29,30,43,146,26,5*78"}
{"ts":"2026-01-27 17:15:04.693","ms":871694,"raw":"$GAGSV,2,2,05,21,26,317,15,5*42"}
{"ts":"2026-01-27 17:15:04.697","ms":871697,"raw":"$GAGSV,2,1,07,18,,,26,13,47,245,39,15,69,011,31,27,80,287,34,7*4C"}
{"ts":"2026-01-27 17:15:04.703","ms":871703,"raw":"$GAGSV,2,2,07,30,43,146,17,34,20,043,22,21,26,317,24,7*43"}
{"ts":"2026-01-27 17:15:04.706","ms":871706,"raw":"$GQGSV,1,1,03,02,62,128,38,0252,40,03,51,076,27,14,74,206,37,8*68"}
{"ts":"2026-01-27 17:15:04.709","ms":871710,"raw":"$GLGSV,2,1,05,70,20,092,31,75,57,214,40,76,40,313,39,86,41,290,32,1*7E"}
{"ts":"2026-01-27 17:15:04.712","ms":871712,"raw":"$GLGSV,2,2,05,85,40,020,32,1*47"}
{"ts":"2026-01-27 17:15:04.715","ms":871715,"raw":"$GLGSV,1,1,04,70,20,092,33,75,57,214,36,76,40,313,30,86,41,290,26,3*71"}
{"ts":"2026-01-27 17:15:04.721","ms":871721,"raw":"$GBGSV,5,1,20,03,49,198,26,05,13,251,24,59,45,148,29,60,,,33,1*40"}
{"ts":"2026-01-27 17:15:04.724","ms":871725,"raw":"$GBGSV,5,2,20,35,23,279,21,07,70,338,26,16,20,203,29,10,58,314,31,1*70"}
{"ts":"2026-01-27 17:15:04.728","ms":871728,"raw":"$GBGSV,5,3,20,09,30,221,24,32,20,063,41,48,22,144,24,29,61,348,30,1*77"}
{"ts":"2026-01-27 17:15:04.731","ms":871731,"raw":"$GBGSV,5,4,20,30,32,059,43,47,54,030,33,36,32,191,25,38,38,172,23,1*72"}
{"ts":"2026-01-27 17:15:04.738","ms":871738,"raw":"$GBGSV,5,5,20,40,64,010,26,26,15,314,26,45,48,256,39,20,27,124,30,1*70"}
{"ts":"2026-01-27 17:15:04.741","ms":871741,"raw":"$GBGSV,2,1,07,35,23,279,27,32,20,063,41,29,61,348,31,30,32,059,40,3*76"}
{"ts":"2026-01-27 17:15:04.744","ms":871744,"raw":"$GBGSV,2,2,07,47,54,030,25,40,64,010,25,45,48,256,39,3*43"}
{"ts":"2026-01-27 17:15:04.748","ms":871748,"raw":"$GBGSV,2,1,08,35,23,279,28,32,20,063,45,48,22,144,24,29,61,348,26,5*73"}
{"ts":"2026-01-27 17:15:04.754","ms":871754,"raw":"$GBGSV,2,2,08,30,32,059,36,47,54,030,29,40,64,010,27,45,48,256,36,5*70"}
{"ts":"2026-01-27 17:15:04.757","ms":871757,"raw":"$GBGSV,1,1,04,60,,,33,32,20,063,43,30,32,059,36,45,48,256,36,6*40"}
{"ts":"2026-01-27 17:15:04.760","ms":871761,"raw":"$GBGSV,4,1,13,05,13,251,32,60,,,34,35,23,279,22,07,70,338,25,8*4D"}
{"ts":"2026-01-27 17:15:04.764","ms":871764,"raw":"$GBGSV,4,2,13,10,58,314,27,09,30,221,26,32,20,063,44,29,61,348,30,8*7D"}
{"ts":"2026-01-27 17:15:04.770","ms":871770,"raw":"$GBGSV,4,3,13,30,32,059,36,47,54,030,28,38,38,172,23,40,64,010,18,8*71"}
{"ts":"2026-01-27 17:15:04.773","ms":871773,"raw":"$GBGSV,4,4,13,45,48,256,41,8*44"}
{"ts":"2026-01-27 17:15:04.776","ms":871776,"raw":"$GBGSV,2,1,08,01,44,140,29,02,32,231,26,03,49,198,23,05,13,251,26,B*0C"}
{"ts":"2026-01-27 17:15:04.779","ms":871779,"raw":"$GBGSV,2,2,08,07,70,338,20,16,20,203,28,10,58,314,28,09,30,221,29,B*09"}
{"ts":"2026-01-27 17:15:04.782","ms":871783,"raw":"$GAGSV,2,1,05,18,,,28,13,47,245,36,15,69,011,22,27,80,287,32,1*4D"}
{"ts":"2026-01-27 17:15:04.788","ms":871788,"raw":"$GAGSV,2,2,05,30,43,146,24,1*41"}
{"ts":"2026-01-27 17:15:04.791","ms":871791,"raw":"$GAGSV,2,1,06,18,,,27,13,47,245,39,15,69,011,17,27,80,287,35,2*4C"}
{"ts":"2026-01-27 17:15:04.794","ms":871794,"raw":"$GAGSV,2,2,06,30,43,146,23,21,26,317,26,2*70"}
{"ts":"2026-01-27 17:15:04.797","ms":871798,"raw":"$GAGSV,2,1,05,13,47,245,39,15,69,011,26,27,80,287,29,30,43,146,26,5*78"}
{"ts":"2026-01-27 17:15:04.806","ms":871806,"raw":"$GAGSV,2,2,05,21,26,317,15,5*42"}
{"ts":"2026-01-27 17:15:04.809","ms":871809,"raw":"$GAGSV,2,1,07,18,,,27,13,47,245,39,15,69,011,31,27,80,287,34,7*4D"}
{"ts":"2026-01-27 17:15:04.812","ms":871812,"raw":"$GAGSV,2,2,07,30,43,146,17,34,20,043,22,21,26,317,24,7*43"}
{"ts":"2026-01-27 17:15:04.815","ms":871815,"raw":"$GQGSV,1,1,03,02,62,128,38,03,74,071,30,07,52,168,20,1*58"}
{"ts":"2026-01-27 17:15:04.818","ms":871818,"raw":"$GQGSV,1,1,03,02,62,128,26,03,74,071,31,07,52,168,28,6*59"}
{"ts":"2026-01-27 17:15:04.824","ms":871824,"raw":"$GQGSV,1,1,03,02,62,128,35,03,74,071,29,07,52,168,32,8*57"}
{"ts":"2026-01-27 17:15:04.828","ms":871828,"raw":"$GNGGA,091446.10,3158.56353494,N,12052.61891563,E,5,20,0.8,1.1064,M,8.6092,M,1.1,0*59"}
{"ts":"2026-01-27 17:15:04.831","ms":871831,"raw":"$GNVTG,188.992,T,195.632,M,0.16893,N,0.4,1*4D"}
{"ts":"2026-01-27 17:15:04.834","ms":871834,"raw":"$GBGSV,5,2,20,35,23,279,21,07,70,338,26,16,20,203,29,10,58,314,31,1*70"}
{"ts":"2026-01-27 17:15:04.841","ms":871841,"raw":"$GBGSV,5,3,20,09,30,221,23,32,20,063,41,48,22,144,24,29,61,348,30,1*70"}
{"ts":"2026-01-27 17:15:04.845","ms":871845,"raw":"$GBGSV,5,4,20,30,32,059,43,47,54,030,33,36,32,191,25,38,38,172,23,1*72"}
{"ts":"2026-01-27 17:15:04.925","ms":871926,"raw":"$GBGSV,5,5,20,40,64,010,26,26,15,314,26,45,48,256,39,20,27,124,30,1*70"}
{"ts":"2026-01-27 17:15:04.929","ms":871929,"raw":"$GBGSV,2,1,07,35,23,279,28,32,20,063,41,29,61,348,31,30,32,059,40,3*79"}
{"ts":"2026-01-27 17:15:04.935","ms":871935,"raw":"$GBGSV,2,2,07,47,54,030,24,40,64,010,25,45,48,256,39,3*42"}
{"ts":"2026-01-27 17:15:04.938","ms":871938,"raw":"$GBGSV,2,1,08,35,23,279,28,32,20,063,45,48,22,144,24,29,61,348,25,5*70"}
{"ts":"2026-01-27 17:15:04.941","ms":871941,"raw":"$GBGSV,2,2,08,30,32,059,36,47,54,030,29,40,64,010,27,45,48,256,36,5*70"}
{"ts":"2026-01-27 17:15:04.944","ms":871945,"raw":"$GBGSV,1,1,04,60,,,32,32,20,063,43,30,32,059,36,45,48,256,36,6*41"}
{"ts":"2026-01-27 17:15:04.948","ms":871948,"raw":"$GBGSV,4,1,13,05,13,251,31,60,,,33,35,23,279,22,07,70,338,25,8*49"}
{"ts":"2026-01-27 17:15:04.954","ms":871954,"raw":"$GBGSV,4,2,13,10,58,314,26,09,30,221,26,32,20,063,44,29,61,348,29,8*74"}
{"ts":"2026-01-27 17:15:04.957","ms":871958,"raw":"$GBGSV,4,3,13,30,32,059,36,47,54,030,28,38,38,172,23,40,64,010,18,8*71"}
{"ts":"2026-01-27 17:15:04.960","ms":871960,"raw":"$GBGSV,4,4,13,45,48,256,41,8*44"}
{"ts":"2026-01-27 17:15:04.963","ms":871963,"raw":"$GBGSV,2,1,08,01,44,140,30,02,32,231,26,03,49,198,23,05,13,251,27,B*05"}
{"ts":"2026-01-27 17:15:04.970","ms":871970,"raw":"$GBGSV,2,2,08,07,70,338,19,16,20,203,28,10,58,314,28,09,30,221,29,B*03"}
{"ts":"2026-01-27 17:15:04.979","ms":871979,"raw":"$GAGSV,2,1,05,18,,,28,13,47,245,36,15,69,011,22,27,80,287,32,1*4D"}
{"ts":"2026-01-27 17:15:04.981","ms":871981,"raw":"$GAGSV,2,2,05,30,43,146,23,1*46"}
{"ts":"2026-01-27 17:15:04.984","ms":871984,"raw":"$GAGSV,2,1,06,18,,,27,13,47,245,39,15,69,011,17,27,80,287,35,2*4C"}
{"ts":"2026-01-27 17:15:04.990","ms":871990,"raw":"$GAGSV,2,2,06,30,43,146,23,21,26,317,26,2*70"}
{"ts":"2026-01-27 17:15:04.994","ms":871994,"raw":"$GAGSV,1,1,04,13,47,245,39,15,69,011,25,27,80,287,29,30,43,146,26,5*79"}
{"ts":"2026-01-27 17:15:04.997","ms":871997,"raw":"$GAGSV,2,1,07,18,,,27,13,47,245,39,15,69,011,31,27,80,287,34,7*4D"}
{"ts":"2026-01-27 17:15:04.000","ms":872000,"raw":"$GAGSV,2,2,07,30,43,146,15,34,20,043,22,21,26,317,24,7*41"}
{"ts":"2026-01-27 17:15:04.006","ms":872006,"raw":"$GQGSV,1,1,03,02,62,128,38,03,74,071,29,07,52,168,20,1*50"}
{"ts":"2026-01-27 17:15:04.009","ms":872009,"raw":"$GQGSV,1,1,03,02,62,128,26,03,74,071,31,07,52,168,28,6*59"}
{"ts":"2026-01-27 17:15:04.012","ms":872012,"raw":"$GQGSV,1,1,03,02,62,128,35,03,74,071,29,07,52,168,33,8*56"}
{"ts":"2026-01-27 17:15:04.016","ms":872016,"raw":"$GNGGA,091446.20,3158.56353273,N,12052.61891454,E,5,20,0.8,1.0987,M,8.6092,M,1.2,0*56"}
{"ts":"2026-01-27 17:15:05.019","ms":872020,"raw":"$GNGGA,091446.40,3158.56352917,N,12052.61891714,E,5,20,0.8,1.0956,M,8.6092,M,1.4,0*55"}
{"ts":"2026-01-27 17:15:05.026","ms":872026,"raw":"$GNVTG,187.922,T,194.562,M,0.15451,N,0.28616,K,D*3D"}
{"ts":"2026-01-27 17:15:05.029","ms":872029,"raw":"$GPGSV,2,1,07,19,38,310,25,01,30,044,28,06,38,252,39,17,57,341,35,1*68"}
{"ts":"2026-01-27 17:15:05.032","ms":872032,"raw":"$GPGSV,2,2,07,22,74,285,30,03,51,076,35,14,74,206,37,1*5A"}
{"ts":"2026-01-27 17:15:05.035","ms":872036,"raw":"$GPGSV,1,1,04,06,38,252,37,17,57,341,22,03,51,076,20,14,74,206,31,4*6F"}
{"ts":"2026-01-27 17:15:05.228","ms":872228,"raw":"$GPG38,172,23,1*72"}
{"ts":"2026-01-27 17:15:05.231","ms":872231,"raw":"$GBGSV,5,5,20,40,64,010,26,26,15,314,26,45,48,256,39,20,27,124,29,1*78"}
{"ts":"2026-01-27 17:15:05.234","ms":872234,"raw":"$GBGSV,2,1,07,35,23,279,27,32,20,063,41,29,61,348,31,30,32,059,40,3*76"}
{"ts":"2026-01-27 17:15:05.237","ms":872237,"raw":"$GBGSV,2,2,07,47,54,030,25,40,64,010,26,45,48,256,39,3*40"}
{"ts":"2026-01-27 17:15:05.240","ms":872240,"raw":"$GBGSV,2,1,08,35,23,279,28,32,20,063,45,48,22,144,24,29,61,348,25,5*70"}
{"ts":"2026-01-27 17:15:05.247","ms":872247,"raw":"$GBGSV,2,2,08,30,32,059,36,47,54,030,29,40,64,010,27,45,48,256,36,5*70"}
{"ts":"2026-01-27 17:15:05.250","ms":872250,"raw":"$GBGSV,1,1,03,32,20,063,44,30,32,059,36,45,48,256,37,6*47"}
{"ts":"2026-01-27 17:15:05.253","ms":872253,"raw":"$GBGSV,4,1,13,05,13,251,31,60,,,33,35,23,279,22,07,70,338,25,8*49"}
{"ts":"2026-01-27 17:15:05.256","ms":872257,"raw":"$GBGSV,4,2,13,10,58,314,27,09,30,221,26,32,20,063,44,29,61,348,30,8*7D"}
{"ts":"2026-01-27 17:15:05.263","ms":872263,"raw":"$GBGSV,4,3,13,30,32,059,36,47,54,030,27,38,38,172,23,40,64,010,18,8*7E"}
{"ts":"2026-01-27 17:15:05.265","ms":872265,"raw":"$GBGSV,4,4,13,45,48,256,41,8*44"}
{"ts":"2026-01-27 17:15:05.268","ms":872269,"raw":"$GBGSV,2,1,08,01,44,140,29,02,32,231,28,03,49,198,20,05,13,251,28,B*0F"}
{"ts":"2026-01-27 17:15:05.272","ms":872272,"raw":"$GBGSV,2,2,08,07,70,338,19,16,20,203,28,10,58,314,28,09,30,221,29,B*03"}
{"ts":"2026-01-27 17:15:05.278","ms":872278,"raw":"$GAGSV,2,1,05,18,,,28,13,47,245,36,15,69,011,24,27,80,287,32,1*4B"}
{"ts":"2026-01-27 17:15:05.281","ms":872281,"raw":"$GAGSV,2,2,05,30,43,146,23,1*46"}
{"ts":"2026-01-27 17:15:05.284","ms":872284,"raw":"$GAGSV,2,1,06,18,,,27,13,47,245,39,15,69,011,17,27,80,287,35,2*4C"}
{"ts":"2026-01-27 17:15:05.286","ms":872286,"raw":"$GAGSV,2,2,06,30,43,146,24,21,26,317,25,2*74"}
{"ts":"2026-01-27 17:15:05.290","ms":872290,"raw":"$GAGSV,1,1,04,13,47,245,39,15,69,011,25,27,80,287,28,30,43,146,26,5*78"}
{"ts":"2026-01-27 17:15:05.296","ms":872296,"raw":"$GAGSV,2,1,07,18,,,27,13,47,245,39,15,69,011,31,27,80,287,34,7*4D"}
{"ts":"2026-01-27 17:15:05.299","ms":872299,"raw":"$GAGSV,2,2,07,30,43,146,17,34,20,043,22,21,26,317,24,7*43"}
{"ts":"2026-01-27 17:15:05.302","ms":872302,"raw":"$GQGSV,1,1,03,02,62,128,37,03,74,071,29,07,52,168,20,1*5F"}
{"ts":"2026-01-27 17:15:05.305","ms":872305,"raw":"$GQGSV,1,1,03,02,62,128,27,03,74,071,32,07,52,168,28,6*5B"}
{"ts":"2026-01-27 17:15:05.311","ms":872311,"raw":"$GQGSV,1,1,03,02,62,128,35,03,74,071,28,07,52,168,32,8*56"}
{"ts":"2026-01-27 17:15:05.315","ms":872315,"raw":"$GNGGA,091446.60,3158.56353194,N,12052.61891620,E,5,20,0.8,1.1061,M,8.6092,M,0.6,0*5C"}
{"ts":"2026-01-27 17:15:05.318","ms":872318,"raw":"$GNVTG,190.990,T,197.631,M,0.13649,N,0.25278,K,D*38"}
{"ts":"2026-01-27 17:15:05.321","ms":872322,"raw":"$GPGSV,2,1,07,19,38,310,25,01,30,044,28,06,38,252,39,17,57,341,35,1*68"}
{"ts":"2026-01-27 17:15:05.324","ms":872325,"raw":"$GPGSV,2,2,07,22,74,285,30,03,51,076,35,14,74,206,37,1*5A"}
{"ts":"2026-01-27 17:15:05.331","ms":872331,"raw":"$GPGSV,1,1,04,06,38,252,37,17,57,341,22,03,51,076,21,14,74,206,31,4*6E"}
{"ts":"2026-01-27 17:15:05.334","ms":872334,"raw":"$GPGSV,1,1,04,01,30,044,27,06,38,252,40,03,51,076,27,14,74,206,37,8*67"}
{"ts":"2026-01-27 17:15:05.338","ms":872338,"raw":"$GLGSV,2,1,05,70,20,092,31,75,57,214,41,76,40,313,38,86,41,290,32,1*7E"}
{"ts":"2026-01-27 17:15:05.340","ms":872340,"raw":"$GLGSV,2,2,05,85,40,020,33,1*46"}
{"ts":"2026-01-27 17:15:05.347","ms":872347,"raw":"$GLGSV,1,1,04,70,20,092,33,75,57,214,36,76,40,313,30,86,41,290,26,3*71"}
{"ts":"2026-01-27 17:15:05.351","ms":872351,"raw":"$GBGSV,5,1,20,03,49,198,26,05,13,251,21,59,45,148,29,60,,,8,30,32,059,36,47,54,030,29,40,64,010,27,45,48,256,35,5*73"}
{"ts":"2026-01-27 17:15:05.354","ms":872354,"raw":"$GBGSV,1,1,03,32,20,063,44,30,32,059,36,45,48,256,37,6*47"}
{"ts":"2026-01-27 17:15:05.357","ms":872358,"raw":"$GBGSV,4,1,13,05,13,251,31,60,,,33,35,23,279,22,07,70,338,25,8*49"}
{"ts":"2026-01-27 17:15:05.364","ms":872364,"raw":"$GBGSV,4,2,13,10,58,314,27,09,30,221,26,32,20,063,44,29,61,348,30,8*7D"}
{"ts":"2026-01-27 17:15:05.367","ms":872367,"raw":"$GBGSV,4,3,13,30,32,059,35,47,54,030,27,38,38,172,22,40,64,010,18,8*7C"}
{"ts":"2026-01-27 17:15:05.370","ms":872370,"raw":"$GBGSV,4,4,13,45,48,256,41,8*44"}
{"ts":"2026-01-27 17:15:05.373","ms":872373,"raw":"$GBGSV,2,1,08,01,44,140,29,02,32,231,27,03,49,198,22,05,13,251,29,B*03"}
{"ts":"2026-01-27 17:15:05.379","ms":872380,"raw":"$GBGSV,2,2,08,07,70,338,19,16,20,203,28,10,58,314,28,09,30,221,29,B*03"}
{"ts":"2026-01-27 17:15:05.383","ms":872383,"raw":"$GAGSV,2,1,05,18,,,28,13,47,245,36,15,69,011,24,27,80,287,32,1*4B"}
{"ts":"2026-01-27 17:15:05.385","ms":872385,"raw":"$GAGSV,2,2,05,30,43,146,22,1*47"}
{"ts":"2026-01-27 17:15:05.388","ms":872388,"raw":"$GAGSV,2,1,06,18,,,26,13,47,245,39,15,69,011,17,27,80,287,35,2*4D"}
{"ts":"2026-01-27 17:15:05.391","ms":872391,"raw":"$GAGSV,2,2,06,30,43,146,25,21,26,317,25,2*75"}
{"ts":"2026-01-27 17:15:05.397","ms":872397,"raw":"$GAGSV,1,1,04,13,47,245,39,15,69,011,25,27,80,287,28,30,43,146,26,5*78"}
{"ts":"2026-01-27 17:15:05.400","ms":872400,"raw":"$GAGSV,2,1,07,18,,,27,13,47,245,39,15,69,011,31,27,80,287,34,7*4D"}
{"ts":"2026-01-27 17:15:05.403","ms":872404,"raw":"$GAGSV,2,2,07,30,43,146,16,34,20,043,22,21,26,317,23,7*45"}
{"ts":"2026-01-27 17:15:05.406","ms":872407,"raw":"$GQGSV,1,1,03,02,62,128,37,03,74,071,29,07,52,168,20,1*5F"}
{"ts":"2026-01-27 17:15:05.413","ms":872413,"raw":"$GQGSV,1,1,03,02,62,128,27,03,74,071,32,07,52,168,28,6*5B"}
{"ts":"2026-01-27 17:15:05.415","ms":872416,"raw":"$GQGSV,1,1,03,02,62,128,35,03,74,071,29,07,52,168,32,8*57"}
{"ts":"2026-01-27 17:15:05.419","ms":872419,"raw":"$GNGGA,091446.80,3158.56353043,N,12052.61891690,E,5,20,0.8,1.1089,M,8.6092,M,0.8,0*5A"}
{"ts":"2026-01-27 17:15:05.422","ms":872423,"raw":"$GNVTG,191.468,T,198.109,M,0.12008,N,0.22239,K,D*30"}
{"ts":"2026-01-27 17:15:05.426","ms":872426,"raw":"$GPGSV,2,1,07,19,38,310,25,01,30,044,28,06,38,252,39,17,57,341,35,1*68"}
{"ts":"2026-01-27 17:15:05.432","ms":872432,"raw":"$GPGSV,2,2,07,22,74,285,30,03,51,076,35,14,74,206,37,1*5A"}
{"ts":"2026-01-27 17:15:05.435","ms":872436,"raw":"$GPGSV,1,1,04,06,38,252,36,17,57,341,21,03,51,076,21,14,74,206,31,4*6C"}
{"ts":"2026-01-27 17:15:05.531","ms":872531,"raw":"$GPGSV,1,1,04,01,30,044,28,06,38,252,40,03,51,076,27,14,74,206,37,8*68"}
{"ts":"2026-01-27 17:15:05.534","ms":872534,"raw":"$GLGSV,2,1,05,70,20,092,31,75,57,214,41,76,40,313,38,86,41,290,32,1*7E"}
{"ts":"2026-01-27 17:15:05.540","ms":872540,"raw":"$GLGSV,2,2,05,85,40,020,33,1*46"}
{"ts":"2026-01-27 17:15:05.543","ms":872543,"raw":"$GLGSV,1,1,04,70,20,092,33,75,57,214,36,76,40,313,30,86,41,290,25,3*72"}
{"ts":"2026-01-27 17:15:05.546","ms":872547,"raw":"$GBGSV,5,1,20,03,49,198,26,05,13,251,24,59,45,148,28,60,,,34,1*46"}
{"ts":"2026-01-27 17:15:05.550","ms":872550,"raw":"$GBGSV,5,2,20,35,23,279,20,07,70,338,25,16,20,203,29,10,58,314,31,1*72"}
{"ts":"2026-01-27 17:15:05.556","ms":872556,"raw":"$GBGSV,5,3,20,09,30,221,23,32,20,063,41,48,22,144,24,29,61,348,30,1*70"}
{"ts":"2026-01-27 17:15:05.559","ms":872560,"raw":"$GBGSV,5,4,20,30,32,059,43,47,54,030,33,36,32,191,25,38,38,172,23,1*72"}
{"ts":"2026-01-27 17:15:05.563","ms":872563,"raw":"$GBGSV,5,5,20,40,64,010,25,26,15,314,26,45,48,256,39,20,27,124,30,1*73"}
{"ts":"2026-01-27 17:15:05.832","ms":872832,"raw":"$GBGSV27,38,38,172,22,40,64,010,18,8*7C"}
{"ts":"2026-01-27 17:15:05.834","ms":872834,"raw":"$GBGSV,4,4,13,45,48,256,41,8*44"}
{"ts":"2026-01-27 17:15:05.840","ms":872841,"raw":"$GBGSV,2,1,08,01,44,140,28,02,32,231,27,03,49,198,22,05,13,251,28,B*03"}
{"ts":"2026-01-27 17:15:05.844","ms":872844,"raw":"$GBGSV,2,2,08,07,70,338,19,16,20,203,28,10,58,314,28,09,30,221,29,B*03"}
{"ts":"2026-01-27 17:15:05.847","ms":872847,"raw":"$GAGSV,2,1,05,18,,,28,13,47,245,36,15,69,011,24,27,80,287,32,1*4B"}
{"ts":"2026-01-27 17:15:05.850","ms":872850,"raw":"$GAGSV,2,2,05,30,43,146,22,1*47"}
{"ts":"2026-01-27 17:15:05.856","ms":872856,"raw":"$GAGSV,2,1,06,18,,,26,13,47,245,39,15,69,011,17,27,80,287,35,2*4D"}
{"ts":"2026-01-27 17:15:05.858","ms":872859,"raw":"$GAGSV,2,2,06,30,43,146,25,21,26,317,25,2*75"}
{"ts":"2026-01-27 17:15:05.862","ms":872862,"raw":"$GAGSV,2,1,05,13,47,245,39,15,69,011,24,27,80,287,28,30,43,146,26,5*7B"}
{"ts":"2026-01-27 17:15:05.864","ms":872864,"raw":"$GAGSV,2,2,05,21,26,317,13,5*44"}
{"ts":"2026-01-27 17:15:05.868","ms":872868,"raw":"$GAGSV,2,1,07,18,,,28,13,47,245,39,15,69,011,31,27,80,287,34,7*42"}
{"ts":"2026-01-27 17:15:05.874","ms":872874,"raw":"$GAGSV,2,2,07,30,43,146,16,34,20,043,22,21,26,317,23,7*45"}
{"ts":"2026-01-27 17:15:05.877","ms":872877,"raw":"$GQGSV,1,1,03,02,62,128,37,03,74,071,29,07,52,168,20,1*5F"}
{"ts":"2026-01-27 17:15:05.880","ms":872880,"raw":"$GQGSV,1,1,03,02,62,128,27,03,74,071,32,07,52,168,28,6*5B"}
{"ts":"2026-01-27 17:15:05.883","ms":872883,"raw":"$GQGSV,1,1,03,02,62,128,35,03,74,071,28,07,52,168,32,8*56"}
{"ts":"2026-01-27 17:15:05.886","ms":872886,"raw":"$GNGGA,091447.00,3158.56353014,N,12052.61891918,E,5,20,0.8,1.1175,M,8.6092,M,1.0,0*55"}
{"ts":"2026-01-27 17:15:05.892","ms":872892,"raw":"$GNVTG,189.198,T,195.839,M,0.05364,N,0.09933,K,D*33"}
{"ts":"2026-01-27 17:15:05.896","ms":872896,"raw":"$GNGGA,091447.20,3158.56353043,N,12052.61892239,E,5,22,0.8,1.1094,M,8.6092,M,1.2,0*50"}
{"ts":"2026-01-27 17:15:05.900","ms":872900,"raw":"$GNGGA,091447.30,3158.56353281,N,12052.61891614,E,5,21,0.8,1.1173,M,8.6092,M,1.3,0*5F"}
{"ts":"2026-01-27 17:15:05.903","ms":872903,"raw":"$GNVTG,308.434,T,315.075,M,0.08151,N,0.15096,K,D*33"}
{"ts":"2026-01-27 17:15:05.910","ms":872910,"raw":"$GNGGA,091447.40,3158.56352928,N,12052.61891726,E,5,21,0.8,1.1055,M,8.6092,M,1.4,0*53"}
{"ts":"2026-01-27 17:15:05.913","ms":872913,"raw":"$GNVTG,308.396,T,315.037,M,0.08646,N,0.16013,K,D*35"}
{"ts":"2026-01-27 17:15:05.916","ms":872917,"raw":"$GPGSV,2,1,07,19,38,310,26,01,30,044,28,06,38,252,39,17,57,341,35,1*6B"}
{"ts":"2026-01-27 17:15:05.920","ms":872920,"raw":"$GPGSV,2,2,07,22,74,285,31,03,51,076,36,14,74,206,37,1*58"}
{"ts":"2026-01-27 17:15:05.926","ms":872926,"raw":"$GPGSV,1,1,04,06,38,252,36,17,57,341,21,03,51,076,21,14,74,206,30,4*6D"}
{"ts":"2026-01-27 17:15:05.929","ms":872930,"raw":"$GPGSV,1,1,04,01,30,044,28,06,38,252,40,03,51,076,30,14,74,206,36,8*6F"}
{"ts":"2026-01-27 17:15:05.933","ms":872933,"raw":"$GLGSV,2,1,05,70,20,092,31,75,57,214,41,76,40,313,38,86,41,290,32,1*7E"}
{"ts":"2026-01-27 17:15:05.935","ms":872936,"raw":"$GLGSV,2,2,05,85,40,020,32,1*47"}
{"ts":"2026-01-27 17:15:05.942","ms":872942,"raw":"$GLGSV,1,1,04,70,20,092,33,75,57,214,37,76,40,313,30,86,41,290,25,3*73"}
{"ts":"2026-01-27 17:15:05.945","ms":872945,"raw":"$GBGSV,5,1,20,03,49,198,25,05,13,251,28,59,45,148,28,60,,,34,1*49"}
{"ts":"2026-01-27 17:15:05.948","ms":872949,"raw":"$GBGSV,5,2,20,35,23,279,21,07,70,338,25,16,20,203,29,10,58,314,31,1*73"}
{"ts":"2026-01-27 17:15:05.952","ms":872952,"raw":"$GBGSV,5,3,20,09,30,221,23,32,20,063,41,48,22,144,24,29,61,348,31,1*71"}
{"ts":"2026-01-27 17:15:05.959","ms":872959,"raw":"$GBGSV,5,4,20,30,32,059,43,47,54,030,33,36,32SV,4,2,13,10,58,314,28,09,30,221,25,32,20,063,44,29,61,348,30,8*71"}
{"ts":"2026-01-27 17:15:05.962","ms":872963,"raw":"$GBGSV,4,3,13,30,32,059,35,47,54,030,28,38,39,172,22,40,64,010,18,8*72"}
{"ts":"2026-01-27 17:15:05.965","ms":872965,"raw":"$GBGSV,4,4,13,45,48,256,41,8*44"}
{"ts":"2026-01-27 17:15:05.968","ms":872968,"raw":"$GBGSV,2,1,08,01,44,140,26,02,32,231,30,03,49,198,25,05,13,251,30,B*05"}
{"ts":"2026-01-27 17:15:05.971","ms":872972,"raw":"$GBGSV,2,2,08,07,70,338,18,16,20,203,29,10,58,314,28,09,30,221,29,B*03"}
{"ts":"2026-01-27 17:15:05.978","ms":872978,"raw":"$GAGSV,2,1,06,18,,,28,13,47,245,36,15,69,011,22,27,80,287,32,1*4E"}
{"ts":"2026-01-27 17:15:05.983","ms":872984,"raw":"$GAGSV,2,2,06,30,43,146,24,34,20,043,19,1*78"}
{"ts":"2026-01-27 17:15:05.986","ms":872987,"raw":"$GAGSV,2,1,06,18,,,27,13,47,245,39,15,69,011,16,27,80,287,36,2*4E"}
{"ts":"2026-01-27 17:15:05.989","ms":872989,"raw":"$GAGSV,2,2,06,30,43,146,25,21,26,317,23,2*73"}
{"ts":"2026-01-27 17:15:05.993","ms":872993,"raw":"$GAGSV,2,1,05,13,47,245,39,15,69,011,24,27,80,287,29,30,43,146,26,5*7A"}
{"ts":"2026-01-27 17:15:05.999","ms":872999,"raw":"$GAGSV,2,2,05,21,26,317,15,5*42"}
{"ts":"2026-01-27 17:15:05.002","ms":873002,"raw":"$GAGSV,2,1,07,18,,,27,13,47,245,39,15,69,011,31,27,80,287,34,7*4D"}
{"ts":"2026-01-27 17:15:05.005","ms":873005,"raw":"$GAGSV,2,2,07,30,43,146,15,34,20,043,22,21,26,317,22,7*47"}
{"ts":"2026-01-27 17:15:05.008","ms":873008,"raw":"$GQGSV,1,1,03,02,62,128,37,03,74,071,30,07,52,168,20,1*57"}
{"ts":"2026-01-27 17:15:05.011","ms":873011,"raw":"$GQGSV,1,1,03,02,62,128,29,03,74,071,31,07,52,168,27,6*59"}
{"ts":"2026-01-27 17:15:06.017","ms":873017,"raw":"$GQGSV,1,1,03,02,62,128,36,03,74,071,28,07,52,168,32,8*55"}
{"ts":"2026-01-27 17:15:06.021","ms":873021,"raw":"$GNGGA,091447.50,3158.56353231,N,12052.61891974,E,5,21,0.8,1.1146,M,8.6092,M,0.5,0*5A"}
{"ts":"2026-01-27 17:15:06.024","ms":873024,"raw":"$GNVTG,298.268,T,304.908,M,0.07288,N,0.13497,K,D*3C"}
{"ts":"2026-01-27 17:15:06.028","ms":873028,"raw":"$GNGGA,091447.60,3158.56353189,N,12052.61891768,E,5,21,0.8,1.1166,M,8.6092,M,0.6,0*5B"}
{"ts":"2026-01-27 17:15:06.034","ms":873034,"raw":"$GNVTG,283.930,T,290.570,M,0.06157,N,0.11402,K,D*31"}
{"ts":"2026-01-27 17:15:06.037","ms":873037,"raw":"$GPGSV,2,1,07,19,38,310,26,01,30,044,28,06,38,252,39,17,57,341,35,1*6B"}
{"ts":"2026-01-27 17:15:06.040","ms":873040,"raw":"$GPGSV,2,2,07,22,74,285,30,03,51,076,36,14,74,206,37,1*59"}
{"ts":"2026-01-27 17:15:06.043","ms":873044,"raw":"$GPGSV,1,1,04,06,38,252,36,17,57,341,21,03,51,076,20,14,74,206,30,4*6C"}
{"ts":"2026-01-27 17:15:06.050","ms":873050,"raw":"$GPGSV,1,1,04,01,30,044,28,06,38,252,40,03,51,076,30,14,74,206,36,8*6F"}
{"ts":"2026-01-27 17:15:06.053","ms":873053,"raw":"$GLGSV,2,1,05,70,20,092,31,75,57,214,41,76,40,313,38,86,41,290,32,1*7E"}
{"ts":"2026-01-27 17:15:06.056","ms":873056,"raw":"$GLGSV,2,2,05,85,40,020,32,1*47"}
{"ts":"2026-01-27 17:15:06.059","ms":873059,"raw":"$GLGSV,1,1,04,70,20,092,33,75,57,214,38,76,40,313,30,86,41,290,26,3*7F"}
{"ts":"2026-01-27 17:15:06.062","ms":873062,"raw":"$GBGSV,5,1,20,03,49,198,26,05,13,251,29,59,45,148,29,60,,,34,1*4A"}
{"ts":"2026-01-27 17:15:06.069","ms":873069,"raw":"$GBGSV,5,2,20,35,23,279,22,07,70,338,25,16,20,203,29,10,58,314,32,1*73"}
{"ts":"2026-01-27 17:15:06.072","ms":873072,"raw":"$GBGSV,5,3,20,09,30,221,25,32,20,063,41,48,22,144,24,29,61,348,31,1*77"}
{"ts":"2026-01-27 17:15:06.075","ms":873076,"raw":"$GBGSV,5,4,20,30,32,059,43,47,54,030,34,36,32,191,24,38,39,172,23,1*75"}
{"ts":"2026-01-27 17:15:06.079","ms":873079,"raw":"$GBGSV,5,5,20,40,64,010,26,26,15,314,26,45,48,256,40,20,27,124,30,1*7E"}
{"ts":"2026-01-27 17:15:06.085","ms":873085,"raw":"$GBGSV,2,18,39,172,23,40,64,010,17,8*7C"}
{"ts":"2026-01-27 17:15:06.087","ms":873087,"raw":"$GBGSV,4,4,13,45,48,256,40,8*45"}
{"ts":"2026-01-27 17:15:06.090","ms":873091,"raw":"$GBGSV,2,1,08,01,44,140,26,02,32,231,30,03,49,198,25,05,13,251,31,B*04"}
{"ts":"2026-01-27 17:15:06.094","ms":873094,"raw":"$GBGSV,2,2,08,07,70,338,18,16,20,203,29,10,58,314,27,09,30,221,28,B*0D"}
{"ts":"2026-01-27 17:15:06.100","ms":873100,"raw":"$GAGSV,2,1,05,18,,,28,13,47,245,37,27,80,287,32,30,43,146,24,1*46"}
{"ts":"2026-01-27 17:15:06.103","ms":873103,"raw":"$GAGSV,2,2,05,34,20,043,18,1*4B"}
{"ts":"2026-01-27 17:15:06.106","ms":873106,"raw":"$GAGSV,2,1,06,18,,,27,13,47,245,39,15,69,011,16,27,80,287,36,2*4E"}
{"ts":"2026-01-27 17:15:06.108","ms":873109,"raw":"$GAGSV,2,2,06,30,43,146,25,21,26,317,23,2*73"}
{"ts":"2026-01-27 17:15:06.112","ms":873112,"raw":"$GAGSV,2,1,05,13,47,245,39,15,69,011,24,27,80,287,29,30,43,146,26,5*7A"}
{"ts":"2026-01-27 17:15:06.118","ms":873118,"raw":"$GAGSV,2,2,05,21,26,317,15,5*42"}
{"ts":"2026-01-27 17:15:06.121","ms":873121,"raw":"$GAGSV,2,1,07,18,,,27,13,47,245,39,15,69,011,31,27,80,287,34,7*4D"}
{"ts":"2026-01-27 17:15:06.124","ms":873124,"raw":"$GAGSV,2,2,07,30,43,146,15,34,20,043,22,21,26,317,22,7*47"}
{"ts":"2026-01-27 17:15:06.127","ms":873127,"raw":"$GQGSV,1,1,03,02,62,128,37,03,74,071,29,07,52,168,20,1*5F"}
{"ts":"2026-01-27 17:15:06.130","ms":873130,"raw":"$GQGSV,1,1,03,02,62,128,29,03,74,071,31,07,52,168,28,6*56"}
{"ts":"2026-01-27 17:15:06.136","ms":873136,"raw":"$GQGSV,1,1,03,02,62,128,36,03,74,071,28,07,52,168,32,8*55"}
{"ts":"2026-01-27 17:15:06.140","ms":873140,"raw":"$GNGGA,091447.80,3158.56352903,N,12052.61891979,E,5,21,0.8,1.1134,M,8.6092,M,0.8,0*59"}
{"ts":"2026-01-27 17:15:06.144","ms":873144,"raw":"$GNGGA,091448.00,3158.56352964,N,12052.61891860,E,5,21,0.8,1.0993,M,8.6092,M,1.0,0*5B"}
{"ts":"2026-01-27 17:15:06.147","ms":873147,"raw":"$GNVTG,214.588,T,221.229,M,0.08983,N,0.16636,K,D*3C"}
{"ts":"2026-01-27 17:15:06.154","ms":873154,"raw":"$GNGGA,091448.10,3158.56352888,N,12052.61891940,E,5,21,0.8,1.0994,M,8.6092,M,1.1,0*5C"}
{"ts":"2026-01-27 17:15:06.157","ms":873157,"raw":"$GNVTG,188.020,T,194.661,M,0.08755,N,0.16214,K,D*39"}
{"ts":"2026-01-27 17:15:06.161","ms":873161,"raw":"$GNGGA,091448.30,3158.56353029,N,12052.61891911,E,5,21,0.8,1.0958,M,8.6092,M,1.3,0*5A"}
{"ts":"2026-01-27 17:15:06.173","ms":873173,"raw":"$GNVTG,176.803,T,183.444,M,0.09049,N,0.16758,K,D*34"}
{"ts":"2026-01-27 17:15:06.179","ms":873179,"raw":"$GPGSV,2,1,07,19,38,310,27,01,30,044,27,06,38,252,38,17,57,341,36,1*67"}
{"ts":"2026-01-27 17:15:06.182","ms":873182,"raw":"$GPGSV,2,2,07,22,74,285,31,03,51,076,36,14,74,206,37,1*58"}
{"ts":"2026-01-27 17:15:06.186","ms":873186,"raw":"$GPGSV,1,1,04,06,38,252,37,17,57,341,23,03,51,076,21,14,74,206,29,4*66"}
{"ts":"2026-01-27 17:15:06.189","ms":873189,"raw":"$GPGSV,1,1,04,01,30,044,29,06,38,252,40,03,51,076,30,14,74,206,36,8*6E"}
{"ts":"2026-01-27 17:15:06.476","ms":873476,"raw":"$GLGSV,2,1,05,70,20,092,30,75,57,214,41,76,40,313,39,86,41,290,32,1*7E"}
{"ts":"2026-01-27 17:15:06.479","ms":873479,"raw":"$GLGSV,2,2,05,85,40,020,33,1*46"}
{"ts":"2026-01-27 17:15:06.487","ms":873487,"raw":"$GLGSV,1,1,04,70,20,092,33,75,57,214,39,76,40,313,30,86,41,290,25,3*7D"}
{"ts":"2026-01-27 17:15:06.490","ms":873490,"raw":"$GBGSV,5,1,18,03,49,198,25,59,45,148,29,60,,,34,35,23,279,23,1*42"}
{"ts":"2026-01-27 17:15:06.493","ms":873493,"raw":"$GBGSV,5,2,18,07,70,338,25,16,20,203,29,10,58,314,32,09,30,221,24,1*7E"}
{"ts":"2026-01-27 17:15:06.499","ms":873499,"raw":"$GBGSV,5,3,18,32,20,063,41,48,22,144,24,29,61,348,30,30,32,059,43,1*78"}
{"ts":"2026-01-27 17:15:06.503","ms":873503,"raw":"$GBGSV,5,4,18,47,54,030,36,38,39,172,22,40,64,01021,24,32,20,063,44,29,61,348,30,8*70"}
{"ts":"2026-01-27 17:15:06.506","ms":873506,"raw":"$GBGSV,4,3,13,30,32,059,36,47,54,030,28,38,39,172,25,40,64,010,17,8*79"}
{"ts":"2026-01-27 17:15:06.509","ms":873509,"raw":"$GBGSV,4,4,13,45,48,256,40,8*45"}
{"ts":"2026-01-27 17:15:06.515","ms":873515,"raw":"$GBGSV,2,1,08,01,44,140,28,02,32,231,27,03,49,198,26,05,13,251,32,B*0C"}
{"ts":"2026-01-27 17:15:06.519","ms":873519,"raw":"$GBGSV,2,2,08,07,70,338,19,16,20,203,29,10,58,314,27,09,30,221,29,B*0D"}
{"ts":"2026-01-27 17:15:06.522","ms":873522,"raw":"$GAGSV,2,1,05,18,,,28,13,47,245,37,15,69,011,20,27,80,287,32,1*4E"}
{"ts":"2026-01-27 17:15:06.524","ms":873525,"raw":"$GAGSV,2,2,05,30,43,146,25,1*40"}
{"ts":"2026-01-27 17:15:06.531","ms":873531,"raw":"$GAGSV,2,1,06,18,,,28,13,47,245,40,15,69,011,16,27,80,287,36,2*4F"}
{"ts":"2026-01-27 17:15:06.534","ms":873534,"raw":"$GAGSV,2,2,06,30,43,146,25,21,26,317,23,2*73"}
{"ts":"2026-01-27 17:15:06.537","ms":873537,"raw":"$GAGSV,2,1,05,13,47,245,40,15,69,011,25,27,80,287,28,30,43,146,27,5*75"}
{"ts":"2026-01-27 17:15:06.539","ms":873539,"raw":"$GAGSV,2,2,05,21,26,317,14,5*43"}
{"ts":"2026-01-27 17:15:06.542","ms":873543,"raw":"$GAGSV,2,1,07,18,,,26,13,47,245,39,15,69,011,31,27,80,287,34,7*4C"}
{"ts":"2026-01-27 17:15:06.549","ms":873549,"raw":"$GAGSV,2,2,07,30,43,146,17,34,20,043,22,21,26,317,21,7*46"}
{"ts":"2026-01-27 17:15:06.552","ms":873552,"raw":"$GQGSV,1,1,03,02,62,128,38,03,74,071,30,07,52,168,20,1*58"}
{"ts":"2026-01-27 17:15:06.555","ms":873555,"raw":"$GQGSV,1,1,03,02,62,128,30,03,74,071,31,07,52,168,27,6*51"}
{"ts":"2026-01-27 17:15:06.558","ms":873558,"raw":"$GQGSV,1,1,03,02,62,128,36,03,74,071,27,07,52,168,32,8*5A"}
{"ts":"2026-01-27 17:15:06.561","ms":873562,"raw":"$GNGGA,091448.50,3158.56352829,N,12052.61891926,E,5,21,0.8,1.0944,M,8.6092,M,1.5,0*5A"}
{"ts":"2026-01-27 17:15:06.568","ms":873568,"raw":"$GNVTG,175.998,T,182.639,M,0.11060,N,0.20483,K,D*3F"}
{"ts":"2026-01-27 17:15:06.571","ms":873571,"raw":"$GPGSV,2,1,07,19,38,310,28,01,30,044,27,06,38,252,39,17,57,341,35,1*6A"}
{"ts":"2026-01-27 17:15:06.574","ms":873574,"raw":"$GPGSV,2,2,07,22,74,285,30,03,51,076,36,14,74,206,37,1*59"}
{"ts":"2026-01-27 17:15:06.577","ms":873577,"raw":"$GPGSV,1,1,04,06,38,252,37,17,57,341,23,03,51,076,21,14,74,206,29,4*66"}
{"ts":"2026-01-27 17:15:06.584","ms":873584,"raw":"$GPGSV,1,1,04,01,30,044,29,06,38,252,40,03,51,076,29,14,74,206,36,8*66"}
{"ts":"2026-01-27 17:15:06.587","ms":873587,"raw":"$GLGSV,2,1,05,70,20,092,30,75,57,214,42,76,40,313,39,86,41,290,32,1*7D"}
{"ts":"2026-01-27 17:15:06.589","ms":873590,"raw":"$GLGSV,2,2,05,85,40,020,33,1*46"}
{"ts":"2026-01-27 17:15:06.593","ms":873593,"raw":"$GLGSV,1,1,04,70,20,092,33,75,57,214,38,76,40,313,30,86,41,290,25,3*7C"}
{"ts":"2026-01-27 17:15:06.599","ms":873599,"raw":"$GBGSV,5,1,18,03,49,198,26,59,45,148,28,60,,,34,35,23,279,23,1*40"}
{"ts":"2026-01-27 17:15:06.602","ms":873603,"raw":"$GBGSV,5,2,18,07,70,338,24,16,20,203,29,10,58,314,32,09,30,221,24,1*7F"}
{"ts":"2026-01-27 17:15:06.606","ms":873606,"raw":"$GBGSV,5,3,18,32,20,063,41,48,22,144,23,29,61,348,30,30,32,059,43,1*7F"}
{"ts":"2026-01-27 17:15:06.609","ms":873609,"raw":"$GBGSV,5,4,18,47,54,030,35,38,39,172,22,40,64,010,28,26,15,314,26,1*73"}
{"ts":"2026-01-27 17:15:06.615","ms":873615,"raw":"$GBGSV,5,5,18,45,48,256,40,20,27,124,30,1*74"}
{"ts":"2026-01-27 17:15:06.618","ms":873618,"raw":"$GBGSV,2,1,07,35,23,279,27,32,20,063,42,29,61,348,31,30,32,059,41,3*74"}
{"ts":"2026-01-27 17:15:06.621","ms":873621,"raw":"$GBGSV,2,2,07,47,54,030,28,40,64,010,25,45,48,256,38,3*4F"}
{"ts":"2026-01-27 17:15:06.625","ms":873625,"raw":"$GBGSV,2,1,08,35,23,279,28,32,20,063,45,48,22,144,23,29,61,348,26,5*74"}
{"ts":"2026-01-27 17:15:06.628","ms":873628,"raw":"$GBGSV,2,2,08,30GAGSV,2,1,05,18,,,27,13,47,245,37,15,69,011,20,27,80,287,32,1*41"}
{"ts":"2026-01-27 17:15:06.634","ms":873634,"raw":"$GAGSV,2,2,05,30,43,146,25,1*40"}
{"ts":"2026-01-27 17:15:06.637","ms":873637,"raw":"$GAGSV,2,1,06,18,,,27,13,47,245,39,15,69,011,16,27,80,287,36,2*4E"}
{"ts":"2026-01-27 17:15:06.640","ms":873640,"raw":"$GAGSV,2,2,06,30,43,146,25,21,26,317,23,2*73"}
{"ts":"2026-01-27 17:15:06.643","ms":873643,"raw":"$GAGSV,2,1,05,13,47,245,39,15,69,011,24,27,80,287,29,30,43,146,26,5*7A"}
{"ts":"2026-01-27 17:15:06.649","ms":873649,"raw":"$GAGSV,2,2,05,21,26,317,13,5*44"}
{"ts":"2026-01-27 17:15:06.652","ms":873652,"raw":"$GAGSV,2,1,07,18,,,26,13,47,245,39,15,69,011,30,27,80,287,34,7*4D"}
{"ts":"2026-01-27 17:15:06.655","ms":873655,"raw":"$GAGSV,2,2,07,30,43,146,17,34,20,043,22,21,26,317,21,7*46"}
{"ts":"2026-01-27 17:15:06.658","ms":873658,"raw":"$GQGSV,1,1,03,02,62,128,38,03,74,071,30,07,52,168,20,1*58"}
{"ts":"2026-01-27 17:15:06.661","ms":873661,"raw":"$GQGSV,1,1,03,02,62,128,30,03,74,071,31,07,52,168,27,6*51"}
{"ts":"2026-01-27 17:15:06.667","ms":873667,"raw":"$GQGSV,1,1,03,02,62,128,36,03,74,071,27,07,52,168,31,8*59"}
{"ts":"2026-01-27 17:15:06.671","ms":873671,"raw":"$GNGGA,091448.70,3158.56353078,N,12052.61891649,E,5,21,0.8,1.1069,M,8.6092,M,0.7,0*57"}
{"ts":"2026-01-27 17:15:06.674","ms":873674,"raw":"$GNVTG,174.643,T,181.283,M,0.13583,N,0.25156,K,D*33"}
